{"sex": "F", "races": {"Z\u00fcrich Marathon, Teamrun und Cityrun": {"race": "Z\u00fcrich Marathon, Teamrun und Cityrun", "longitude": 8.541694, "latitude": 47.3768866, "date": {"dim. 09.04.2006": {"weekday": "sunday", "year": 2006, "categories": {"W30": {"pace": 327000000000, "rank": 144, "distance": 42, "time": 13813.5}}, "day": 9, "month": 4, "livingplace": "St Saphorin sur Morg"}}, "location": "Z\u00fcrich"}, "Tour du Pays de Vaud printanier #1 Moudon": {"race": "Tour du Pays de Vaud printanier #1 Moudon", "longitude": 6.2347852, "latitude": 46.3832683, "date": {"mer. 29.05.2013": {"weekday": "wednesday", "year": 2013, "categories": {"D-Sen2": {"pace": 296000000000, "rank": 2, "distance": 8, "time": 2538.8}}, "day": 29, "month": 5, "livingplace": "Morges"}}, "location": "Nyon"}, "D\u00e9fi du vignoble, Cully": {"race": "D\u00e9fi du vignoble, Cully", "longitude": -122.6066627, "latitude": 45.565921, "date": {"mer. 14.05.2014": {"weekday": "wednesday", "year": 2014, "categories": {"F40": {"pace": 550000000000, "rank": 3, "distance": 4, "time": 2005.4}}, "day": 14, "month": 5, "livingplace": "Morges"}}, "location": "Cully"}, "Kerzerslauf": {"race": "Kerzerslauf", "longitude": 7.1954365, "latitude": 46.97488999999999, "date": {"sam. 17.03.2007": {"weekday": "saturday", "year": 2007, "categories": {"F35": {"pace": 318000000000, "rank": 95, "distance": 15, "time": 4781.8}}, "day": 17, "month": 3, "livingplace": "St Saphorin sur Morg G"}}, "location": "Kerzers"}, "Tour du Pays de Vaud printanier #3 - Yens": {"race": "Tour du Pays de Vaud printanier #3 - Yens", "longitude": 6.5728678, "latitude": 46.7829756, "date": {"mer. 12.06.2013": {"weekday": "wednesday", "year": 2013, "categories": {"D-Sen2": {"pace": 300000000000, "rank": 5, "distance": 9, "time": 2731.5}}, "day": 12, "month": 6, "livingplace": "Morges"}}, "location": "Champvent"}, "Tour du Pays de Vaud printanier #2 Yverdon-les-Bains": {"race": "Tour du Pays de Vaud printanier #2 Yverdon-les-Bains", "longitude": 6.7975224, "latitude": 46.6698891, "date": {"mer. 05.06.2013": {"weekday": "wednesday", "year": 2013, "categories": {"D-Sen2": {"pace": 303000000000, "rank": 2, "distance": 9, "time": 2762.7}}, "day": 5, "month": 6, "livingplace": "Morges"}}, "location": "Moudon"}, "Jungfrau-Marathon, Interlaken": {"race": "Jungfrau-Marathon, Interlaken", "date": {"sam. 11.09.2004": {"weekday": "saturday", "year": 2004, "categories": {"F20": {"pace": 471000000000, "rank": 162, "distance": 42, "time": 19887.6}}, "day": 11, "month": 9, "livingplace": "Morges"}}, "location": "Interlaken"}, "20km de Lausanne": {"race": "20km de Lausanne", "longitude": 6.6322734, "latitude": 46.5196535, "date": {"sam. 22.04.2006": {"weekday": "saturday", "year": 2006, "categories": {"20/F30": {"pace": 324000000000, "rank": 35, "distance": 20, "time": 6497.5}}, "day": 22, "month": 4, "livingplace": "Morges"}}, "location": "Lausanne"}}, "name": "Aceti Vendrami Daniela", "birth": 1968}