{"sex": "M", "races": {"Z\u00fcrich Marathon, Teamrun und Cityrun": {"race": "Z\u00fcrich Marathon, Teamrun und Cityrun", "longitude": 8.541694, "latitude": 47.3768866, "date": {"dim. 17.04.2011": {"weekday": "sunday", "year": 2011, "categories": {"42-M50": {"pace": 295000000000, "rank": 128, "distance": 42, "time": 12486.3}}, "day": 17, "month": 4, "livingplace": "Roth"}}, "location": "Z\u00fcrich"}, "Glacier 3000 Run, Gstaad": {"race": "Glacier 3000 Run, Gstaad", "longitude": 7.2865728, "latitude": 46.4717588, "date": {"sam. 08.08.2009": {"weekday": "saturday", "year": 2009, "categories": {"M50": {"pace": 484000000000, "rank": 23, "distance": 26, "time": 12585.1}}, "day": 8, "month": 8, "livingplace": "Rothenhausen"}}, "location": "Gstaad"}, "20km de Lausanne": {"race": "20km de Lausanne", "longitude": 6.6322734, "latitude": 46.5196535, "date": {"sam. 22.04.2006": {"weekday": "saturday", "year": 2006, "categories": {"20/H45": {"pace": 270000000000, "rank": 39, "distance": 20, "time": 5400.3}}, "day": 22, "month": 4, "livingplace": "Rothenhausen"}}, "location": "Lausanne"}, "Gempenlauf, Dornach": {"race": "Gempenlauf, Dornach", "longitude": 7.6170412, "latitude": 47.4790491, "date": {"mer. 06.06.2012": {"weekday": "wednesday", "year": 2012, "categories": {"M55": {"pace": 324000000000, "rank": 11, "distance": 8, "time": 2531.2}}, "day": 6, "month": 6, "livingplace": "Rothenhausen"}}, "location": "Dornach"}, "Montreux - Les Rochers de Naye": {"race": "Montreux - Les Rochers de Naye", "longitude": 6.9106799, "latitude": 46.4312213, "date": {"dim. 10.07.2011": {"weekday": "sunday", "year": 2011, "categories": {"M-HV\u00e9t2": {"pace": 430000000000, "rank": 17, "distance": 19, "time": 8086.3}}, "day": 10, "month": 7, "livingplace": "Rothenhausen"}}, "location": "Montreux"}, "Lausanne Marathon": {"race": "Lausanne Marathon", "longitude": 6.6322734, "latitude": 46.5196535, "date": {"dim. 27.10.2013": {"weekday": "sunday", "year": 2013, "categories": {"42-H4": {"pace": 301000000000, "rank": 28, "distance": 42, "time": 12739.9}}, "day": 27, "month": 10, "livingplace": "Rothenhausen"}, "dim. 30.10.2011": {"weekday": "sunday", "year": 2011, "categories": {"42-H4": {"pace": 298000000000, "rank": 27, "distance": 42, "time": 12595.3}}, "day": 30, "month": 10, "livingplace": "Rothenhausen"}}, "location": "Lausanne"}, "GP der Stadt D\u00fcbendorf": {"race": "GP der Stadt D\u00fcbendorf", "longitude": 8.618012799999999, "latitude": 47.3971476, "date": {"sam. 01.04.2006": {"weekday": "saturday", "year": 2006, "categories": {"C": {"pace": 253000000000, "rank": 67, "distance": 12, "time": 3117.1}}, "day": 1, "month": 4, "livingplace": "Rothenhausen"}}, "location": "D\u00fcbendorf"}, "Neujahrsmarathon Z\u00fcrich, Schlieren": {"race": "Neujahrsmarathon Z\u00fcrich, Schlieren", "longitude": 8.448795, "latitude": 47.3982611, "date": {"lun. 01.01.2007": {"weekday": "monday", "year": 2007, "categories": {"MaraM": {"pace": 340000000000, "rank": 51, "distance": 42, "time": 14358.9}}, "day": 1, "month": 1, "livingplace": "Rothenhausen"}}, "location": "Schlieren"}, "Frauenfelder": {"race": "Frauenfelder", "date": {"dim. 18.11.2007": {"weekday": "sunday", "year": 2007, "categories": {"MM50": {"pace": 347000000000, "rank": 25, "distance": 42, "time": 14677.3}}, "day": 18, "month": 11, "livingplace": "Rothenhausen"}}, "location": "Frauenfeld"}, "Jungfrau-Marathon, Interlaken": {"race": "Jungfrau-Marathon, Interlaken", "date": {"sam. 08.09.2007": {"weekday": "saturday", "year": 2007, "categories": {"M50": {"pace": 380000000000, "rank": 58, "distance": 42, "time": 16072.8}}, "day": 8, "month": 9, "livingplace": "Rothenhausen"}, "sam. 09.09.2006": {"weekday": "saturday", "year": 2006, "categories": {"M45": {"pace": 368000000000, "rank": 44, "distance": 42, "time": 15532.0}}, "day": 9, "month": 9, "livingplace": "Rothenhausen"}}, "location": "Interlaken"}}, "name": "Ackermann Martin", "birth": 1957}