{"sex": "M", "races": {"BCN Tour La Chaux-de-Fonds": {"race": "BCN Tour La Chaux-de-Fonds", "longitude": 6.832783800000001, "latitude": 47.1034892, "date": {"mer. 11.05.2011": {"weekday": "wednesday", "year": 2011, "categories": {"HS1": {"pace": 256000000000, "rank": 3, "distance": 11, "time": 2741.3}}, "day": 11, "month": 5, "livingplace": "Le Locle"}, "mer. 23.05.2012": {"weekday": "wednesday", "year": 2012, "categories": {"HS1": {"pace": 221000000000, "rank": 5, "distance": 11, "time": 2388.0}}, "day": 23, "month": 5, "livingplace": "Le Locle"}}, "location": "La Chaux-de-Fonds"}, "BCN Tour Auvernier": {"race": "BCN Tour Auvernier", "longitude": 6.8589727, "latitude": 46.9668714, "date": {"mer. 20.04.2011": {"weekday": "wednesday", "year": 2011, "categories": {"HS1": {"pace": 225000000000, "rank": 1, "distance": 11, "time": 2430.7}}, "day": 20, "month": 4, "livingplace": "Le Locle"}}, "location": "Colombier NE"}, "La Trotteuse-Tissot, La Chaux-de-Fonds": {"race": "La Trotteuse-Tissot, La Chaux-de-Fonds", "longitude": 6.832783800000001, "latitude": 47.1034892, "date": {"sam. 17.12.2011": {"weekday": "saturday", "year": 2011, "categories": {"GC-H30": {"pace": 225000000000, "rank": 7, "distance": 8, "time": 1801.7}}, "day": 17, "month": 12, "livingplace": "Le Locle"}, "sam. 12.12.2015": {"weekday": "saturday", "year": 2015, "categories": {"GC-H30": {"pace": 215000000000, "rank": 9, "distance": 8, "time": 1720.8}}, "day": 12, "month": 12, "livingplace": "L'amicale du velo"}, "sam. 14.12.2013": {"weekday": "saturday", "year": 2013, "categories": {"GC-H30": {"pace": 216000000000, "rank": 11, "distance": 8, "time": 1729.2}}, "day": 14, "month": 12, "livingplace": "La vache m'emeuhh"}, "sam. 13.12.2014": {"weekday": "saturday", "year": 2014, "categories": {"GC-H30": {"pace": 301000000000, "rank": 164, "distance": 8, "time": 2414.8}}, "day": 13, "month": 12, "livingplace": "La vache m'emeuh"}}, "location": "La Chaux-de-Fonds"}, "Morat-Fribourg": {"race": "Morat-Fribourg", "longitude": 7.120184, "latitude": 46.92922110000001, "date": {"sam. 04.10.2014": {"weekday": "saturday", "year": 2014, "categories": {"17-M20": {"pace": 225000000000, "rank": 54, "distance": 17, "time": 3875.6}}, "day": 4, "month": 10, "livingplace": "Le Locle"}, "dim. 06.10.2002": {"weekday": "sunday", "year": 2002, "categories": {"M20": {"pace": 233000000000, "rank": 126, "distance": 17, "time": 4002.9}}, "day": 6, "month": 10, "livingplace": "Le Locle"}, "dim. 05.10.2003": {"weekday": "sunday", "year": 2003, "categories": {"M20": {"pace": 232000000000, "rank": 99, "distance": 17, "time": 3992.4}}, "day": 5, "month": 10, "livingplace": "Le Locle"}, "sam. 03.10.2015": {"weekday": "saturday", "year": 2015, "categories": {"17-M20": {"pace": 223000000000, "rank": 32, "distance": 17, "time": 3834.6}}, "day": 3, "month": 10, "livingplace": "Le Locle"}}, "location": "Murten"}, "BCN Tour Fontaine Cernier": {"race": "BCN Tour Fontaine Cernier", "longitude": 6.9175754, "latitude": 47.0624261, "date": {"mer. 27.04.2011": {"weekday": "wednesday", "year": 2011, "categories": {"HS1": {"pace": 218000000000, "rank": 3, "distance": 10, "time": 2248.7}}, "day": 27, "month": 4, "livingplace": "Le Locle"}}, "location": "Ch\u00e9zard-St-Martin"}, "BCN Tour Neuch\u00e2tel": {"race": "BCN Tour Neuch\u00e2tel", "longitude": 6.9292732, "latitude": 46.9899874, "date": {"mer. 25.05.2011": {"weekday": "wednesday", "year": 2011, "categories": {"HS1": {"pace": 223000000000, "rank": 3, "distance": 11, "time": 2552.2}}, "day": 25, "month": 5, "livingplace": "Le Locle"}, "mer. 26.05.2010": {"weekday": "wednesday", "year": 2010, "categories": {"HS1": {"pace": 231000000000, "rank": 5, "distance": 10, "time": 2248.5}}, "day": 26, "month": 5, "livingplace": "Le Locle"}, "mer. 30.05.2012": {"weekday": "wednesday", "year": 2012, "categories": {"HS1": {"pace": 229000000000, "rank": 4, "distance": 11, "time": 2567.0}}, "day": 30, "month": 5, "livingplace": "Le Locle"}}, "location": "Neuch\u00e2tel"}, "Sierre-Zinal, Sierre": {"race": "Sierre-Zinal, Sierre", "longitude": 7.533536199999999, "latitude": 46.29413110000001, "date": {"dim. 09.08.2015": {"weekday": "sunday", "year": 2015, "categories": {"ElitesHo": {"pace": 364000000000, "rank": 47, "distance": 31, "time": 11308.8}}, "day": 9, "month": 8, "livingplace": "Le Locle"}, "dim. 12.08.2012": {"weekday": "sunday", "year": 2012, "categories": {"Elites": {"pace": 369000000000, "rank": 59, "distance": 31, "time": 11466.9}}, "day": 12, "month": 8, "livingplace": "Le Locle"}}, "location": "Sierre"}, "BCN Tour Les Ponts-de-Martel": {"race": "BCN Tour Les Ponts-de-Martel", "longitude": 6.733554799999999, "latitude": 46.999113, "date": {"mer. 09.05.2012": {"weekday": "wednesday", "year": 2012, "categories": {"HS1": {"pace": 225000000000, "rank": 6, "distance": 10, "time": 2318.3}}, "day": 9, "month": 5, "livingplace": "Le Locle"}}, "location": "Les Ponts-de-Martel"}, "BCN Tour Le Locle": {"race": "BCN Tour Le Locle", "longitude": 6.733554799999999, "latitude": 46.999113, "date": {"mer. 05.05.2010": {"weekday": "wednesday", "year": 2010, "categories": {"HS1": {"pace": 218000000000, "rank": 5, "distance": 11, "time": 2385.2}}, "day": 5, "month": 5, "livingplace": "Le Locle"}}, "location": "Les Ponts-de-Martel"}, "Corrida Bulloise, Bulle": {"race": "Corrida Bulloise, Bulle", "longitude": 7.057726799999999, "latitude": 46.6154512, "date": {"sam. 21.11.2015": {"weekday": "saturday", "year": 2015, "categories": {"8-M20": {"pace": 216000000000, "rank": 11, "distance": 8, "time": 1761.4}}, "day": 21, "month": 11, "livingplace": "Le Locle"}}, "location": "Bulle"}, "BCN Tour Les Ponts de Martel": {"race": "BCN Tour Les Ponts de Martel", "longitude": 6.6324944, "latitude": 46.9262933, "date": {"mer. 18.05.2011": {"weekday": "wednesday", "year": 2011, "categories": {"HS1": {"pace": 230000000000, "rank": 2, "distance": 13, "time": 2947.9}}, "day": 18, "month": 5, "livingplace": "Le Locle"}}, "location": "Couvet"}, "BCN Tour M\u00f4tier": {"race": "BCN Tour M\u00f4tier", "longitude": 6.6324944, "latitude": 46.9262933, "date": {"mer. 19.05.2010": {"weekday": "wednesday", "year": 2010, "categories": {"HS1": {"pace": 213000000000, "rank": 6, "distance": 10, "time": 2114.0}}, "day": 19, "month": 5, "livingplace": "Le Locle"}}, "location": "Couvet"}, "Groupe E Tour Fribourg #5, Givisiez": {"race": "Groupe E Tour Fribourg #5, Givisiez", "longitude": 7.131657799999999, "latitude": 46.8128615, "date": {"mer. 17.09.2014": {"weekday": "wednesday", "year": 2014, "categories": {"H-Sen1": {"pace": 227000000000, "rank": 3, "distance": 10, "time": 2335.8}}, "day": 17, "month": 9, "livingplace": "Le Locle"}}, "location": "Givisiez"}, "BCN Tour Ponts-de-Martel": {"race": "BCN Tour Ponts-de-Martel", "longitude": 6.9175754, "latitude": 47.0624261, "date": {"mer. 28.04.2010": {"weekday": "wednesday", "year": 2010, "categories": {"HS1": {"pace": 223000000000, "rank": 5, "distance": 11, "time": 2501.0}}, "day": 28, "month": 4, "livingplace": "Le Locle"}}, "location": "Ch\u00e9zard-St-Martin"}, "BCN Tour Couvet": {"race": "BCN Tour Couvet", "longitude": 6.9175754, "latitude": 47.0624261, "date": {"mer. 02.05.2012": {"weekday": "wednesday", "year": 2012, "categories": {"HS1": {"pace": 227000000000, "rank": 6, "distance": 11, "time": 2532.8}}, "day": 2, "month": 5, "livingplace": "Le Locle"}}, "location": "Ch\u00e9zard-St-Martin"}, "BCN Tour Cornaux": {"race": "BCN Tour Cornaux", "longitude": 6.8589727, "latitude": 46.9668714, "date": {"mer. 25.04.2012": {"weekday": "wednesday", "year": 2012, "categories": {"HS1": {"pace": 240000000000, "rank": 6, "distance": 11, "time": 2646.5}}, "day": 25, "month": 4, "livingplace": "Le Locle"}}, "location": "Colombier NE"}, "D\u00e9fi Val-de-Travers, Couvet": {"race": "D\u00e9fi Val-de-Travers, Couvet", "longitude": 6.6324944, "latitude": 46.9262933, "date": {"sam. 20.06.2009": {"weekday": "saturday", "year": 2009, "categories": {"SH": {"pace": 247000000000, "rank": 1, "distance": 20, "time": 4874.5}}, "day": 20, "month": 6, "livingplace": "Le Locle"}}, "location": "Couvet"}, "BCN Tour Le Landeron": {"race": "BCN Tour Le Landeron", "longitude": 6.8589727, "latitude": 46.9668714, "date": {"mer. 22.04.2009": {"weekday": "wednesday", "year": 2009, "categories": {"HS1": {"pace": 228000000000, "rank": 11, "distance": 11, "time": 2533.2}}, "day": 22, "month": 4, "livingplace": "Les Rugueux"}}, "location": "Colombier NE"}, "BCN Tour Colombier": {"race": "BCN Tour Colombier", "longitude": 6.8589727, "latitude": 46.9668714, "date": {"mer. 21.04.2010": {"weekday": "wednesday", "year": 2010, "categories": {"HS1": {"pace": 259000000000, "rank": 17, "distance": 10, "time": 2597.6}}, "day": 21, "month": 4, "livingplace": "Le Locle"}, "mer. 16.05.2012": {"weekday": "wednesday", "year": 2012, "categories": {"HS1": {"pace": 223000000000, "rank": 5, "distance": 11, "time": 2418.0}}, "day": 16, "month": 5, "livingplace": "Le Locle"}, "mer. 23.04.2008": {"weekday": "wednesday", "year": 2008, "categories": {"HE": {"pace": 226000000000, "rank": 3, "distance": 10, "time": 2307.0}}, "day": 23, "month": 4, "livingplace": "Les rugueux"}}, "location": "Colombier NE"}, "BCN Tour La Br\u00e9vine": {"race": "BCN Tour La Br\u00e9vine", "longitude": 6.733554799999999, "latitude": 46.999113, "date": {"mer. 04.05.2011": {"weekday": "wednesday", "year": 2011, "categories": {"HS1": {"pace": 227000000000, "rank": 3, "distance": 10, "time": 2278.5}}, "day": 4, "month": 5, "livingplace": "Le Locle"}}, "location": "Les Ponts-de-Martel"}, "Aletsch-Halbmarathon, Bettmeralp": {"race": "Aletsch-Halbmarathon, Bettmeralp", "date": {"dim. 28.06.2015": {"weekday": "sunday", "year": 2015, "categories": {"M35": {"pace": 322000000000, "rank": 4, "distance": 21, "time": 6800.1}}, "day": 28, "month": 6, "livingplace": "Le Locle"}}, "location": "Bettmeralp"}, "BCN Tour La Chaux-de-fonds": {"race": "BCN Tour La Chaux-de-fonds", "longitude": 6.832783800000001, "latitude": 47.1034892, "date": {"mer. 12.05.2010": {"weekday": "wednesday", "year": 2010, "categories": {"HS1": {"pace": 266000000000, "rank": 4, "distance": 11, "time": 2851.1}}, "day": 12, "month": 5, "livingplace": "Le Locle"}}, "location": "La Chaux-de-Fonds"}}, "name": "Aeschlimann Gilles", "birth": 1979}