{"sex": "M", "races": {"Tour du Chablais #6 Monthey": {"race": "Tour du Chablais #6 Monthey", "longitude": 6.970566, "latitude": 46.3190253, "date": {"mer. 08.05.2013": {"weekday": "wednesday", "year": 2013, "categories": {"M-M20": {"pace": 242000000000, "rank": 50, "distance": 9, "time": 2259.7}}, "day": 8, "month": 5, "livingplace": "Leysin"}}, "location": "Aigle"}, "Tour du Chablais #5 Morgins": {"race": "Tour du Chablais #5 Morgins", "longitude": 6.931504599999999, "latitude": 46.3603257, "date": {"mer. 01.05.2013": {"weekday": "wednesday", "year": 2013, "categories": {"M-M20": {"pace": 258000000000, "rank": 55, "distance": 8, "time": 1961.4}}, "day": 1, "month": 5, "livingplace": "Leysin"}}, "location": "Roche VD"}, "Tour du Chablais #1 Martigny": {"race": "Tour du Chablais #1 Martigny", "longitude": 6.9916269, "latitude": 46.2957462, "date": {"mer. 23.04.2014": {"weekday": "wednesday", "year": 2014, "categories": {"M-M20": {"pace": 246000000000, "rank": 64, "distance": 9, "time": 2093.8}}, "day": 23, "month": 4, "livingplace": "Leysin"}}, "location": "Ollon VD"}, "Morat-Fribourg": {"race": "Morat-Fribourg", "longitude": 7.120184, "latitude": 46.92922110000001, "date": {"sam. 06.10.2012": {"weekday": "saturday", "year": 2012, "categories": {"17-M20": {"pace": 280000000000, "rank": 589, "distance": 17, "time": 4899.7}}, "day": 6, "month": 10, "livingplace": "Leysin"}}, "location": "Murten"}, "Tour du Chablais #4 St  Maurice": {"race": "Tour du Chablais #4 St  Maurice", "date": {"mer. 24.04.2013": {"weekday": "wednesday", "year": 2013, "categories": {"M-M20": {"pace": 262000000000, "rank": 80, "distance": 10, "time": 2626.0}}, "day": 24, "month": 4, "livingplace": "Leysin"}}, "location": "Les Mosses"}, "Montreux - Les Rochers de Naye": {"race": "Montreux - Les Rochers de Naye", "longitude": 6.9106799, "latitude": 46.4312213, "date": {"dim. 06.07.2014": {"weekday": "sunday", "year": 2014, "categories": {"M-HElite": {"pace": 451000000000, "rank": 119, "distance": 19, "time": 8492.0}}, "day": 6, "month": 7, "livingplace": "Leysin"}}, "location": "Montreux"}}, "name": "Alaani Ousama", "birth": 1979}