{"sex": "M", "races": {"Thuner Langstreckenlauf": {"race": "Thuner Langstreckenlauf", "longitude": 7.6279881, "latitude": 46.7579868, "date": {"sam. 27.05.2000": {"weekday": "saturday", "year": 2000, "categories": {"M60": {"pace": 265000000000, "rank": 3, "distance": 15, "time": 3846.0}}, "day": 27, "month": 5, "livingplace": "Brenzikofen"}}, "location": "Thun"}, "Gurtenclassic, Wabern": {"race": "Gurtenclassic, Wabern", "longitude": 7.448973199999999, "latitude": 46.92901639999999, "date": {"dim. 05.11.2000": {"weekday": "sunday", "year": 2000, "categories": {"M60": {"pace": 343000000000, "rank": 13, "distance": 15, "time": 5188.4}}, "day": 5, "month": 11, "livingplace": "Herbligen"}}, "location": "Wabern"}, "GP Fricktal, Eiken": {"race": "GP Fricktal, Eiken", "date": {"sam. 07.04.2007": {"weekday": "saturday", "year": 2007, "categories": {"M60": {"pace": 364000000000, "rank": 55, "distance": 16, "time": 5859.6}}, "day": 7, "month": 4, "livingplace": "Herbligen"}}, "location": "Eiken"}, "ASICS Bremgarter Reusslauf": {"race": "ASICS Bremgarter Reusslauf", "longitude": 8.3397905, "latitude": 47.34917739999999, "date": {"sam. 27.02.2010": {"weekday": "saturday", "year": 2010, "categories": {"M70": {"pace": 370000000000, "rank": 19, "distance": 11, "time": 4072.6}}, "day": 27, "month": 2, "livingplace": "Uetendorf"}}, "location": "Bremgarten AG"}, "Kerzerslauf": {"race": "Kerzerslauf", "longitude": 7.1954365, "latitude": 46.97488999999999, "date": {"sam. 17.03.2001": {"weekday": "saturday", "year": 2001, "categories": {"M60": {"pace": 310000000000, "rank": 49, "distance": 15, "time": 4650.0}}, "day": 17, "month": 3, "livingplace": "Herbligen"}}, "location": "Kerzers"}, "Basler Stadtlauf": {"race": "Basler Stadtlauf", "longitude": 7.5885761, "latitude": 47.5595986, "date": {"sam. 24.11.2007": {"weekday": "saturday", "year": 2007, "categories": {"X": {"pace": 317000000000, "rank": 93, "distance": 6, "time": 1747.9}}, "day": 24, "month": 11, "livingplace": "Brenzikofen"}}, "location": "Basel"}}, "name": "Amb\u00fchl Werner", "birth": 1940}