{"sex": "M", "races": {"Birslauf Basel": {"race": "Birslauf Basel", "longitude": 7.5885761, "latitude": 47.5595986, "date": {"sam. 06.04.2013": {"weekday": "saturday", "year": 2013, "categories": {"M\u00e4nner": {"pace": 242000000000, "rank": 82, "distance": 10, "time": 2427.5}}, "day": 6, "month": 4, "livingplace": "Muttenz"}}, "location": "Basel"}, "Basel City Marathon": {"race": "Basel City Marathon", "longitude": 7.5885761, "latitude": 47.5595986, "date": {"dim. 03.09.2006": {"weekday": "sunday", "year": 2006, "categories": {"H-M30": {"pace": 314000000000, "rank": 116, "distance": 21, "time": 6634.7}}, "day": 3, "month": 9, "livingplace": "Basel"}}, "location": "Basel"}, "Brienzerseelauf, B\u00f6nigen": {"race": "Brienzerseelauf, B\u00f6nigen", "date": {"sam. 10.10.2015": {"weekday": "saturday", "year": 2015, "categories": {"1-M20": {"pace": 267000000000, "rank": 7, "distance": 35, "time": 9368.0}}, "day": 10, "month": 10, "livingplace": "Basel"}}, "location": "B\u00f6nigen b. Interlaken"}, "Winterthur Marathon": {"race": "Winterthur Marathon", "longitude": -75.6037351, "latitude": 39.8088766, "date": {"dim. 06.05.2012": {"weekday": "sunday", "year": 2012, "categories": {"10-M30": {"pace": 259000000000, "rank": 8, "distance": 10, "time": 2593.8}}, "day": 6, "month": 5, "livingplace": "Muttenz"}}, "location": "Winterthur"}, "ASICS Bremgarter Reusslauf": {"race": "ASICS Bremgarter Reusslauf", "longitude": 8.3397905, "latitude": 47.34917739999999, "date": {"sam. 22.02.2014": {"weekday": "saturday", "year": 2014, "categories": {"11-M30": {"pace": 236000000000, "rank": 97, "distance": 11, "time": 2601.1}}, "day": 22, "month": 2, "livingplace": "Lsvb"}, "sam. 23.02.2013": {"weekday": "saturday", "year": 2013, "categories": {"11-M30": {"pace": 251000000000, "rank": 125, "distance": 11, "time": 2766.4}}, "day": 23, "month": 2, "livingplace": "Muttenz"}}, "location": "Bremgarten AG"}, "SwissCityMarathon - Lucerne, Luzern": {"race": "SwissCityMarathon - Lucerne, Luzern", "longitude": 8.3093072, "latitude": 47.05016819999999, "date": {"dim. 27.10.2013": {"weekday": "sunday", "year": 2013, "categories": {"M-M30": {"pace": 267000000000, "rank": 35, "distance": 42, "time": 11290.5}}, "day": 27, "month": 10, "livingplace": "Muttenz"}}, "location": "Luzern"}, "Dreil\u00e4nder-Lauf, Basel": {"race": "Dreil\u00e4nder-Lauf, Basel", "longitude": 7.5885761, "latitude": 47.5595986, "date": {"dim. 22.05.2011": {"weekday": "sunday", "year": 2011, "categories": {"21M30": {"pace": 310000000000, "rank": 83, "distance": 21, "time": 6562.0}}, "day": 22, "month": 5, "livingplace": "Basel"}, "dim. 20.05.2012": {"weekday": "sunday", "year": 2012, "categories": {"21M30": {"pace": 280000000000, "rank": 30, "distance": 21, "time": 5910.1}}, "day": 20, "month": 5, "livingplace": "Muttenz"}}, "location": "Basel"}, "Basler Stadtlauf": {"race": "Basler Stadtlauf", "longitude": 7.5885761, "latitude": 47.5595986, "date": {"sam. 24.11.2012": {"weekday": "saturday", "year": 2012, "categories": {"M35": {"pace": 233000000000, "rank": 43, "distance": 6, "time": 1284.1}}, "day": 24, "month": 11, "livingplace": "Muttenz"}, "sam. 30.11.2013": {"weekday": "saturday", "year": 2013, "categories": {"M35": {"pace": 218000000000, "rank": 18, "distance": 6, "time": 1199.4}}, "day": 30, "month": 11, "livingplace": "Muttenz"}, "sam. 27.11.2010": {"weekday": "saturday", "year": 2010, "categories": {"N": {"pace": 300000000000, "rank": 235, "distance": 6, "time": 1652.2}}, "day": 27, "month": 11, "livingplace": "Basel"}}, "location": "Basel"}, "IWB Basel Marathon": {"race": "IWB Basel Marathon", "longitude": 7.5885761, "latitude": 47.5595986, "date": {"dim. 23.09.2012": {"weekday": "sunday", "year": 2012, "categories": {"M-42-M30": {"pace": 307000000000, "rank": 29, "distance": 42, "time": 12968.4}}, "day": 23, "month": 9, "livingplace": "Muttenz"}, "dim. 11.09.2011": {"weekday": "sunday", "year": 2011, "categories": {"M-42-M30": {"pace": 378000000000, "rank": 76, "distance": 42, "time": 15974.4}}, "day": 11, "month": 9, "livingplace": "Basel"}}, "location": "Basel"}, "Eiger Ultra Trail, Grindelwald": {"race": "Eiger Ultra Trail, Grindelwald", "longitude": 8.0413962, "latitude": 46.624164, "date": {"sam. 18.07.2015": {"weekday": "saturday", "year": 2015, "categories": {"A-H": {"pace": 720000000000, "rank": 93, "distance": 101, "time": 72739.3}}, "day": 18, "month": 7, "livingplace": "Muttenz"}}, "location": "Grindelwald"}, "Burgdorfer Stadtlauf, Burgdorf": {"race": "Burgdorfer Stadtlauf, Burgdorf", "longitude": -115.9129022, "latitude": 45.277123, "date": {"sam. 13.09.2014": {"weekday": "saturday", "year": 2014, "categories": {"10-M30": {"pace": 247000000000, "rank": 9, "distance": 10, "time": 2474.5}}, "day": 13, "month": 9, "livingplace": "Basel"}}, "location": "Burgdorf"}, "crossrun, Therwil": {"race": "crossrun, Therwil", "longitude": 7.5532808, "latitude": 47.4990611, "date": {"dim. 31.08.2014": {"weekday": "sunday", "year": 2014, "categories": {"M30": {"pace": 250000000000, "rank": 7, "distance": 10, "time": 2508.2}}, "day": 31, "month": 8, "livingplace": "Muttenz"}}, "location": "Therwil"}, "Kerzerslauf": {"race": "Kerzerslauf", "longitude": 7.1954365, "latitude": 46.97488999999999, "date": {"sam. 17.03.2012": {"weekday": "saturday", "year": 2012, "categories": {"15-M35": {"pace": 273000000000, "rank": 141, "distance": 15, "time": 4107.9}}, "day": 17, "month": 3, "livingplace": "Muttenz"}, "sam. 16.03.2013": {"weekday": "saturday", "year": 2013, "categories": {"15-M35": {"pace": 249000000000, "rank": 63, "distance": 15, "time": 3735.1}}, "day": 16, "month": 3, "livingplace": "Muttenz"}, "sam. 21.03.2015": {"weekday": "saturday", "year": 2015, "categories": {"15-M35": {"pace": 392000000000, "rank": 391, "distance": 15, "time": 5888.1}}, "day": 21, "month": 3, "livingplace": "Muttenz"}}, "location": "Kerzers"}}, "name": "Amrein Ivo", "birth": 1976}