{"sex": "M", "races": {"Corrida Bulloise, Bulle": {"race": "Corrida Bulloise, Bulle", "longitude": 7.057726799999999, "latitude": 46.6154512, "date": {"sam. 19.11.2011": {"weekday": "saturday", "year": 2011, "categories": {"M20": {"pace": 226000000000, "rank": 29, "distance": 8, "time": 1847.3}}, "day": 19, "month": 11, "livingplace": "Les Sagnettes"}}, "location": "Bulle"}, "BCN Tour Les Ponts de Martel": {"race": "BCN Tour Les Ponts de Martel", "longitude": 6.6324944, "latitude": 46.9262933, "date": {"mer. 18.05.2011": {"weekday": "wednesday", "year": 2011, "categories": {"HE": {"pace": 238000000000, "rank": 6, "distance": 13, "time": 3054.6}}, "day": 18, "month": 5, "livingplace": "Les Sagnettes"}}, "location": "Couvet"}, "Course p\u00e9destre Thyon-Dixence, Thyon": {"race": "Course p\u00e9destre Thyon-Dixence, Thyon", "date": {"dim. 02.08.2009": {"weekday": "sunday", "year": 2009, "categories": {"JH": {"pace": 329000000000, "rank": 4, "distance": 16, "time": 5389.3}}, "day": 2, "month": 8, "livingplace": "Les Sagnettes"}}, "location": "Thyon-Les Collons"}, "BCN Tour La Chaux-de-Fonds": {"race": "BCN Tour La Chaux-de-Fonds", "longitude": 6.832783800000001, "latitude": 47.1034892, "date": {"mer. 11.05.2011": {"weekday": "wednesday", "year": 2011, "categories": {"HE": {"pace": 268000000000, "rank": 4, "distance": 11, "time": 2876.3}}, "day": 11, "month": 5, "livingplace": "Les Sagnettes"}, "mer. 23.05.2012": {"weekday": "wednesday", "year": 2012, "categories": {"HE": {"pace": 233000000000, "rank": 11, "distance": 11, "time": 2520.9}}, "day": 23, "month": 5, "livingplace": "Les Sagnettes"}}, "location": "La Chaux-de-Fonds"}, "BCN Tour Auvernier": {"race": "BCN Tour Auvernier", "longitude": 6.8589727, "latitude": 46.9668714, "date": {"mer. 20.04.2011": {"weekday": "wednesday", "year": 2011, "categories": {"HE": {"pace": 234000000000, "rank": 5, "distance": 11, "time": 2537.5}}, "day": 20, "month": 4, "livingplace": "Les Sagnettes"}}, "location": "Colombier NE"}, "D\u00e9fi Val-de-Travers, Couvet": {"race": "D\u00e9fi Val-de-Travers, Couvet", "longitude": 6.6324944, "latitude": 46.9262933, "date": {"sam. 21.06.2008": {"weekday": "saturday", "year": 2008, "categories": {"EHJ": {"pace": 292000000000, "rank": 1, "distance": 12, "time": 3567.3}}, "day": 21, "month": 6, "livingplace": "Les Sagnettes"}}, "location": "Couvet"}, "Morat-Fribourg": {"race": "Morat-Fribourg", "longitude": 7.120184, "latitude": 46.92922110000001, "date": {"sam. 03.10.2009": {"weekday": "saturday", "year": 2009, "categories": {"C-JunH": {"pace": 236000000000, "rank": 3, "distance": 17, "time": 4060.7}}, "day": 3, "month": 10, "livingplace": "Les Sagnettes"}, "sam. 01.10.2011": {"weekday": "saturday", "year": 2011, "categories": {"17-M20": {"pace": 246000000000, "rank": 145, "distance": 17, "time": 4227.9}}, "day": 1, "month": 10, "livingplace": "Les Sagnettes"}, "sam. 02.10.2010": {"weekday": "saturday", "year": 2010, "categories": {"17-JunH": {"pace": 241000000000, "rank": 4, "distance": 17, "time": 4147.2}}, "day": 2, "month": 10, "livingplace": "Les Sagnettes"}}, "location": "Murten"}, "BCN Tour Fontaine Cernier": {"race": "BCN Tour Fontaine Cernier", "longitude": 6.9175754, "latitude": 47.0624261, "date": {"mer. 27.04.2011": {"weekday": "wednesday", "year": 2011, "categories": {"HE": {"pace": 222000000000, "rank": 6, "distance": 10, "time": 2290.4}}, "day": 27, "month": 4, "livingplace": "Les Sagnettes"}}, "location": "Ch\u00e9zard-St-Martin"}, "BCN Tour Couvet": {"race": "BCN Tour Couvet", "longitude": 6.9175754, "latitude": 47.0624261, "date": {"mer. 02.05.2012": {"weekday": "wednesday", "year": 2012, "categories": {"HE": {"pace": 237000000000, "rank": 7, "distance": 11, "time": 2648.3}}, "day": 2, "month": 5, "livingplace": "Les Sagnettes"}}, "location": "Ch\u00e9zard-St-Martin"}, "BCN Tour Cornaux": {"race": "BCN Tour Cornaux", "longitude": 6.8589727, "latitude": 46.9668714, "date": {"mer. 25.04.2012": {"weekday": "wednesday", "year": 2012, "categories": {"HE": {"pace": 251000000000, "rank": 10, "distance": 11, "time": 2763.5}}, "day": 25, "month": 4, "livingplace": "Les Sagnettes"}}, "location": "Colombier NE"}, "Les Traine-Savates, Cheseaux-sur-Lausanne": {"race": "Les Traine-Savates, Cheseaux-sur-Lausanne", "longitude": 6.6047712, "latitude": 46.585452, "date": {"sam. 14.04.2012": {"weekday": "saturday", "year": 2012, "categories": {"10-M20": {"pace": 218000000000, "rank": 15, "distance": 10, "time": 2276.6}}, "day": 14, "month": 4, "livingplace": "Les Sagnettes"}, "sam. 10.04.2010": {"weekday": "saturday", "year": 2010, "categories": {"JunHom": {"pace": 223000000000, "rank": 2, "distance": 10, "time": 2328.9}}, "day": 10, "month": 4, "livingplace": "Les Sagnettes"}}, "location": "Cheseaux-sur-Lausanne"}, "BCN Tour Ponts-de-Martel": {"race": "BCN Tour Ponts-de-Martel", "longitude": 6.9175754, "latitude": 47.0624261, "date": {"mer. 28.04.2010": {"weekday": "wednesday", "year": 2010, "categories": {"HJ": {"pace": 241000000000, "rank": 1, "distance": 11, "time": 2701.8}}, "day": 28, "month": 4, "livingplace": "Les Sagnettes"}}, "location": "Ch\u00e9zard-St-Martin"}, "BCN Tour Neuch\u00e2tel": {"race": "BCN Tour Neuch\u00e2tel", "longitude": 6.9292732, "latitude": 46.9899874, "date": {"mer. 25.05.2011": {"weekday": "wednesday", "year": 2011, "categories": {"HE": {"pace": 236000000000, "rank": 5, "distance": 11, "time": 2692.2}}, "day": 25, "month": 5, "livingplace": "Les Sagnettes"}, "mer. 26.05.2010": {"weekday": "wednesday", "year": 2010, "categories": {"HJ": {"pace": 243000000000, "rank": 2, "distance": 10, "time": 2366.2}}, "day": 26, "month": 5, "livingplace": "Les Sagnettes"}, "mer. 30.05.2012": {"weekday": "wednesday", "year": 2012, "categories": {"HE": {"pace": 242000000000, "rank": 13, "distance": 11, "time": 2720.6}}, "day": 30, "month": 5, "livingplace": "Les Sagnettes"}}, "location": "Neuch\u00e2tel"}, "BCN Tour Le Landeron": {"race": "BCN Tour Le Landeron", "longitude": 6.8589727, "latitude": 46.9668714, "date": {"mer. 22.04.2009": {"weekday": "wednesday", "year": 2009, "categories": {"HJ": {"pace": 244000000000, "rank": 1, "distance": 11, "time": 2712.3}}, "day": 22, "month": 4, "livingplace": "L'Ile aux Fleurs"}}, "location": "Colombier NE"}, "BCN Tour Les Ponts-de-Martel": {"race": "BCN Tour Les Ponts-de-Martel", "longitude": 6.733554799999999, "latitude": 46.999113, "date": {"mer. 09.05.2012": {"weekday": "wednesday", "year": 2012, "categories": {"HE": {"pace": 233000000000, "rank": 5, "distance": 10, "time": 2408.0}}, "day": 9, "month": 5, "livingplace": "Les Sagnettes"}}, "location": "Les Ponts-de-Martel"}, "BCN Tour M\u00f4tier": {"race": "BCN Tour M\u00f4tier", "longitude": 6.6324944, "latitude": 46.9262933, "date": {"mer. 19.05.2010": {"weekday": "wednesday", "year": 2010, "categories": {"HJ": {"pace": 220000000000, "rank": 2, "distance": 10, "time": 2187.3}}, "day": 19, "month": 5, "livingplace": "Les Sagnettes"}}, "location": "Couvet"}, "BCN Tour Colombier": {"race": "BCN Tour Colombier", "longitude": 6.8589727, "latitude": 46.9668714, "date": {"mer. 21.04.2010": {"weekday": "wednesday", "year": 2010, "categories": {"HJ": {"pace": 254000000000, "rank": 1, "distance": 10, "time": 2549.7}}, "day": 21, "month": 4, "livingplace": "Les Sagnettes"}, "mer. 16.05.2012": {"weekday": "wednesday", "year": 2012, "categories": {"HE": {"pace": 231000000000, "rank": 9, "distance": 11, "time": 2496.4}}, "day": 16, "month": 5, "livingplace": "Les Sagnettes"}, "mer. 23.04.2008": {"weekday": "wednesday", "year": 2008, "categories": {"HJ": {"pace": 248000000000, "rank": 4, "distance": 10, "time": 2536.5}}, "day": 23, "month": 4, "livingplace": "Ch"}}, "location": "Colombier NE"}, "BCN Tour La Br\u00e9vine": {"race": "BCN Tour La Br\u00e9vine", "longitude": 6.733554799999999, "latitude": 46.999113, "date": {"mer. 04.05.2011": {"weekday": "wednesday", "year": 2011, "categories": {"HE": {"pace": 232000000000, "rank": 4, "distance": 10, "time": 2324.8}}, "day": 4, "month": 5, "livingplace": "Les Sagnettes"}}, "location": "Les Ponts-de-Martel"}, "BCN Tour Le Locle": {"race": "BCN Tour Le Locle", "longitude": 6.733554799999999, "latitude": 46.999113, "date": {"mer. 05.05.2010": {"weekday": "wednesday", "year": 2010, "categories": {"HJ": {"pace": 230000000000, "rank": 2, "distance": 11, "time": 2510.2}}, "day": 5, "month": 5, "livingplace": "Les Sagnettes"}}, "location": "Les Ponts-de-Martel"}, "BCN Tour La Chaux-de-fonds": {"race": "BCN Tour La Chaux-de-fonds", "longitude": 6.832783800000001, "latitude": 47.1034892, "date": {"mer. 12.05.2010": {"weekday": "wednesday", "year": 2010, "categories": {"HJ": {"pace": 278000000000, "rank": 2, "distance": 11, "time": 2982.7}}, "day": 12, "month": 5, "livingplace": "Les Sagnettes"}}, "location": "La Chaux-de-Fonds"}}, "name": "Amstutz Sylvain", "birth": 1991}