{"sex": "M", "races": {"Tour du Chablais #4 Champ\u00e9ry": {"race": "Tour du Chablais #4 Champ\u00e9ry", "date": {"mer. 02.05.2012": {"weekday": "wednesday", "year": 2012, "categories": {"M-M20": {"pace": 270000000000, "rank": 101, "distance": 8, "time": 2246.3}}, "day": 2, "month": 5, "livingplace": "Ollon"}}, "location": "Les Mosses"}, "Tour du Chablais #2 Yvorne": {"race": "Tour du Chablais #2 Yvorne", "longitude": 6.854975199999999, "latitude": 46.3835529, "date": {"mer. 10.04.2013": {"weekday": "wednesday", "year": 2013, "categories": {"M-M20": {"pace": 293000000000, "rank": 116, "distance": 8, "time": 2348.9}}, "day": 10, "month": 4, "livingplace": "Ollon"}}, "location": "Bouveret"}, "Tour du Chablais #6 Monthey": {"race": "Tour du Chablais #6 Monthey", "longitude": 6.970566, "latitude": 46.3190253, "date": {"mer. 08.05.2013": {"weekday": "wednesday", "year": 2013, "categories": {"M-M20": {"pace": 263000000000, "rank": 99, "distance": 9, "time": 2460.5}}, "day": 8, "month": 5, "livingplace": "Ollon"}}, "location": "Aigle"}, "Tour du Chablais #4 Yvorne": {"race": "Tour du Chablais #4 Yvorne", "date": {"mer. 28.04.2010": {"weekday": "wednesday", "year": 2010, "categories": {"M-M20": {"pace": 284000000000, "rank": 94, "distance": 8, "time": 2358.6}}, "day": 28, "month": 4, "livingplace": "Ollon"}}, "location": "Les Mosses"}, "Tour du Chablais #3 Bouveret": {"race": "Tour du Chablais #3 Bouveret", "longitude": 7.0223787, "latitude": 46.1782231, "date": {"mer. 17.04.2013": {"weekday": "wednesday", "year": 2013, "categories": {"M-M20": {"pace": 276000000000, "rank": 110, "distance": 10, "time": 2764.5}}, "day": 17, "month": 4, "livingplace": "Ollon"}}, "location": "Evionnaz"}, "Tour du Chablais #1 Roche": {"race": "Tour du Chablais #1 Roche", "longitude": 6.9916269, "latitude": 46.2957462, "date": {"mer. 03.04.2013": {"weekday": "wednesday", "year": 2013, "categories": {"M-M20": {"pace": 278000000000, "rank": 130, "distance": 9, "time": 2471.2}}, "day": 3, "month": 4, "livingplace": "Ollon"}, "mer. 07.04.2010": {"weekday": "wednesday", "year": 2010, "categories": {"M-M20": {"pace": 273000000000, "rank": 128, "distance": 9, "time": 2450.4}}, "day": 7, "month": 4, "livingplace": "Ollon"}}, "location": "Ollon VD"}, "Tour du Chablais #1 Martigny": {"race": "Tour du Chablais #1 Martigny", "longitude": 6.9916269, "latitude": 46.2957462, "date": {"mer. 23.04.2014": {"weekday": "wednesday", "year": 2014, "categories": {"M-M20": {"pace": 262000000000, "rank": 98, "distance": 9, "time": 2228.2}}, "day": 23, "month": 4, "livingplace": "Ollon"}}, "location": "Ollon VD"}, "Tour du Chablais #2 Bex": {"race": "Tour du Chablais #2 Bex", "longitude": 6.854975199999999, "latitude": 46.3835529, "date": {"mer. 18.04.2012": {"weekday": "wednesday", "year": 2012, "categories": {"M-M20": {"pace": 276000000000, "rank": 116, "distance": 8, "time": 2209.5}}, "day": 18, "month": 4, "livingplace": "Ollon"}}, "location": "Bouveret"}, "20km de Lausanne": {"race": "20km de Lausanne", "longitude": 6.6322734, "latitude": 46.5196535, "date": {"sam. 24.04.2010": {"weekday": "saturday", "year": 2010, "categories": {"10-H20": {"pace": 288000000000, "rank": 165, "distance": 10, "time": 2880.9}}, "day": 24, "month": 4, "livingplace": "Ollon"}, "sam. 28.04.2012": {"weekday": "saturday", "year": 2012, "categories": {"10-H20": {"pace": 285000000000, "rank": 214, "distance": 10, "time": 2853.5}}, "day": 28, "month": 4, "livingplace": "Ollon"}, "sam. 27.04.2013": {"weekday": "saturday", "year": 2013, "categories": {"10-H20": {"pace": 263000000000, "rank": 142, "distance": 10, "time": 2638.3}}, "day": 27, "month": 4, "livingplace": "Ollon"}, "sam. 26.04.2014": {"weekday": "saturday", "year": 2014, "categories": {"10-H20": {"pace": 279000000000, "rank": 206, "distance": 10, "time": 2798.2}}, "day": 26, "month": 4, "livingplace": "Ollon"}}, "location": "Lausanne"}, "Tour du Chablais #6 Mouthey": {"race": "Tour du Chablais #6 Mouthey", "longitude": 6.970566, "latitude": 46.3190253, "date": {"mer. 12.05.2010": {"weekday": "wednesday", "year": 2010, "categories": {"M-M20": {"pace": 259000000000, "rank": 102, "distance": 9, "time": 2383.3}}, "day": 12, "month": 5, "livingplace": "Ollon"}}, "location": "Aigle"}, "Tour du Chablais #3 Bex": {"race": "Tour du Chablais #3 Bex", "longitude": 7.0223787, "latitude": 46.1782231, "date": {"mer. 21.04.2010": {"weekday": "wednesday", "year": 2010, "categories": {"M-M20": {"pace": 279000000000, "rank": 107, "distance": 10, "time": 2790.8}}, "day": 21, "month": 4, "livingplace": "Ollon"}}, "location": "Evionnaz"}, "Tour du Chablais #5 Leysin": {"race": "Tour du Chablais #5 Leysin", "longitude": 6.931504599999999, "latitude": 46.3603257, "date": {"mer. 05.05.2010": {"weekday": "wednesday", "year": 2010, "categories": {"M-M20": {"pace": 290000000000, "rank": 79, "distance": 8, "time": 2458.6}}, "day": 5, "month": 5, "livingplace": "Ollon"}}, "location": "Roche VD"}, "Tour du Chablais #5 Bex": {"race": "Tour du Chablais #5 Bex", "longitude": 6.931504599999999, "latitude": 46.3603257, "date": {"mer. 09.05.2012": {"weekday": "wednesday", "year": 2012, "categories": {"M-M20": {"pace": 263000000000, "rank": 85, "distance": 9, "time": 2331.5}}, "day": 9, "month": 5, "livingplace": "Ollon"}}, "location": "Roche VD"}, "Tour du Chablais #5 Morgins": {"race": "Tour du Chablais #5 Morgins", "longitude": 6.931504599999999, "latitude": 46.3603257, "date": {"mer. 01.05.2013": {"weekday": "wednesday", "year": 2013, "categories": {"M-M20": {"pace": 279000000000, "rank": 93, "distance": 8, "time": 2120.4}}, "day": 1, "month": 5, "livingplace": "Ollon"}}, "location": "Roche VD"}, "Tour du Chablais #1 Montreux": {"race": "Tour du Chablais #1 Montreux", "longitude": 6.9916269, "latitude": 46.2957462, "date": {"mer. 11.04.2012": {"weekday": "wednesday", "year": 2012, "categories": {"M-M20": {"pace": 282000000000, "rank": 105, "distance": 8, "time": 2149.2}}, "day": 11, "month": 4, "livingplace": "Ollon"}}, "location": "Ollon VD"}, "Tour du Chablais #4 St  Maurice": {"race": "Tour du Chablais #4 St  Maurice", "date": {"mer. 24.04.2013": {"weekday": "wednesday", "year": 2013, "categories": {"M-M20": {"pace": 271000000000, "rank": 106, "distance": 10, "time": 2713.8}}, "day": 24, "month": 4, "livingplace": "Ollon"}}, "location": "Les Mosses"}, "Tour du Chablais #3 Collombey-Muraz": {"race": "Tour du Chablais #3 Collombey-Muraz", "longitude": 7.0223787, "latitude": 46.1782231, "date": {"mer. 25.04.2012": {"weekday": "wednesday", "year": 2012, "categories": {"M-M20": {"pace": 266000000000, "rank": 90, "distance": 9, "time": 2392.7}}, "day": 25, "month": 4, "livingplace": "Ollon"}}, "location": "Evionnaz"}}, "name": "Anex Anthony", "birth": 1989}