{"sex": "M", "races": {"BCN Tour Les Ponts de Martel": {"race": "BCN Tour Les Ponts de Martel", "longitude": 6.6324944, "latitude": 46.9262933, "date": {"mer. 18.05.2011": {"weekday": "wednesday", "year": 2011, "categories": {"HS2": {"pace": 315000000000, "rank": 152, "distance": 13, "time": 4037.9}}, "day": 18, "month": 5, "livingplace": "La Chaux de Fonds"}}, "location": "Couvet"}, "BCN Tour La Chaux-de-Fonds": {"race": "BCN Tour La Chaux-de-Fonds", "longitude": 6.832783800000001, "latitude": 47.1034892, "date": {"mer. 11.05.2011": {"weekday": "wednesday", "year": 2011, "categories": {"HS2": {"pace": 357000000000, "rank": 166, "distance": 11, "time": 3824.6}}, "day": 11, "month": 5, "livingplace": "La Chaux de Fonds"}}, "location": "La Chaux-de-Fonds"}, "Aletsch-Halbmarathon, Bettmeralp": {"race": "Aletsch-Halbmarathon, Bettmeralp", "date": {"dim. 29.06.2014": {"weekday": "sunday", "year": 2014, "categories": {"M45": {"pace": 377000000000, "rank": 102, "distance": 13, "time": 5017.4}}, "day": 29, "month": 6, "livingplace": "Club"}, "dim. 24.06.2012": {"weekday": "sunday", "year": 2012, "categories": {"M40": {"pace": 482000000000, "rank": 170, "distance": 21, "time": 10234.7}}, "day": 24, "month": 6, "livingplace": "Club"}}, "location": "Bettmeralp"}, "Thuner Stadtlauf, Thun": {"race": "Thuner Stadtlauf, Thun", "longitude": 7.6279881, "latitude": 46.7579868, "date": {"dim. 22.08.2010": {"weekday": "sunday", "year": 2010, "categories": {"10-M40": {"pace": 318000000000, "rank": 100, "distance": 10, "time": 3181.1}}, "day": 22, "month": 8, "livingplace": "La Chaux de Fonds"}}, "location": "Thun"}, "Morat-Fribourg": {"race": "Morat-Fribourg", "longitude": 7.120184, "latitude": 46.92922110000001, "date": {"sam. 04.10.2014": {"weekday": "saturday", "year": 2014, "categories": {"17-M45": {"pace": 326000000000, "rank": 423, "distance": 17, "time": 5600.6}}, "day": 4, "month": 10, "livingplace": "La Chaux de Fonds"}}, "location": "Murten"}, "BCN Tour La Br\u00e9vine": {"race": "BCN Tour La Br\u00e9vine", "longitude": 6.733554799999999, "latitude": 46.999113, "date": {"mer. 04.05.2011": {"weekday": "wednesday", "year": 2011, "categories": {"HS2": {"pace": 314000000000, "rank": 155, "distance": 10, "time": 3141.6}}, "day": 4, "month": 5, "livingplace": "La Chaux de Fonds"}}, "location": "Les Ponts-de-Martel"}, "20km de Lausanne": {"race": "20km de Lausanne", "longitude": 6.6322734, "latitude": 46.5196535, "date": {"sam. 22.04.2006": {"weekday": "saturday", "year": 2006, "categories": {"10/H30": {"pace": 293000000000, "rank": 163, "distance": 10, "time": 2931.7}}, "day": 22, "month": 4, "livingplace": "Montmollin"}}, "location": "Lausanne"}}, "name": "Aubry Adrien", "birth": 1968}