{"sex": "M", "races": {"Z\u00fcrich Marathon, Teamrun und Cityrun": {"race": "Z\u00fcrich Marathon, Teamrun und Cityrun", "longitude": 8.541694, "latitude": 47.3768866, "date": {"dim. 07.04.2013": {"weekday": "sunday", "year": 2013, "categories": {"42-M40": {"pace": 322000000000, "rank": 214, "distance": 42, "time": 13587.3}}, "day": 7, "month": 4, "livingplace": "Oberentfelden"}}, "location": "Z\u00fcrich"}, "Winterthur Marathon": {"race": "Winterthur Marathon", "longitude": -75.6037351, "latitude": 39.8088766, "date": {"dim. 01.06.2014": {"weekday": "sunday", "year": 2014, "categories": {"M-M40": {"pace": 300000000000, "rank": 21, "distance": 42, "time": 12687.4}}, "day": 1, "month": 6, "livingplace": "Oberentfelden"}}, "location": "Winterthur"}, "Bieler Lauftage, Biel Bienne": {"race": "Bieler Lauftage, Biel Bienne", "longitude": 7.2467909, "latitude": 47.1367785, "date": {"jeu. 11.06.2015": {"weekday": "thursday", "year": 2015, "categories": {"100-M40": {"pace": 365000000000, "rank": 20, "distance": 100, "time": 36528.0}}, "day": 11, "month": 6, "livingplace": "Oberentfelden"}}, "location": "Biel/Bienne"}, "IWB Basel Marathon": {"race": "IWB Basel Marathon", "longitude": 7.5885761, "latitude": 47.5595986, "date": {"dim. 23.09.2012": {"weekday": "sunday", "year": 2012, "categories": {"M-42-M40": {"pace": 350000000000, "rank": 43, "distance": 42, "time": 14785.9}}, "day": 23, "month": 9, "livingplace": "Oberentfelden"}}, "location": "Basel"}, "Hallwilerseelauf, Beinwil am See": {"race": "Hallwilerseelauf, Beinwil am See", "date": {"sam. 12.10.2013": {"weekday": "saturday", "year": 2013, "categories": {"21-M40": {"pace": 282000000000, "rank": 290, "distance": 21, "time": 5966.2}}, "day": 12, "month": 10, "livingplace": "Oberentfelden"}}, "location": "Beinwil am See"}, "ASICS Bremgarter Reusslauf": {"race": "ASICS Bremgarter Reusslauf", "longitude": 8.3397905, "latitude": 47.34917739999999, "date": {"sam. 28.02.2015": {"weekday": "saturday", "year": 2015, "categories": {"11-M40": {"pace": 272000000000, "rank": 266, "distance": 11, "time": 3000.2}}, "day": 28, "month": 2, "livingplace": "Oberentfelden"}}, "location": "Bremgarten AG"}, "Lucerne Marathon, Luzern": {"race": "Lucerne Marathon, Luzern", "longitude": 8.3093072, "latitude": 47.05016819999999, "date": {"dim. 28.10.2012": {"weekday": "sunday", "year": 2012, "categories": {"M-M40": {"pace": 329000000000, "rank": 240, "distance": 42, "time": 13915.0}}, "day": 28, "month": 10, "livingplace": "Oberentfelden"}}, "location": "Luzern"}, "Lausanne Marathon": {"race": "Lausanne Marathon", "longitude": 6.6322734, "latitude": 46.5196535, "date": {"sam. 24.10.2015": {"weekday": "saturday", "year": 2015, "categories": {"42-H40": {"pace": 310000000000, "rank": 111, "distance": 42, "time": 13110.3}}, "day": 24, "month": 10, "livingplace": "Oberentfelden"}}, "location": "Lausanne"}, "SwissCityMarathon - Lucerne, Luzern": {"race": "SwissCityMarathon - Lucerne, Luzern", "longitude": 8.3093072, "latitude": 47.05016819999999, "date": {"dim. 26.10.2014": {"weekday": "sunday", "year": 2014, "categories": {"H-M40": {"pace": 282000000000, "rank": 351, "distance": 21, "time": 5954.0}}, "day": 26, "month": 10, "livingplace": "Oberentfelden"}, "dim. 27.10.2013": {"weekday": "sunday", "year": 2013, "categories": {"M-M40": {"pace": 321000000000, "rank": 217, "distance": 42, "time": 13582.6}}, "day": 27, "month": 10, "livingplace": "Oberentfelden"}}, "location": "Luzern"}}, "name": "Aydin Ceyhan", "birth": 1971}