{"sex": "M", "races": {"Tour du Chablais #4 Champ\u00e9ry": {"race": "Tour du Chablais #4 Champ\u00e9ry", "date": {"mer. 02.05.2012": {"weekday": "wednesday", "year": 2012, "categories": {"M-M20": {"pace": 269000000000, "rank": 99, "distance": 8, "time": 2235.5}}, "day": 2, "month": 5, "livingplace": "Verossaz"}}, "location": "Les Mosses"}, "Tour du Chablais #2 Bex": {"race": "Tour du Chablais #2 Bex", "longitude": 6.854975199999999, "latitude": 46.3835529, "date": {"mer. 18.04.2012": {"weekday": "wednesday", "year": 2012, "categories": {"M-M20": {"pace": 286000000000, "rank": 133, "distance": 8, "time": 2292.6}}, "day": 18, "month": 4, "livingplace": "Verossaz"}}, "location": "Bouveret"}, "Tour du Chablais #3 Collombey-Muraz": {"race": "Tour du Chablais #3 Collombey-Muraz", "longitude": 7.0223787, "latitude": 46.1782231, "date": {"mer. 25.04.2012": {"weekday": "wednesday", "year": 2012, "categories": {"M-M20": {"pace": 280000000000, "rank": 117, "distance": 9, "time": 2520.9}}, "day": 25, "month": 4, "livingplace": "Verossaz"}}, "location": "Evionnaz"}, "Tour du Chablais #6 Montreux": {"race": "Tour du Chablais #6 Montreux", "longitude": 6.970566, "latitude": 46.3190253, "date": {"mer. 16.05.2012": {"weekday": "wednesday", "year": 2012, "categories": {"M-M20": {"pace": 268000000000, "rank": 116, "distance": 9, "time": 2485.3}}, "day": 16, "month": 5, "livingplace": "Verossaz"}}, "location": "Aigle"}, "Tour du Chablais #6 Aigle": {"race": "Tour du Chablais #6 Aigle", "longitude": 6.970566, "latitude": 46.3190253, "date": {"mer. 01.06.2011": {"weekday": "wednesday", "year": 2011, "categories": {"M-M20": {"pace": 283000000000, "rank": 158, "distance": 10, "time": 2890.0}}, "day": 1, "month": 6, "livingplace": "Verossaz"}}, "location": "Aigle"}, "Tour du Chablais #4 Morgins": {"race": "Tour du Chablais #4 Morgins", "date": {"mer. 18.05.2011": {"weekday": "wednesday", "year": 2011, "categories": {"M-M20": {"pace": 304000000000, "rank": 144, "distance": 8, "time": 2544.9}}, "day": 18, "month": 5, "livingplace": "Verossaz"}}, "location": "Les Mosses"}, "Tour du Chablais #1 Montreux": {"race": "Tour du Chablais #1 Montreux", "longitude": 6.9916269, "latitude": 46.2957462, "date": {"mer. 11.04.2012": {"weekday": "wednesday", "year": 2012, "categories": {"M-M20": {"pace": 315000000000, "rank": 168, "distance": 8, "time": 2397.2}}, "day": 11, "month": 4, "livingplace": "Verossaz"}}, "location": "Ollon VD"}, "Tour du Chablais #5 Les Mosses": {"race": "Tour du Chablais #5 Les Mosses", "longitude": 6.931504599999999, "latitude": 46.3603257, "date": {"mer. 25.05.2011": {"weekday": "wednesday", "year": 2011, "categories": {"M-M20": {"pace": 297000000000, "rank": 124, "distance": 8, "time": 2377.1}}, "day": 25, "month": 5, "livingplace": "Verossaz"}}, "location": "Roche VD"}, "Tour du Chablais #1 Lavey": {"race": "Tour du Chablais #1 Lavey", "longitude": 6.9916269, "latitude": 46.2957462, "date": {"mer. 27.04.2011": {"weekday": "wednesday", "year": 2011, "categories": {"M-M20": {"pace": 307000000000, "rank": 194, "distance": 9, "time": 2771.8}}, "day": 27, "month": 4, "livingplace": "Verossaz"}}, "location": "Ollon VD"}, "Tour du Chablais #5 Bex": {"race": "Tour du Chablais #5 Bex", "longitude": 6.931504599999999, "latitude": 46.3603257, "date": {"mer. 09.05.2012": {"weekday": "wednesday", "year": 2012, "categories": {"M-M20": {"pace": 268000000000, "rank": 94, "distance": 9, "time": 2375.9}}, "day": 9, "month": 5, "livingplace": "Verossaz"}}, "location": "Roche VD"}, "Tour du Chablais #3 Le Bouveret": {"race": "Tour du Chablais #3 Le Bouveret", "longitude": 7.0223787, "latitude": 46.1782231, "date": {"mer. 11.05.2011": {"weekday": "wednesday", "year": 2011, "categories": {"M-M20": {"pace": 293000000000, "rank": 183, "distance": 10, "time": 2932.7}}, "day": 11, "month": 5, "livingplace": "Verossaz"}}, "location": "Evionnaz"}, "Tour du Chablais #2 Rennaz": {"race": "Tour du Chablais #2 Rennaz", "longitude": 6.854975199999999, "latitude": 46.3835529, "date": {"mer. 04.05.2011": {"weekday": "wednesday", "year": 2011, "categories": {"M-M20": {"pace": 293000000000, "rank": 167, "distance": 9, "time": 2743.5}}, "day": 4, "month": 5, "livingplace": "Verossaz"}}, "location": "Bouveret"}}, "name": "Aymon J\u00e9r\u00e9mie", "birth": 1981}