{"sex": "M", "races": {"Corrida Bulloise, Bulle": {"race": "Corrida Bulloise, Bulle", "longitude": 7.057726799999999, "latitude": 46.6154512, "date": {"sam. 21.11.2015": {"weekday": "saturday", "year": 2015, "categories": {"8-M40": {"pace": 212000000000, "rank": 3, "distance": 8, "time": 1729.5}}, "day": 21, "month": 11, "livingplace": "Eschenbach"}}, "location": "Bulle"}, "Int Greifenseelauf, Uster": {"race": "Int Greifenseelauf, Uster", "longitude": 8.717873899999999, "latitude": 47.3482747, "date": {"sam. 20.09.2008": {"weekday": "saturday", "year": 2008, "categories": {"H-M30": {"pace": 229000000000, "rank": 13, "distance": 21, "time": 4851.1}}, "day": 20, "month": 9, "livingplace": "Eschenbach"}}, "location": "Uster"}, "SM CS 10km Strasse route + Volkslauf 10km, Uster": {"race": "SM CS 10km Strasse route + Volkslauf 10km, Uster", "longitude": 8.717873899999999, "latitude": 47.3482747, "date": {"sam. 23.03.2013": {"weekday": "saturday", "year": 2013, "categories": {"10-M35": {"pace": 212000000000, "rank": 14, "distance": 10, "time": 2124.3}}, "day": 23, "month": 3, "livingplace": "Eschenbach"}}, "location": "Uster"}, "Dietiker Neujahrslauf, Dietikon": {"race": "Dietiker Neujahrslauf, Dietikon", "longitude": 8.39977, "latitude": 47.4053885, "date": {"sam. 10.01.2015": {"weekday": "saturday", "year": 2015, "categories": {"C": {"pace": 220000000000, "rank": 13, "distance": 12, "time": 2665.7}}, "day": 10, "month": 1, "livingplace": "Eschenbach"}}, "location": "Dietikon"}, "Zumiker-Lauf": {"race": "Zumiker-Lauf", "date": {"sam. 31.03.2001": {"weekday": "saturday", "year": 2001, "categories": {"A": {"pace": 214000000000, "rank": 13, "distance": 11, "time": 2337.6}}, "day": 31, "month": 3, "livingplace": "Goldingen"}}, "location": "Zumikon"}, "Sempacherseelauf, Sursee": {"race": "Sempacherseelauf, Sursee", "date": {"sam. 21.05.2011": {"weekday": "saturday", "year": 2011, "categories": {"21M30": {"pace": 235000000000, "rank": 8, "distance": 21, "time": 4960.5}}, "day": 21, "month": 5, "livingplace": "Eschenbach"}}, "location": "Sursee"}, "Winterthur Marathon": {"race": "Winterthur Marathon", "longitude": -75.6037351, "latitude": 39.8088766, "date": {"dim. 16.05.2010": {"weekday": "sunday", "year": 2010, "categories": {"HM30": {"pace": 226000000000, "rank": 6, "distance": 21, "time": 4780.2}}, "day": 16, "month": 5, "livingplace": "SC Diemberg"}}, "location": "Winterthur"}, "ASICS Bremgarter Reusslauf": {"race": "ASICS Bremgarter Reusslauf", "longitude": 8.3397905, "latitude": 47.34917739999999, "date": {"sam. 25.02.2012": {"weekday": "saturday", "year": 2012, "categories": {"M30": {"pace": 213000000000, "rank": 33, "distance": 11, "time": 2347.5}}, "day": 25, "month": 2, "livingplace": "SC Diemberg"}, "sam. 22.02.2014": {"weekday": "saturday", "year": 2014, "categories": {"11-M30": {"pace": 216000000000, "rank": 30, "distance": 11, "time": 2386.3}}, "day": 22, "month": 2, "livingplace": "SC Diemberg"}, "sam. 23.02.2013": {"weekday": "saturday", "year": 2013, "categories": {"11-M30": {"pace": 212000000000, "rank": 16, "distance": 11, "time": 2336.1}}, "day": 23, "month": 2, "livingplace": "SC Diemberg"}}, "location": "Bremgarten AG"}, "Rotseelauf, Ebikon": {"race": "Rotseelauf, Ebikon", "date": {"sam. 20.04.2013": {"weekday": "saturday", "year": 2013, "categories": {"10-M30": {"pace": 217000000000, "rank": 11, "distance": 10, "time": 2170.5}}, "day": 20, "month": 4, "livingplace": "Eschenbach"}}, "location": "Ebikon"}, "10km Schweizer Meisterschaften Lyss": {"race": "10km Schweizer Meisterschaften Lyss", "longitude": 7.3077022, "latitude": 47.0746504, "date": {"sam. 31.03.2012": {"weekday": "saturday", "year": 2012, "categories": {"10-M35": {"pace": 213000000000, "rank": 13, "distance": 10, "time": 2135.3}}, "day": 31, "month": 3, "livingplace": "Eschenbach"}, "sam. 02.04.2011": {"weekday": "saturday", "year": 2011, "categories": {"10-M35": {"pace": 215000000000, "rank": 13, "distance": 10, "time": 2153.9}}, "day": 2, "month": 4, "livingplace": "Eschenbach"}}, "location": "Lyss"}, "Sihltaler Fr\u00fchlingslauf, Gattikon": {"race": "Sihltaler Fr\u00fchlingslauf, Gattikon", "longitude": 8.5644799, "latitude": 47.2949282, "date": {"jeu. 01.05.2014": {"weekday": "thursday", "year": 2014, "categories": {"10-M30": {"pace": 224000000000, "rank": 7, "distance": 10, "time": 2243.7}}, "day": 1, "month": 5, "livingplace": "Eschenbach"}}, "location": "Gattikon"}, "Badener Limmat-Lauf, Baden": {"race": "Badener Limmat-Lauf, Baden", "longitude": 8.5303972, "latitude": 48.5699281, "date": {"sam. 24.03.2012": {"weekday": "saturday", "year": 2012, "categories": {"M30": {"pace": 218000000000, "rank": 10, "distance": 13, "time": 2877.4}}, "day": 24, "month": 3, "livingplace": "Eschenbach"}}, "location": "Baden"}, "Schlosslauf Rapperswil-Jona": {"race": "Schlosslauf Rapperswil-Jona", "longitude": 8.818437399999999, "latitude": 47.2266239, "date": {"dim. 07.10.2007": {"weekday": "sunday", "year": 2007, "categories": {"M2": {"pace": 214000000000, "rank": 8, "distance": 9, "time": 1934.8}}, "day": 7, "month": 10, "livingplace": "SC Diemberg"}}, "location": "Rapperswil SG"}, "Pfingstlauf Wohlen AG": {"race": "Pfingstlauf Wohlen AG", "longitude": 8.2768762, "latitude": 47.3493653, "date": {"sam. 11.06.2011": {"weekday": "saturday", "year": 2011, "categories": {"8-10-M30": {"pace": 215000000000, "rank": 7, "distance": 10, "time": 2153.2}}, "day": 11, "month": 6, "livingplace": "Eschenbach"}, "sam. 07.06.2014": {"weekday": "saturday", "year": 2014, "categories": {"10-M30": {"pace": 221000000000, "rank": 4, "distance": 10, "time": 2211.9}}, "day": 7, "month": 6, "livingplace": "Eschenbach"}}, "location": "Wohlen AG"}, "Thuner Stadtlauf, Thun": {"race": "Thuner Stadtlauf, Thun", "longitude": 7.6279881, "latitude": 46.7579868, "date": {"dim. 28.08.2011": {"weekday": "sunday", "year": 2011, "categories": {"10-M30": {"pace": 222000000000, "rank": 12, "distance": 10, "time": 2222.3}}, "day": 28, "month": 8, "livingplace": "Eschenbach"}}, "location": "Thun"}, "Z\u00fcrich Marathon, Teamrun und Cityrun": {"race": "Z\u00fcrich Marathon, Teamrun und Cityrun", "longitude": 8.541694, "latitude": 47.3768866, "date": {"dim. 04.04.2004": {"weekday": "sunday", "year": 2004, "categories": {"M20": {"pace": 233000000000, "rank": 11, "distance": 42, "time": 9851.1}}, "day": 4, "month": 4, "livingplace": "Eschenbach"}}, "location": "Z\u00fcrich"}}, "name": "Bachmann Ivo", "birth": 1975}