{"sex": "M", "races": {"Tour du Chablais #5 Leysin": {"race": "Tour du Chablais #5 Leysin", "longitude": 6.931504599999999, "latitude": 46.3603257, "date": {"mer. 05.05.2010": {"weekday": "wednesday", "year": 2010, "categories": {"M-M20": {"pace": 291000000000, "rank": 80, "distance": 8, "time": 2460.2}}, "day": 5, "month": 5, "livingplace": "Preverenges"}}, "location": "Roche VD"}, "Tour du Chablais #1 Lavey": {"race": "Tour du Chablais #1 Lavey", "longitude": 6.9916269, "latitude": 46.2957462, "date": {"mer. 27.04.2011": {"weekday": "wednesday", "year": 2011, "categories": {"M-M20": {"pace": 285000000000, "rank": 147, "distance": 9, "time": 2571.3}}, "day": 27, "month": 4, "livingplace": "Vallorbe"}}, "location": "Ollon VD"}, "Tour du Chablais #4 Yvorne": {"race": "Tour du Chablais #4 Yvorne", "date": {"mer. 28.04.2010": {"weekday": "wednesday", "year": 2010, "categories": {"M-M20": {"pace": 301000000000, "rank": 130, "distance": 8, "time": 2497.4}}, "day": 28, "month": 4, "livingplace": "Preverenges"}}, "location": "Les Mosses"}, "Tour du Chablais #3 Bex": {"race": "Tour du Chablais #3 Bex", "longitude": 7.0223787, "latitude": 46.1782231, "date": {"mer. 21.04.2010": {"weekday": "wednesday", "year": 2010, "categories": {"M-M20": {"pace": 273000000000, "rank": 93, "distance": 10, "time": 2736.6}}, "day": 21, "month": 4, "livingplace": "Preverenges"}}, "location": "Evionnaz"}, "Tour du Chablais #1 Roche": {"race": "Tour du Chablais #1 Roche", "longitude": 6.9916269, "latitude": 46.2957462, "date": {"mer. 07.04.2010": {"weekday": "wednesday", "year": 2010, "categories": {"M-M20": {"pace": 264000000000, "rank": 100, "distance": 9, "time": 2364.1}}, "day": 7, "month": 4, "livingplace": "Preverenges"}}, "location": "Ollon VD"}, "Tour du Chablais #3 Le Bouveret": {"race": "Tour du Chablais #3 Le Bouveret", "longitude": 7.0223787, "latitude": 46.1782231, "date": {"mer. 11.05.2011": {"weekday": "wednesday", "year": 2011, "categories": {"M-M20": {"pace": 297000000000, "rank": 188, "distance": 10, "time": 2976.7}}, "day": 11, "month": 5, "livingplace": "Vallorbe"}}, "location": "Evionnaz"}, "Tour du Chablais #2 St-Gingolph": {"race": "Tour du Chablais #2 St-Gingolph", "longitude": 6.854975199999999, "latitude": 46.3835529, "date": {"mer. 14.04.2010": {"weekday": "wednesday", "year": 2010, "categories": {"M-M20": {"pace": 294000000000, "rank": 96, "distance": 8, "time": 2462.0}}, "day": 14, "month": 4, "livingplace": "Preverenges"}}, "location": "Bouveret"}, "Glacier 3000 Run, Gstaad": {"race": "Glacier 3000 Run, Gstaad", "longitude": 7.2865728, "latitude": 46.4717588, "date": {"sam. 07.08.2010": {"weekday": "saturday", "year": 2010, "categories": {"M30": {"pace": 609000000000, "rank": 70, "distance": 26, "time": 15851.9}}, "day": 7, "month": 8, "livingplace": "Preverenges"}}, "location": "Gstaad"}, "Tour du Chablais #6 Mouthey": {"race": "Tour du Chablais #6 Mouthey", "longitude": 6.970566, "latitude": 46.3190253, "date": {"mer. 12.05.2010": {"weekday": "wednesday", "year": 2010, "categories": {"M-M20": {"pace": 258000000000, "rank": 100, "distance": 9, "time": 2379.6}}, "day": 12, "month": 5, "livingplace": "Preverenges"}}, "location": "Aigle"}}, "name": "Baer Yannick", "birth": 1980}