{"sex": "M", "races": {"Course de l'Escalade, Gen\u00e8ve": {"race": "Course de l'Escalade, Gen\u00e8ve", "longitude": 6.1431577, "latitude": 46.2043907, "date": {"sam. 05.12.2015": {"weekday": "saturday", "year": 2015, "categories": {"Esc-Hom5": {"pace": 301000000000, "rank": 88, "distance": 7, "time": 2210.5}}, "day": 5, "month": 12, "livingplace": "Chermignon"}}, "location": "Gen\u00e8ve"}, "Tour du Chablais #3 Le Bouveret": {"race": "Tour du Chablais #3 Le Bouveret", "longitude": 7.0223787, "latitude": 46.1782231, "date": {"mer. 11.05.2011": {"weekday": "wednesday", "year": 2011, "categories": {"M-M60": {"pace": 278000000000, "rank": 12, "distance": 10, "time": 2785.7}}, "day": 11, "month": 5, "livingplace": "Chermignon"}}, "location": "Evionnaz"}, "Tour du Chablais #5 Leysin": {"race": "Tour du Chablais #5 Leysin", "longitude": 6.931504599999999, "latitude": 46.3603257, "date": {"mer. 05.05.2010": {"weekday": "wednesday", "year": 2010, "categories": {"M-M60": {"pace": 307000000000, "rank": 11, "distance": 8, "time": 2601.8}}, "day": 5, "month": 5, "livingplace": "Chermignon"}}, "location": "Roche VD"}, "Tour du Chablais #2 Bex": {"race": "Tour du Chablais #2 Bex", "longitude": 6.854975199999999, "latitude": 46.3835529, "date": {"mer. 18.04.2012": {"weekday": "wednesday", "year": 2012, "categories": {"M-M60": {"pace": 287000000000, "rank": 8, "distance": 8, "time": 2297.9}}, "day": 18, "month": 4, "livingplace": "Chermignon"}}, "location": "Bouveret"}, "Kerzerslauf": {"race": "Kerzerslauf", "longitude": 7.1954365, "latitude": 46.97488999999999, "date": {"sam. 21.03.2015": {"weekday": "saturday", "year": 2015, "categories": {"15-M65": {"pace": 332000000000, "rank": 52, "distance": 15, "time": 4980.0}}, "day": 21, "month": 3, "livingplace": "Chermignon"}}, "location": "Kerzers"}, "Tour du Chablais #6 Montreux": {"race": "Tour du Chablais #6 Montreux", "longitude": 6.970566, "latitude": 46.3190253, "date": {"mer. 16.05.2012": {"weekday": "wednesday", "year": 2012, "categories": {"M-M60": {"pace": 278000000000, "rank": 7, "distance": 9, "time": 2577.7}}, "day": 16, "month": 5, "livingplace": "Chermignon"}}, "location": "Aigle"}, "Tour du Chablais #4 Morgins": {"race": "Tour du Chablais #4 Morgins", "date": {"mer. 18.05.2011": {"weekday": "wednesday", "year": 2011, "categories": {"M-M60": {"pace": 302000000000, "rank": 10, "distance": 8, "time": 2527.9}}, "day": 18, "month": 5, "livingplace": "Chermignon"}}, "location": "Les Mosses"}, "Tour du Chablais #2 St-Gingolph": {"race": "Tour du Chablais #2 St-Gingolph", "longitude": 6.854975199999999, "latitude": 46.3835529, "date": {"mer. 14.04.2010": {"weekday": "wednesday", "year": 2010, "categories": {"M-M60": {"pace": 292000000000, "rank": 9, "distance": 8, "time": 2438.6}}, "day": 14, "month": 4, "livingplace": "Chermignon"}}, "location": "Bouveret"}, "Tour du Chablais #1 Montreux": {"race": "Tour du Chablais #1 Montreux", "longitude": 6.9916269, "latitude": 46.2957462, "date": {"mer. 11.04.2012": {"weekday": "wednesday", "year": 2012, "categories": {"M-M60": {"pace": 299000000000, "rank": 11, "distance": 8, "time": 2277.7}}, "day": 11, "month": 4, "livingplace": "Chermignon"}}, "location": "Ollon VD"}, "Tour du Chablais #5 Bex": {"race": "Tour du Chablais #5 Bex", "longitude": 6.931504599999999, "latitude": 46.3603257, "date": {"mer. 09.05.2012": {"weekday": "wednesday", "year": 2012, "categories": {"M-M60": {"pace": 273000000000, "rank": 7, "distance": 9, "time": 2426.0}}, "day": 9, "month": 5, "livingplace": "Chermignon"}}, "location": "Roche VD"}, "Tour du Chablais #3 Bex": {"race": "Tour du Chablais #3 Bex", "longitude": 7.0223787, "latitude": 46.1782231, "date": {"mer. 21.04.2010": {"weekday": "wednesday", "year": 2010, "categories": {"M-M60": {"pace": 271000000000, "rank": 8, "distance": 10, "time": 2713.8}}, "day": 21, "month": 4, "livingplace": "Chermignon"}}, "location": "Evionnaz"}, "Lausanne Marathon": {"race": "Lausanne Marathon", "longitude": 6.6322734, "latitude": 46.5196535, "date": {"dim. 26.10.2014": {"weekday": "sunday", "year": 2014, "categories": {"10-H60": {"pace": 277000000000, "rank": 21, "distance": 10, "time": 2779.7}}, "day": 26, "month": 10, "livingplace": "Chermignon"}, "sam. 24.10.2015": {"weekday": "saturday", "year": 2015, "categories": {"10-H60": {"pace": 287000000000, "rank": 22, "distance": 10, "time": 2871.3}}, "day": 24, "month": 10, "livingplace": "Chermignon"}}, "location": "Lausanne"}, "Tour du Chablais #2 Rennaz": {"race": "Tour du Chablais #2 Rennaz", "longitude": 6.854975199999999, "latitude": 46.3835529, "date": {"mer. 04.05.2011": {"weekday": "wednesday", "year": 2011, "categories": {"M-M60": {"pace": 280000000000, "rank": 9, "distance": 9, "time": 2621.0}}, "day": 4, "month": 5, "livingplace": "Chermignon"}}, "location": "Bouveret"}, "Tour du Chablais #4 Champ\u00e9ry": {"race": "Tour du Chablais #4 Champ\u00e9ry", "date": {"mer. 02.05.2012": {"weekday": "wednesday", "year": 2012, "categories": {"M-M60": {"pace": 297000000000, "rank": 8, "distance": 8, "time": 2469.6}}, "day": 2, "month": 5, "livingplace": "Chermignon"}}, "location": "Les Mosses"}, "Course Titz\u00e9 de no\u00ebl Sion": {"race": "Course Titz\u00e9 de no\u00ebl Sion", "longitude": 7.360625999999999, "latitude": 46.2331221, "date": {"sam. 15.12.2001": {"weekday": "saturday", "year": 2001, "categories": {"53": {"pace": 229000000000, "rank": 8, "distance": 7, "time": 1684.5}}, "day": 15, "month": 12, "livingplace": "Chermignon"}}, "location": "Sion"}, "Tour du Chablais #6 Monthey": {"race": "Tour du Chablais #6 Monthey", "longitude": 6.970566, "latitude": 46.3190253, "date": {"mer. 08.05.2013": {"weekday": "wednesday", "year": 2013, "categories": {"M-M60": {"pace": 300000000000, "rank": 17, "distance": 9, "time": 2801.5}}, "day": 8, "month": 5, "livingplace": "Chermignon"}}, "location": "Aigle"}, "Tour du Chablais #4 Yvorne": {"race": "Tour du Chablais #4 Yvorne", "date": {"mer. 28.04.2010": {"weekday": "wednesday", "year": 2010, "categories": {"M-M60": {"pace": 286000000000, "rank": 9, "distance": 8, "time": 2374.6}}, "day": 28, "month": 4, "livingplace": "Chermignon"}}, "location": "Les Mosses"}, "Tour du Chablais #1 Roche": {"race": "Tour du Chablais #1 Roche", "longitude": 6.9916269, "latitude": 46.2957462, "date": {"mer. 07.04.2010": {"weekday": "wednesday", "year": 2010, "categories": {"M-M60": {"pace": 268000000000, "rank": 8, "distance": 9, "time": 2401.8}}, "day": 7, "month": 4, "livingplace": "Chermignon"}}, "location": "Ollon VD"}, "Tour du Chablais #3 Collombey-Muraz": {"race": "Tour du Chablais #3 Collombey-Muraz", "longitude": 7.0223787, "latitude": 46.1782231, "date": {"mer. 25.04.2012": {"weekday": "wednesday", "year": 2012, "categories": {"M-M60": {"pace": 274000000000, "rank": 8, "distance": 9, "time": 2465.0}}, "day": 25, "month": 4, "livingplace": "Chermignon"}}, "location": "Evionnaz"}, "Morat-Fribourg": {"race": "Morat-Fribourg", "longitude": 7.120184, "latitude": 46.92922110000001, "date": {"sam. 04.10.2014": {"weekday": "saturday", "year": 2014, "categories": {"17-M65": {"pace": 314000000000, "rank": 16, "distance": 17, "time": 5407.8}}, "day": 4, "month": 10, "livingplace": "Chermignon"}, "sam. 03.10.2015": {"weekday": "saturday", "year": 2015, "categories": {"17-M65": {"pace": 328000000000, "rank": 36, "distance": 17, "time": 5645.2}}, "day": 3, "month": 10, "livingplace": "Chermignon"}, "sam. 05.10.2013": {"weekday": "saturday", "year": 2013, "categories": {"17-M65": {"pace": 343000000000, "rank": 55, "distance": 17, "time": 6001.7}}, "day": 5, "month": 10, "livingplace": "Chermignon"}}, "location": "Murten"}, "Tour du Chablais #6 Aigle": {"race": "Tour du Chablais #6 Aigle", "longitude": 6.970566, "latitude": 46.3190253, "date": {"mer. 01.06.2011": {"weekday": "wednesday", "year": 2011, "categories": {"M-M60": {"pace": 273000000000, "rank": 9, "distance": 10, "time": 2789.8}}, "day": 1, "month": 6, "livingplace": "Chermignon"}}, "location": "Aigle"}, "Tour du Chablais #6 Mouthey": {"race": "Tour du Chablais #6 Mouthey", "longitude": 6.970566, "latitude": 46.3190253, "date": {"mer. 12.05.2010": {"weekday": "wednesday", "year": 2010, "categories": {"M-M60": {"pace": 264000000000, "rank": 8, "distance": 9, "time": 2431.8}}, "day": 12, "month": 5, "livingplace": "Chermignon"}}, "location": "Aigle"}, "Tour du Chablais #5 Les Mosses": {"race": "Tour du Chablais #5 Les Mosses", "longitude": 6.931504599999999, "latitude": 46.3603257, "date": {"mer. 25.05.2011": {"weekday": "wednesday", "year": 2011, "categories": {"M-M60": {"pace": 300000000000, "rank": 6, "distance": 8, "time": 2400.6}}, "day": 25, "month": 5, "livingplace": "Chermignon"}}, "location": "Roche VD"}, "Tour du Chablais #1 Lavey": {"race": "Tour du Chablais #1 Lavey", "longitude": 6.9916269, "latitude": 46.2957462, "date": {"mer. 27.04.2011": {"weekday": "wednesday", "year": 2011, "categories": {"M-M60": {"pace": 283000000000, "rank": 9, "distance": 9, "time": 2551.6}}, "day": 27, "month": 4, "livingplace": "Chermignon"}}, "location": "Ollon VD"}, "Tour du Chablais #4 St  Maurice": {"race": "Tour du Chablais #4 St  Maurice", "date": {"mer. 24.04.2013": {"weekday": "wednesday", "year": 2013, "categories": {"M-M60": {"pace": 304000000000, "rank": 15, "distance": 10, "time": 3043.6}}, "day": 24, "month": 4, "livingplace": "Chermignon"}}, "location": "Les Mosses"}, "Internationaler Matterhornlauf, Zermatt": {"race": "Internationaler Matterhornlauf, Zermatt", "date": {"sam. 19.08.2006": {"weekday": "saturday", "year": 2006, "categories": {"MHL/M50": {"pace": 499000000000, "rank": 74, "distance": 12, "time": 6138.0}}, "day": 19, "month": 8, "livingplace": "Chermignon"}}, "location": "Zermatt"}, "Tour du Chablais #1 Martigny": {"race": "Tour du Chablais #1 Martigny", "longitude": 6.9916269, "latitude": 46.2957462, "date": {"mer. 23.04.2014": {"weekday": "wednesday", "year": 2014, "categories": {"M-M60": {"pace": 284000000000, "rank": 12, "distance": 9, "time": 2415.5}}, "day": 23, "month": 4, "livingplace": "Chermignon"}}, "location": "Ollon VD"}}, "name": "Bagnoud Jean-Victor", "birth": 1948}