{"sex": "F", "races": {"Tour du Chablais #5 Leysin": {"race": "Tour du Chablais #5 Leysin", "longitude": 6.931504599999999, "latitude": 46.3603257, "date": {"mer. 05.05.2010": {"weekday": "wednesday", "year": 2010, "categories": {"F-F20": {"pace": 376000000000, "rank": 66, "distance": 8, "time": 3182.2}}, "day": 5, "month": 5, "livingplace": "Troistorrents"}}, "location": "Roche VD"}, "Tour du Chablais #2 Bex": {"race": "Tour du Chablais #2 Bex", "longitude": 6.854975199999999, "latitude": 46.3835529, "date": {"mer. 18.04.2012": {"weekday": "wednesday", "year": 2012, "categories": {"F-F40": {"pace": 346000000000, "rank": 55, "distance": 8, "time": 2775.2}}, "day": 18, "month": 4, "livingplace": "Troistorrents"}}, "location": "Bouveret"}, "Tour du Chablais #6 Montreux": {"race": "Tour du Chablais #6 Montreux", "longitude": 6.970566, "latitude": 46.3190253, "date": {"mer. 16.05.2012": {"weekday": "wednesday", "year": 2012, "categories": {"F-F40": {"pace": 332000000000, "rank": 55, "distance": 9, "time": 3075.7}}, "day": 16, "month": 5, "livingplace": "Troistorrents"}}, "location": "Aigle"}, "20km de Lausanne": {"race": "20km de Lausanne", "longitude": 6.6322734, "latitude": 46.5196535, "date": {"sam. 28.04.2012": {"weekday": "saturday", "year": 2012, "categories": {"10-F40": {"pace": 349000000000, "rank": 126, "distance": 10, "time": 3497.5}}, "day": 28, "month": 4, "livingplace": "Troistorrents"}}, "location": "Lausanne"}, "Tour du Chablais #2 St-Gingolph": {"race": "Tour du Chablais #2 St-Gingolph", "longitude": 6.854975199999999, "latitude": 46.3835529, "date": {"mer. 14.04.2010": {"weekday": "wednesday", "year": 2010, "categories": {"F-F20": {"pace": 380000000000, "rank": 84, "distance": 8, "time": 3180.3}}, "day": 14, "month": 4, "livingplace": "Troistorrents"}}, "location": "Bouveret"}, "Schweizer Frauenlauf Bern": {"race": "Schweizer Frauenlauf Bern", "longitude": 7.4474468, "latitude": 46.9479739, "date": {"dim. 19.06.2011": {"weekday": "sunday", "year": 2011, "categories": {"5-W40": {"pace": 351000000000, "rank": 319, "distance": 5, "time": 1759.1}}, "day": 19, "month": 6, "livingplace": "Troistorrents"}}, "location": "Bern"}, "Tour du Chablais #4 Morgins": {"race": "Tour du Chablais #4 Morgins", "date": {"mer. 18.05.2011": {"weekday": "wednesday", "year": 2011, "categories": {"F-F40": {"pace": 368000000000, "rank": 67, "distance": 8, "time": 3073.2}}, "day": 18, "month": 5, "livingplace": "Troistorrents"}}, "location": "Les Mosses"}, "Tour du Chablais #5 Bex": {"race": "Tour du Chablais #5 Bex", "longitude": 6.931504599999999, "latitude": 46.3603257, "date": {"mer. 09.05.2012": {"weekday": "wednesday", "year": 2012, "categories": {"F-F40": {"pace": 332000000000, "rank": 37, "distance": 9, "time": 2943.0}}, "day": 9, "month": 5, "livingplace": "Troistorrents"}}, "location": "Roche VD"}, "Tour du Chablais #3 Bex": {"race": "Tour du Chablais #3 Bex", "longitude": 7.0223787, "latitude": 46.1782231, "date": {"mer. 21.04.2010": {"weekday": "wednesday", "year": 2010, "categories": {"F-F20": {"pace": 354000000000, "rank": 95, "distance": 10, "time": 3548.0}}, "day": 21, "month": 4, "livingplace": "Troistorrents"}}, "location": "Evionnaz"}, "Tour du Chablais #4 St  Maurice": {"race": "Tour du Chablais #4 St  Maurice", "date": {"mer. 24.04.2013": {"weekday": "wednesday", "year": 2013, "categories": {"F-F40": {"pace": 353000000000, "rank": 56, "distance": 10, "time": 3533.8}}, "day": 24, "month": 4, "livingplace": "Troistorrents"}}, "location": "Les Mosses"}, "Tour du Chablais #2 Rennaz": {"race": "Tour du Chablais #2 Rennaz", "longitude": 6.854975199999999, "latitude": 46.3835529, "date": {"mer. 04.05.2011": {"weekday": "wednesday", "year": 2011, "categories": {"F-F40": {"pace": 339000000000, "rank": 58, "distance": 9, "time": 3178.3}}, "day": 4, "month": 5, "livingplace": "Troistorrents"}}, "location": "Bouveret"}, "Tour du Chablais #4 Champ\u00e9ry": {"race": "Tour du Chablais #4 Champ\u00e9ry", "date": {"mer. 02.05.2012": {"weekday": "wednesday", "year": 2012, "categories": {"F-F40": {"pace": 343000000000, "rank": 53, "distance": 8, "time": 2852.1}}, "day": 2, "month": 5, "livingplace": "Troistorrents"}}, "location": "Les Mosses"}, "Tour du Chablais #6 Monthey": {"race": "Tour du Chablais #6 Monthey", "longitude": 6.970566, "latitude": 46.3190253, "date": {"mer. 08.05.2013": {"weekday": "wednesday", "year": 2013, "categories": {"F-F40": {"pace": 344000000000, "rank": 64, "distance": 9, "time": 3217.4}}, "day": 8, "month": 5, "livingplace": "Troistorrents"}}, "location": "Aigle"}, "Tour du Chablais #2 Yvorne": {"race": "Tour du Chablais #2 Yvorne", "longitude": 6.854975199999999, "latitude": 46.3835529, "date": {"mer. 10.04.2013": {"weekday": "wednesday", "year": 2013, "categories": {"F-F40": {"pace": 398000000000, "rank": 60, "distance": 8, "time": 3184.8}}, "day": 10, "month": 4, "livingplace": "Troistorrents"}}, "location": "Bouveret"}, "Tour du Chablais #4 Yvorne": {"race": "Tour du Chablais #4 Yvorne", "date": {"mer. 28.04.2010": {"weekday": "wednesday", "year": 2010, "categories": {"F-F20": {"pace": 369000000000, "rank": 82, "distance": 8, "time": 3058.3}}, "day": 28, "month": 4, "livingplace": "Troistorrents"}}, "location": "Les Mosses"}, "Tour du Chablais #3 Bouveret": {"race": "Tour du Chablais #3 Bouveret", "longitude": 7.0223787, "latitude": 46.1782231, "date": {"mer. 17.04.2013": {"weekday": "wednesday", "year": 2013, "categories": {"F-F40": {"pace": 348000000000, "rank": 57, "distance": 10, "time": 3488.7}}, "day": 17, "month": 4, "livingplace": "Troistorrents"}}, "location": "Evionnaz"}, "Tour du Chablais #1 Roche": {"race": "Tour du Chablais #1 Roche", "longitude": 6.9916269, "latitude": 46.2957462, "date": {"mer. 03.04.2013": {"weekday": "wednesday", "year": 2013, "categories": {"F-F40": {"pace": 351000000000, "rank": 66, "distance": 9, "time": 3117.2}}, "day": 3, "month": 4, "livingplace": "Troistorrents"}, "mer. 07.04.2010": {"weekday": "wednesday", "year": 2010, "categories": {"F-F20": {"pace": 352000000000, "rank": 104, "distance": 9, "time": 3153.5}}, "day": 7, "month": 4, "livingplace": "Troistorrents"}}, "location": "Ollon VD"}, "Tour du Chablais #3 Collombey-Muraz": {"race": "Tour du Chablais #3 Collombey-Muraz", "longitude": 7.0223787, "latitude": 46.1782231, "date": {"mer. 25.04.2012": {"weekday": "wednesday", "year": 2012, "categories": {"F-F40": {"pace": 335000000000, "rank": 42, "distance": 9, "time": 3013.5}}, "day": 25, "month": 4, "livingplace": "Troistorrents"}}, "location": "Evionnaz"}, "Morat-Fribourg": {"race": "Morat-Fribourg", "longitude": 7.120184, "latitude": 46.92922110000001, "date": {"sam. 04.10.2014": {"weekday": "saturday", "year": 2014, "categories": {"17-W40": {"pace": 407000000000, "rank": 289, "distance": 17, "time": 6997.7}}, "day": 4, "month": 10, "livingplace": "Troistorrents"}, "sam. 03.10.2009": {"weekday": "saturday", "year": 2009, "categories": {"C-W35": {"pace": 396000000000, "rank": 250, "distance": 17, "time": 6804.0}}, "day": 3, "month": 10, "livingplace": "Troistorrents"}, "sam. 01.10.2011": {"weekday": "saturday", "year": 2011, "categories": {"17-W40": {"pace": 370000000000, "rank": 197, "distance": 17, "time": 6356.0}}, "day": 1, "month": 10, "livingplace": "Troistorrents"}, "sam. 02.10.2010": {"weekday": "saturday", "year": 2010, "categories": {"17-W35": {"pace": 380000000000, "rank": 192, "distance": 17, "time": 6535.9}}, "day": 2, "month": 10, "livingplace": "Troistorrents"}}, "location": "Murten"}, "Tour du Chablais #6 Aigle": {"race": "Tour du Chablais #6 Aigle", "longitude": 6.970566, "latitude": 46.3190253, "date": {"mer. 01.06.2011": {"weekday": "wednesday", "year": 2011, "categories": {"F-F40": {"pace": 328000000000, "rank": 44, "distance": 10, "time": 3346.1}}, "day": 1, "month": 6, "livingplace": "Troistorrents"}}, "location": "Aigle"}, "Tour du Chablais #6 Mouthey": {"race": "Tour du Chablais #6 Mouthey", "longitude": 6.970566, "latitude": 46.3190253, "date": {"mer. 12.05.2010": {"weekday": "wednesday", "year": 2010, "categories": {"F-F20": {"pace": 339000000000, "rank": 87, "distance": 9, "time": 3124.7}}, "day": 12, "month": 5, "livingplace": "Troistorrents"}}, "location": "Aigle"}, "Tour du Chablais #5 Les Mosses": {"race": "Tour du Chablais #5 Les Mosses", "longitude": 6.931504599999999, "latitude": 46.3603257, "date": {"mer. 25.05.2011": {"weekday": "wednesday", "year": 2011, "categories": {"F-F40": {"pace": 370000000000, "rank": 52, "distance": 8, "time": 2961.8}}, "day": 25, "month": 5, "livingplace": "Troistorrents"}}, "location": "Roche VD"}, "Tour du Chablais #1 Lavey": {"race": "Tour du Chablais #1 Lavey", "longitude": 6.9916269, "latitude": 46.2957462, "date": {"mer. 27.04.2011": {"weekday": "wednesday", "year": 2011, "categories": {"F-F40": {"pace": 350000000000, "rank": 57, "distance": 9, "time": 3157.6}}, "day": 27, "month": 4, "livingplace": "Troistorrents"}}, "location": "Ollon VD"}, "Tour du Chablais #5 Morgins": {"race": "Tour du Chablais #5 Morgins", "longitude": 6.931504599999999, "latitude": 46.3603257, "date": {"mer. 01.05.2013": {"weekday": "wednesday", "year": 2013, "categories": {"F-F40": {"pace": 365000000000, "rank": 44, "distance": 8, "time": 2778.3}}, "day": 1, "month": 5, "livingplace": "Troistorrents"}}, "location": "Roche VD"}, "Tour du Chablais #1 Montreux": {"race": "Tour du Chablais #1 Montreux", "longitude": 6.9916269, "latitude": 46.2957462, "date": {"mer. 11.04.2012": {"weekday": "wednesday", "year": 2012, "categories": {"F-F40": {"pace": 359000000000, "rank": 48, "distance": 8, "time": 2731.2}}, "day": 11, "month": 4, "livingplace": "Troistorrents"}}, "location": "Ollon VD"}, "Tour du Chablais #3 Le Bouveret": {"race": "Tour du Chablais #3 Le Bouveret", "longitude": 7.0223787, "latitude": 46.1782231, "date": {"mer. 11.05.2011": {"weekday": "wednesday", "year": 2011, "categories": {"F-F40": {"pace": 347000000000, "rank": 59, "distance": 10, "time": 3470.9}}, "day": 11, "month": 5, "livingplace": "Troistorrents"}}, "location": "Evionnaz"}, "Tour du Chablais #1 Martigny": {"race": "Tour du Chablais #1 Martigny", "longitude": 6.9916269, "latitude": 46.2957462, "date": {"mer. 23.04.2014": {"weekday": "wednesday", "year": 2014, "categories": {"F-F40": {"pace": 361000000000, "rank": 61, "distance": 9, "time": 3075.6}}, "day": 23, "month": 4, "livingplace": "Troistorrents"}}, "location": "Ollon VD"}}, "name": "Baillifard Magalie", "birth": 1971}