{"sex": "M", "races": {"Kyburglauf, Kyburg": {"race": "Kyburglauf, Kyburg", "date": {"sam. 13.11.2010": {"weekday": "saturday", "year": 2010, "categories": {"10-HM20": {"pace": 358000000000, "rank": 20, "distance": 10, "time": 3589.6}}, "day": 13, "month": 11, "livingplace": "Rafz"}}, "location": "Kyburg"}, "La Trotteuse-Tissot, La Chaux-de-Fonds": {"race": "La Trotteuse-Tissot, La Chaux-de-Fonds", "longitude": 6.832783800000001, "latitude": 47.1034892, "date": {"sam. 12.12.2015": {"weekday": "saturday", "year": 2015, "categories": {"GC-H30": {"pace": 295000000000, "rank": 172, "distance": 8, "time": 2365.4}}, "day": 12, "month": 12, "livingplace": "Auvernier"}}, "location": "La Chaux-de-Fonds"}, "Lenzburger Lauf": {"race": "Lenzburger Lauf", "longitude": 8.172154500000001, "latitude": 47.3904443, "date": {"sam. 29.05.2010": {"weekday": "saturday", "year": 2010, "categories": {"11-M20": {"pace": 305000000000, "rank": 8, "distance": 12, "time": 3540.4}}, "day": 29, "month": 5, "livingplace": "Rafz"}}, "location": "Lenzburg"}, "Z\u00fcrcher Silvesterlauf, Z\u00fcrich": {"race": "Z\u00fcrcher Silvesterlauf, Z\u00fcrich", "longitude": 8.541694, "latitude": 47.3768866, "date": {"dim. 13.12.2009": {"weekday": "sunday", "year": 2009, "categories": {"8-MenHK": {"pace": 274000000000, "rank": 340, "distance": 9, "time": 2361.8}}, "day": 13, "month": 12, "livingplace": "Rafz"}}, "location": "Z\u00fcrich"}, "ASICS Bremgarter Reusslauf": {"race": "ASICS Bremgarter Reusslauf", "longitude": 8.3397905, "latitude": 47.34917739999999, "date": {"sam. 27.02.2010": {"weekday": "saturday", "year": 2010, "categories": {"M20": {"pace": 271000000000, "rank": 89, "distance": 11, "time": 2989.6}}, "day": 27, "month": 2, "livingplace": "Rafz"}}, "location": "Bremgarten AG"}, "Morat-Fribourg": {"race": "Morat-Fribourg", "longitude": 7.120184, "latitude": 46.92922110000001, "date": {"sam. 03.10.2015": {"weekday": "saturday", "year": 2015, "categories": {"17-M20": {"pace": 310000000000, "rank": 1182, "distance": 17, "time": 5329.3}}, "day": 3, "month": 10, "livingplace": "Auvernier"}}, "location": "Murten"}, "Montreux - Les Rochers de Naye": {"race": "Montreux - Les Rochers de Naye", "longitude": 6.9106799, "latitude": 46.4312213, "date": {"dim. 06.07.2014": {"weekday": "sunday", "year": 2014, "categories": {"M-HElite": {"pace": 509000000000, "rank": 198, "distance": 19, "time": 9580.9}}, "day": 6, "month": 7, "livingplace": "Auvernier"}}, "location": "Montreux"}, "20km de Lausanne": {"race": "20km de Lausanne", "longitude": 6.6322734, "latitude": 46.5196535, "date": {"sam. 27.04.2013": {"weekday": "saturday", "year": 2013, "categories": {"10-H30": {"pace": 271000000000, "rank": 231, "distance": 10, "time": 2712.4}}, "day": 27, "month": 4, "livingplace": "Auvernier"}, "sam. 26.04.2014": {"weekday": "saturday", "year": 2014, "categories": {"10-H30": {"pace": 271000000000, "rank": 179, "distance": 10, "time": 2710.3}}, "day": 26, "month": 4, "livingplace": "Auvernier"}}, "location": "Lausanne"}, "Lausanne Marathon": {"race": "Lausanne Marathon", "longitude": 6.6322734, "latitude": 46.5196535, "date": {"dim. 28.10.2012": {"weekday": "sunday", "year": 2012, "categories": {"10-H2": {"pace": 256000000000, "rank": 85, "distance": 10, "time": 2565.1}}, "day": 28, "month": 10, "livingplace": "Rafz"}}, "location": "Lausanne"}}, "name": "Bally Florent", "birth": 1981}