{"sex": "M", "races": {"Course de l'Escalade, Gen\u00e8ve": {"race": "Course de l'Escalade, Gen\u00e8ve", "longitude": 6.1431577, "latitude": 46.2043907, "date": {"sam. 06.12.2003": {"weekday": "saturday", "year": 2003, "categories": {"HEcolA": {"pace": 277000000000, "rank": 274, "distance": 2, "time": 644.1}}, "day": 6, "month": 12, "livingplace": "Lavey Village"}}, "location": "Gen\u00e8ve"}, "Tour du Chablais #4 Champ\u00e9ry": {"race": "Tour du Chablais #4 Champ\u00e9ry", "date": {"mer. 02.05.2012": {"weekday": "wednesday", "year": 2012, "categories": {"M-M20": {"pace": 236000000000, "rank": 41, "distance": 8, "time": 1964.9}}, "day": 2, "month": 5, "livingplace": "Lavey Village"}}, "location": "Les Mosses"}, "Tour du Chablais #2 Bex": {"race": "Tour du Chablais #2 Bex", "longitude": 6.854975199999999, "latitude": 46.3835529, "date": {"mer. 18.04.2012": {"weekday": "wednesday", "year": 2012, "categories": {"M-M20": {"pace": 242000000000, "rank": 46, "distance": 8, "time": 1939.1}}, "day": 18, "month": 4, "livingplace": "Lavey Village"}}, "location": "Bouveret"}, "Tour du Chablais #1 Martigny": {"race": "Tour du Chablais #1 Martigny", "longitude": 6.9916269, "latitude": 46.2957462, "date": {"mer. 23.04.2014": {"weekday": "wednesday", "year": 2014, "categories": {"M-M20": {"pace": 252000000000, "rank": 75, "distance": 9, "time": 2147.7}}, "day": 23, "month": 4, "livingplace": "Lavey Village"}}, "location": "Ollon VD"}, "Tour du Chablais #6 Montreux": {"race": "Tour du Chablais #6 Montreux", "longitude": 6.970566, "latitude": 46.3190253, "date": {"mer. 16.05.2012": {"weekday": "wednesday", "year": 2012, "categories": {"M-M20": {"pace": 231000000000, "rank": 41, "distance": 9, "time": 2141.0}}, "day": 16, "month": 5, "livingplace": "Lavey Village"}}, "location": "Aigle"}, "Tour du Chablais #6 Aigle": {"race": "Tour du Chablais #6 Aigle", "longitude": 6.970566, "latitude": 46.3190253, "date": {"mer. 01.06.2011": {"weekday": "wednesday", "year": 2011, "categories": {"M-Jun": {"pace": 244000000000, "rank": 8, "distance": 10, "time": 2491.3}}, "day": 1, "month": 6, "livingplace": "Lavey Village"}}, "location": "Aigle"}, "Tour du Chablais #4 Morgins": {"race": "Tour du Chablais #4 Morgins", "date": {"mer. 18.05.2011": {"weekday": "wednesday", "year": 2011, "categories": {"M-Jun": {"pace": 257000000000, "rank": 7, "distance": 8, "time": 2147.9}}, "day": 18, "month": 5, "livingplace": "Lavey Village"}}, "location": "Les Mosses"}, "Tour du Chablais #1 Montreux": {"race": "Tour du Chablais #1 Montreux", "longitude": 6.9916269, "latitude": 46.2957462, "date": {"mer. 11.04.2012": {"weekday": "wednesday", "year": 2012, "categories": {"M-M20": {"pace": 244000000000, "rank": 47, "distance": 8, "time": 1860.9}}, "day": 11, "month": 4, "livingplace": "Lavey Village"}}, "location": "Ollon VD"}, "Tour du Chablais #5 Les Mosses": {"race": "Tour du Chablais #5 Les Mosses", "longitude": 6.931504599999999, "latitude": 46.3603257, "date": {"mer. 25.05.2011": {"weekday": "wednesday", "year": 2011, "categories": {"M-Jun": {"pace": 281000000000, "rank": 11, "distance": 8, "time": 2255.1}}, "day": 25, "month": 5, "livingplace": "Lavey Village"}}, "location": "Roche VD"}, "Tour du Chablais #1 Lavey": {"race": "Tour du Chablais #1 Lavey", "longitude": 6.9916269, "latitude": 46.2957462, "date": {"mer. 27.04.2011": {"weekday": "wednesday", "year": 2011, "categories": {"M-Jun": {"pace": 264000000000, "rank": 11, "distance": 9, "time": 2379.3}}, "day": 27, "month": 4, "livingplace": "Lavey Village"}}, "location": "Ollon VD"}, "Tour du Chablais #5 Bex": {"race": "Tour du Chablais #5 Bex", "longitude": 6.931504599999999, "latitude": 46.3603257, "date": {"mer. 09.05.2012": {"weekday": "wednesday", "year": 2012, "categories": {"M-M20": {"pace": 238000000000, "rank": 44, "distance": 9, "time": 2111.5}}, "day": 9, "month": 5, "livingplace": "Lavey Village"}}, "location": "Roche VD"}, "Tour du Chablais #3 Le Bouveret": {"race": "Tour du Chablais #3 Le Bouveret", "longitude": 7.0223787, "latitude": 46.1782231, "date": {"mer. 11.05.2011": {"weekday": "wednesday", "year": 2011, "categories": {"M-Jun": {"pace": 265000000000, "rank": 17, "distance": 10, "time": 2654.2}}, "day": 11, "month": 5, "livingplace": "Lavey Village"}}, "location": "Evionnaz"}, "Tour du Chablais #3 Collombey-Muraz": {"race": "Tour du Chablais #3 Collombey-Muraz", "longitude": 7.0223787, "latitude": 46.1782231, "date": {"mer. 25.04.2012": {"weekday": "wednesday", "year": 2012, "categories": {"M-M20": {"pace": 246000000000, "rank": 52, "distance": 9, "time": 2209.6}}, "day": 25, "month": 4, "livingplace": "Lavey Village"}}, "location": "Evionnaz"}, "Tour du Chablais #2 Rennaz": {"race": "Tour du Chablais #2 Rennaz", "longitude": 6.854975199999999, "latitude": 46.3835529, "date": {"mer. 04.05.2011": {"weekday": "wednesday", "year": 2011, "categories": {"M-Jun": {"pace": 255000000000, "rank": 10, "distance": 9, "time": 2386.8}}, "day": 4, "month": 5, "livingplace": "Lavey Village"}}, "location": "Bouveret"}}, "name": "Ballif Florian", "birth": 1992}