{"sex": "M", "races": {"Corrida Bulloise, Bulle": {"race": "Corrida Bulloise, Bulle", "longitude": 7.057726799999999, "latitude": 46.6154512, "date": {"sam. 19.11.2011": {"weekday": "saturday", "year": 2011, "categories": {"M20": {"pace": 241000000000, "rank": 55, "distance": 8, "time": 1967.4}}, "day": 19, "month": 11, "livingplace": "Jongny"}}, "location": "Bulle"}, "Tour du Chablais #4 St  Maurice": {"race": "Tour du Chablais #4 St  Maurice", "date": {"mer. 24.04.2013": {"weekday": "wednesday", "year": 2013, "categories": {"M-M20": {"pace": 234000000000, "rank": 37, "distance": 10, "time": 2343.1}}, "day": 24, "month": 4, "livingplace": "Puidoux"}}, "location": "Les Mosses"}, "Tour du Chablais #2 Yvorne": {"race": "Tour du Chablais #2 Yvorne", "longitude": 6.854975199999999, "latitude": 46.3835529, "date": {"mer. 10.04.2013": {"weekday": "wednesday", "year": 2013, "categories": {"M-M20": {"pace": 248000000000, "rank": 34, "distance": 8, "time": 1990.2}}, "day": 10, "month": 4, "livingplace": "Puidoux"}}, "location": "Bouveret"}, "La Trotteuse-Tissot, La Chaux-de-Fonds": {"race": "La Trotteuse-Tissot, La Chaux-de-Fonds", "longitude": 6.832783800000001, "latitude": 47.1034892, "date": {"sam. 12.12.2015": {"weekday": "saturday", "year": 2015, "categories": {"GC-H30": {"pace": 259000000000, "rank": 91, "distance": 8, "time": 2077.3}}, "day": 12, "month": 12, "livingplace": "Imprimerie des Montagnes"}}, "location": "La Chaux-de-Fonds"}, "Tour du Chablais #2 Bex": {"race": "Tour du Chablais #2 Bex", "longitude": 6.854975199999999, "latitude": 46.3835529, "date": {"mer. 18.04.2012": {"weekday": "wednesday", "year": 2012, "categories": {"M-M20": {"pace": 231000000000, "rank": 31, "distance": 8, "time": 1853.0}}, "day": 18, "month": 4, "livingplace": "Jongny"}}, "location": "Bouveret"}, "Tour du Chablais #3 Bouveret": {"race": "Tour du Chablais #3 Bouveret", "longitude": 7.0223787, "latitude": 46.1782231, "date": {"mer. 17.04.2013": {"weekday": "wednesday", "year": 2013, "categories": {"M-M20": {"pace": 234000000000, "rank": 33, "distance": 10, "time": 2341.0}}, "day": 17, "month": 4, "livingplace": "Puidoux"}}, "location": "Evionnaz"}, "Tour du Chablais #1 Roche": {"race": "Tour du Chablais #1 Roche", "longitude": 6.9916269, "latitude": 46.2957462, "date": {"mer. 03.04.2013": {"weekday": "wednesday", "year": 2013, "categories": {"M-M20": {"pace": 233000000000, "rank": 39, "distance": 9, "time": 2069.7}}, "day": 3, "month": 4, "livingplace": "Puidoux"}}, "location": "Ollon VD"}, "Tour du Chablais #5 Bex": {"race": "Tour du Chablais #5 Bex", "longitude": 6.931504599999999, "latitude": 46.3603257, "date": {"mer. 09.05.2012": {"weekday": "wednesday", "year": 2012, "categories": {"M-M20": {"pace": 255000000000, "rank": 70, "distance": 9, "time": 2262.3}}, "day": 9, "month": 5, "livingplace": "Jongny"}}, "location": "Roche VD"}, "Morat-Fribourg": {"race": "Morat-Fribourg", "longitude": 7.120184, "latitude": 46.92922110000001, "date": {"sam. 01.10.2011": {"weekday": "saturday", "year": 2011, "categories": {"17-M20": {"pace": 257000000000, "rank": 245, "distance": 17, "time": 4421.0}}, "day": 1, "month": 10, "livingplace": "Jongny"}, "sam. 06.10.2012": {"weekday": "saturday", "year": 2012, "categories": {"17-M20": {"pace": 252000000000, "rank": 170, "distance": 17, "time": 4402.4}}, "day": 6, "month": 10, "livingplace": "Puidoux"}}, "location": "Murten"}, "20km de Lausanne": {"race": "20km de Lausanne", "longitude": 6.6322734, "latitude": 46.5196535, "date": {"sam. 30.04.2011": {"weekday": "saturday", "year": 2011, "categories": {"20-H30": {"pace": 244000000000, "rank": 60, "distance": 20, "time": 4883.0}}, "day": 30, "month": 4, "livingplace": "IRONtonton"}, "sam. 25.04.2015": {"weekday": "saturday", "year": 2015, "categories": {"20-H30": {"pace": 241000000000, "rank": 68, "distance": 20, "time": 4838.6}}, "day": 25, "month": 4, "livingplace": "Triviera"}, "sam. 28.04.2012": {"weekday": "saturday", "year": 2012, "categories": {"20-H30": {"pace": 263000000000, "rank": 95, "distance": 20, "time": 5272.1}}, "day": 28, "month": 4, "livingplace": "Jongny"}, "sam. 27.04.2013": {"weekday": "saturday", "year": 2013, "categories": {"10-H30": {"pace": 233000000000, "rank": 41, "distance": 10, "time": 2339.8}}, "day": 27, "month": 4, "livingplace": "Triviera"}}, "location": "Lausanne"}, "Tour du Chablais #1 Lavey": {"race": "Tour du Chablais #1 Lavey", "longitude": 6.9916269, "latitude": 46.2957462, "date": {"mer. 27.04.2011": {"weekday": "wednesday", "year": 2011, "categories": {"M-M20": {"pace": 230000000000, "rank": 29, "distance": 9, "time": 2071.6}}, "day": 27, "month": 4, "livingplace": "Jongny"}}, "location": "Ollon VD"}, "Sierre-Zinal, Sierre": {"race": "Sierre-Zinal, Sierre", "longitude": 7.533536199999999, "latitude": 46.29413110000001, "date": {"dim. 12.08.2012": {"weekday": "sunday", "year": 2012, "categories": {"Elites": {"pace": 443000000000, "rank": 145, "distance": 31, "time": 13744.0}}, "day": 12, "month": 8, "livingplace": "Puidoux"}}, "location": "Sierre"}, "Tour du Chablais #3 Le Bouveret": {"race": "Tour du Chablais #3 Le Bouveret", "longitude": 7.0223787, "latitude": 46.1782231, "date": {"mer. 11.05.2011": {"weekday": "wednesday", "year": 2011, "categories": {"M-M20": {"pace": 231000000000, "rank": 35, "distance": 10, "time": 2317.9}}, "day": 11, "month": 5, "livingplace": "Jongny"}}, "location": "Evionnaz"}, "Lausanne Marathon": {"race": "Lausanne Marathon", "longitude": 6.6322734, "latitude": 46.5196535, "date": {"dim. 26.10.2014": {"weekday": "sunday", "year": 2014, "categories": {"21-H30": {"pace": 263000000000, "rank": 113, "distance": 21, "time": 5551.8}}, "day": 26, "month": 10, "livingplace": "Puidoux"}, "sam. 24.10.2015": {"weekday": "saturday", "year": 2015, "categories": {"21-H30": {"pace": 267000000000, "rank": 140, "distance": 21, "time": 5644.4}}, "day": 24, "month": 10, "livingplace": "Puidoux"}, "dim. 28.10.2012": {"weekday": "sunday", "year": 2012, "categories": {"42-H2": {"pace": 273000000000, "rank": 26, "distance": 42, "time": 11555.6}}, "day": 28, "month": 10, "livingplace": "Puidoux"}, "dim. 27.10.2013": {"weekday": "sunday", "year": 2013, "categories": {"42-H2": {"pace": 268000000000, "rank": 28, "distance": 42, "time": 11315.5}}, "day": 27, "month": 10, "livingplace": "Puidoux"}}, "location": "Lausanne"}}, "name": "Bally Fabrice", "birth": 1981}