{"sex": "M", "races": {"Gurtenclassic, Wabern": {"race": "Gurtenclassic, Wabern", "longitude": 7.448973199999999, "latitude": 46.92901639999999, "date": {"dim. 03.11.2013": {"weekday": "sunday", "year": 2013, "categories": {"M50": {"pace": 436000000000, "rank": 81, "distance": 15, "time": 6545.3}}, "day": 3, "month": 11, "livingplace": "Bern"}, "dim. 06.11.2011": {"weekday": "sunday", "year": 2011, "categories": {"M40": {"pace": 357000000000, "rank": 107, "distance": 15, "time": 5358.9}}, "day": 6, "month": 11, "livingplace": "Bern"}}, "location": "Wabern"}, "Bl\u00fcemlisalp-Lauf, Reichenbach": {"race": "Bl\u00fcemlisalp-Lauf, Reichenbach", "longitude": 7.6940529, "latitude": 46.6254387, "date": {"dim. 27.05.2012": {"weekday": "sunday", "year": 2012, "categories": {"M50": {"pace": 445000000000, "rank": 84, "distance": 16, "time": 7172.3}}, "day": 27, "month": 5, "livingplace": "Bern"}}, "location": "Reichenbach im Kandertal"}, "IWB Basel Marathon": {"race": "IWB Basel Marathon", "longitude": 7.5885761, "latitude": 47.5595986, "date": {"dim. 11.09.2011": {"weekday": "sunday", "year": 2011, "categories": {"M-42-M45": {"pace": 378000000000, "rank": 42, "distance": 42, "time": 15989.7}}, "day": 11, "month": 9, "livingplace": "Bern"}}, "location": "Basel"}, "Kerzerslauf": {"race": "Kerzerslauf", "longitude": 7.1954365, "latitude": 46.97488999999999, "date": {"sam. 17.03.2012": {"weekday": "saturday", "year": 2012, "categories": {"5-M20": {"pace": 314000000000, "rank": 117, "distance": 5, "time": 1572.6}}, "day": 17, "month": 3, "livingplace": "Bern"}}, "location": "Kerzers"}, "Z\u00fcrcher Silvesterlauf, Z\u00fcrich": {"race": "Z\u00fcrcher Silvesterlauf, Z\u00fcrich", "longitude": 8.541694, "latitude": 47.3768866, "date": {"dim. 11.12.2011": {"weekday": "sunday", "year": 2011, "categories": {"8-MenAK2": {"pace": 363000000000, "rank": 1238, "distance": 9, "time": 3123.5}}, "day": 11, "month": 12, "livingplace": "Bern"}}, "location": "Z\u00fcrich"}, "Aletsch-Halbmarathon, Bettmeralp": {"race": "Aletsch-Halbmarathon, Bettmeralp", "date": {"dim. 24.06.2012": {"weekday": "sunday", "year": 2012, "categories": {"M50": {"pace": 545000000000, "rank": 168, "distance": 21, "time": 11568.2}}, "day": 24, "month": 6, "livingplace": "Bern"}}, "location": "Bettmeralp"}}, "name": "Balsiger Roland", "birth": 1962}