{"sex": "M", "races": {"Tour du Chablais #3 Bex": {"race": "Tour du Chablais #3 Bex", "longitude": 7.0223787, "latitude": 46.1782231, "date": {"mer. 21.04.2010": {"weekday": "wednesday", "year": 2010, "categories": {"M-M20": {"pace": 306000000000, "rank": 156, "distance": 10, "time": 3066.4}}, "day": 21, "month": 4, "livingplace": "Verossaz"}}, "location": "Evionnaz"}, "Tour du Chablais #1 Montreux": {"race": "Tour du Chablais #1 Montreux", "longitude": 6.9916269, "latitude": 46.2957462, "date": {"mer. 11.04.2012": {"weekday": "wednesday", "year": 2012, "categories": {"M-M20": {"pace": 311000000000, "rank": 163, "distance": 8, "time": 2366.8}}, "day": 11, "month": 4, "livingplace": "Verossaz"}}, "location": "Ollon VD"}, "Tour du Chablais #2 Yvorne": {"race": "Tour du Chablais #2 Yvorne", "longitude": 6.854975199999999, "latitude": 46.3835529, "date": {"mer. 10.04.2013": {"weekday": "wednesday", "year": 2013, "categories": {"M-M20": {"pace": 325000000000, "rank": 176, "distance": 8, "time": 2600.2}}, "day": 10, "month": 4, "livingplace": "Verossaz"}}, "location": "Bouveret"}, "Tour du Chablais #4 Champ\u00e9ry": {"race": "Tour du Chablais #4 Champ\u00e9ry", "date": {"mer. 02.05.2012": {"weekday": "wednesday", "year": 2012, "categories": {"M-M20": {"pace": 297000000000, "rank": 145, "distance": 8, "time": 2471.9}}, "day": 2, "month": 5, "livingplace": "Verossaz"}}, "location": "Les Mosses"}, "Tour du Chablais #5 Morgins": {"race": "Tour du Chablais #5 Morgins", "longitude": 6.931504599999999, "latitude": 46.3603257, "date": {"mer. 01.05.2013": {"weekday": "wednesday", "year": 2013, "categories": {"M-M20": {"pace": 315000000000, "rank": 157, "distance": 8, "time": 2394.4}}, "day": 1, "month": 5, "livingplace": "Verossaz"}}, "location": "Roche VD"}, "Tour du Chablais #1 Roche": {"race": "Tour du Chablais #1 Roche", "longitude": 6.9916269, "latitude": 46.2957462, "date": {"mer. 03.04.2013": {"weekday": "wednesday", "year": 2013, "categories": {"M-M20": {"pace": 295000000000, "rank": 161, "distance": 9, "time": 2621.2}}, "day": 3, "month": 4, "livingplace": "Verossaz"}}, "location": "Ollon VD"}, "Tour du Chablais #6 Mouthey": {"race": "Tour du Chablais #6 Mouthey", "longitude": 6.970566, "latitude": 46.3190253, "date": {"mer. 12.05.2010": {"weekday": "wednesday", "year": 2010, "categories": {"M-M20": {"pace": 279000000000, "rank": 144, "distance": 9, "time": 2569.2}}, "day": 12, "month": 5, "livingplace": "Verossaz"}}, "location": "Aigle"}}, "name": "Barman Samuel", "birth": 1989}