{"sex": "F", "races": {"SwissCityMarathon - Lucerne, Luzern": {"race": "SwissCityMarathon - Lucerne, Luzern", "longitude": 8.3093072, "latitude": 47.05016819999999, "date": {"dim. 26.10.2014": {"weekday": "sunday", "year": 2014, "categories": {"H-F40": {"pace": 325000000000, "rank": 202, "distance": 21, "time": 6860.3}}, "day": 26, "month": 10, "livingplace": "Zurich"}}, "location": "Luzern"}, "Badener Limmat-Lauf, Baden": {"race": "Badener Limmat-Lauf, Baden", "longitude": 8.5303972, "latitude": 48.5699281, "date": {"sam. 16.03.2013": {"weekday": "saturday", "year": 2013, "categories": {"F30": {"pace": 325000000000, "rank": 31, "distance": 13, "time": 4286.6}}, "day": 16, "month": 3, "livingplace": "Zurich"}}, "location": "Baden"}, "Winterthur Marathon": {"race": "Winterthur Marathon", "longitude": -75.6037351, "latitude": 39.8088766, "date": {"dim. 31.05.2015": {"weekday": "sunday", "year": 2015, "categories": {"HM-F40": {"pace": 307000000000, "rank": 27, "distance": 21, "time": 6456.8}}, "day": 31, "month": 5, "livingplace": "Zurich"}}, "location": "Winterthur"}, "ASICS Bremgarter Reusslauf": {"race": "ASICS Bremgarter Reusslauf", "longitude": 8.3397905, "latitude": 47.34917739999999, "date": {"sam. 23.02.2013": {"weekday": "saturday", "year": 2013, "categories": {"11-F30": {"pace": 335000000000, "rank": 130, "distance": 11, "time": 3694.0}}, "day": 23, "month": 2, "livingplace": "Zurich"}}, "location": "Bremgarten AG"}, "Z\u00fcrich Marathon, Teamrun und Cityrun": {"race": "Z\u00fcrich Marathon, Teamrun und Cityrun", "longitude": 8.541694, "latitude": 47.3768866, "date": {"dim. 07.04.2013": {"weekday": "sunday", "year": 2013, "categories": {"10-W30": {"pace": 307000000000, "rank": 72, "distance": 10, "time": 3078.5}}, "day": 7, "month": 4, "livingplace": "Zurich"}}, "location": "Z\u00fcrich"}, "Z\u00fcrcher Silvesterlauf, Z\u00fcrich": {"race": "Z\u00fcrcher Silvesterlauf, Z\u00fcrich", "longitude": 8.541694, "latitude": 47.3768866, "date": {"dim. 15.12.2013": {"weekday": "sunday", "year": 2013, "categories": {"10-F30": {"pace": 335000000000, "rank": 340, "distance": 10, "time": 3354.5}}, "day": 15, "month": 12, "livingplace": "Zurich"}}, "location": "Z\u00fcrich"}, "Aletsch-Halbmarathon, Bettmeralp": {"race": "Aletsch-Halbmarathon, Bettmeralp", "date": {"dim. 29.06.2014": {"weekday": "sunday", "year": 2014, "categories": {"F40": {"pace": 497000000000, "rank": 109, "distance": 13, "time": 6618.4}}, "day": 29, "month": 6, "livingplace": "Technics"}}, "location": "Bettmeralp"}}, "name": "Basman Semra", "birth": 1974}