{"sex": "F", "races": {"10km Schweizer Meisterschaften Lyss": {"race": "10km Schweizer Meisterschaften Lyss", "longitude": 7.3077022, "latitude": 47.0746504, "date": {"sam. 02.04.2011": {"weekday": "saturday", "year": 2011, "categories": {"10-W40": {"pace": 350000000000, "rank": 25, "distance": 10, "time": 3506.0}}, "day": 2, "month": 4, "livingplace": "Bern"}}, "location": "Lyss"}, "Schweizer Frauenlauf Bern": {"race": "Schweizer Frauenlauf Bern", "longitude": 7.4474468, "latitude": 46.9479739, "date": {"dim. 10.06.2012": {"weekday": "sunday", "year": 2012, "categories": {"10-W45": {"pace": 343000000000, "rank": 308, "distance": 10, "time": 3438.5}}, "day": 10, "month": 6, "livingplace": "Bern"}}, "location": "Bern"}, "Hallwilerseelauf, Beinwil am See": {"race": "Hallwilerseelauf, Beinwil am See", "date": {"sam. 16.10.2010": {"weekday": "saturday", "year": 2010, "categories": {"K-Frau": {"pace": 355000000000, "rank": 39, "distance": 7, "time": 2456.2}}, "day": 16, "month": 10, "livingplace": "Bern"}, "sam. 15.10.2011": {"weekday": "saturday", "year": 2011, "categories": {"10-Frau": {"pace": 321000000000, "rank": 219, "distance": 10, "time": 3210.3}}, "day": 15, "month": 10, "livingplace": "Bern"}}, "location": "Beinwil am See"}, "Thuner Stadtlauf, Thun": {"race": "Thuner Stadtlauf, Thun", "longitude": 7.6279881, "latitude": 46.7579868, "date": {"dim. 28.08.2011": {"weekday": "sunday", "year": 2011, "categories": {"10-W40": {"pace": 335000000000, "rank": 57, "distance": 10, "time": 3359.7}}, "day": 28, "month": 8, "livingplace": "Bern"}}, "location": "Thun"}, "Kerzerslauf": {"race": "Kerzerslauf", "longitude": 7.1954365, "latitude": 46.97488999999999, "date": {"sam. 16.03.2013": {"weekday": "saturday", "year": 2013, "categories": {"15-F45": {"pace": 360000000000, "rank": 209, "distance": 15, "time": 5410.9}}, "day": 16, "month": 3, "livingplace": "Bern"}}, "location": "Kerzers"}, "SwissCityMarathon - Lucerne, Luzern": {"race": "SwissCityMarathon - Lucerne, Luzern", "longitude": 8.3093072, "latitude": 47.05016819999999, "date": {"dim. 27.10.2013": {"weekday": "sunday", "year": 2013, "categories": {"H-F40": {"pace": 369000000000, "rank": 457, "distance": 21, "time": 7785.2}}, "day": 27, "month": 10, "livingplace": "Bern"}}, "location": "Luzern"}}, "name": "Baud Patricia", "birth": 1967}