{"sex": "M", "races": {"Tour du Chablais #5 Les Mosses": {"race": "Tour du Chablais #5 Les Mosses", "longitude": 6.931504599999999, "latitude": 46.3603257, "date": {"mer. 25.05.2011": {"weekday": "wednesday", "year": 2011, "categories": {"M-M40": {"pace": 383000000000, "rank": 132, "distance": 8, "time": 3064.9}}, "day": 25, "month": 5, "livingplace": "Fully"}}, "location": "Roche VD"}, "Tour du Chablais #1 Lavey": {"race": "Tour du Chablais #1 Lavey", "longitude": 6.9916269, "latitude": 46.2957462, "date": {"mer. 27.04.2011": {"weekday": "wednesday", "year": 2011, "categories": {"M-M40": {"pace": 306000000000, "rank": 120, "distance": 9, "time": 2756.6}}, "day": 27, "month": 4, "livingplace": "Fully"}}, "location": "Ollon VD"}, "Tour du Chablais #3 Le Bouveret": {"race": "Tour du Chablais #3 Le Bouveret", "longitude": 7.0223787, "latitude": 46.1782231, "date": {"mer. 11.05.2011": {"weekday": "wednesday", "year": 2011, "categories": {"M-M40": {"pace": 356000000000, "rank": 171, "distance": 10, "time": 3562.2}}, "day": 11, "month": 5, "livingplace": "Fully"}}, "location": "Evionnaz"}, "Tour du Chablais #6 Aigle": {"race": "Tour du Chablais #6 Aigle", "longitude": 6.970566, "latitude": 46.3190253, "date": {"mer. 01.06.2011": {"weekday": "wednesday", "year": 2011, "categories": {"M-M40": {"pace": 340000000000, "rank": 156, "distance": 10, "time": 3469.6}}, "day": 1, "month": 6, "livingplace": "Fully"}}, "location": "Aigle"}, "Tour du Chablais #4 Morgins": {"race": "Tour du Chablais #4 Morgins", "date": {"mer. 18.05.2011": {"weekday": "wednesday", "year": 2011, "categories": {"M-M40": {"pace": 370000000000, "rank": 157, "distance": 8, "time": 3090.4}}, "day": 18, "month": 5, "livingplace": "Fully"}}, "location": "Les Mosses"}, "Tour du Chablais #2 Rennaz": {"race": "Tour du Chablais #2 Rennaz", "longitude": 6.854975199999999, "latitude": 46.3835529, "date": {"mer. 04.05.2011": {"weekday": "wednesday", "year": 2011, "categories": {"M-M40": {"pace": 361000000000, "rank": 179, "distance": 9, "time": 3384.1}}, "day": 4, "month": 5, "livingplace": "Fully"}}, "location": "Bouveret"}}, "name": "Baudin Jacky", "birth": 1968}