{"sex": "M", "races": {"Int Greifenseelauf, Uster": {"race": "Int Greifenseelauf, Uster", "longitude": 8.717873899999999, "latitude": 47.3482747, "date": {"sam. 16.09.2006": {"weekday": "saturday", "year": 2006, "categories": {"K/M30": {"pace": 264000000000, "rank": 22, "distance": 10, "time": 2646.0}}, "day": 16, "month": 9, "livingplace": "Fislisbach"}}, "location": "Uster"}, "Z\u00fcrich Marathon, Teamrun und Cityrun": {"race": "Z\u00fcrich Marathon, Teamrun und Cityrun", "longitude": 8.541694, "latitude": 47.3768866, "date": {"dim. 06.04.2014": {"weekday": "sunday", "year": 2014, "categories": {"10-M40": {"pace": 298000000000, "rank": 167, "distance": 10, "time": 2925.5}}, "day": 6, "month": 4, "livingplace": "Fislisbach"}}, "location": "Z\u00fcrich"}, "Hallwilerseelauf, Beinwil am See": {"race": "Hallwilerseelauf, Beinwil am See", "date": {"sam. 14.10.2006": {"weekday": "saturday", "year": 2006, "categories": {"M30": {"pace": 297000000000, "rank": 403, "distance": 21, "time": 6268.3}}, "day": 14, "month": 10, "livingplace": "Fislisbach"}, "sam. 13.10.2001": {"weekday": "saturday", "year": 2001, "categories": {"11": {"pace": 329000000000, "rank": 123, "distance": 21, "time": 6960.0}}, "day": 13, "month": 10, "livingplace": "Baden"}}, "location": "Beinwil am See"}, "ASICS Bremgarter Reusslauf": {"race": "ASICS Bremgarter Reusslauf", "longitude": 8.3397905, "latitude": 47.34917739999999, "date": {"sam. 22.02.2014": {"weekday": "saturday", "year": 2014, "categories": {"11-M40": {"pace": 283000000000, "rank": 322, "distance": 11, "time": 3123.8}}, "day": 22, "month": 2, "livingplace": "Fislisbach"}}, "location": "Bremgarten AG"}, "Lucerne Marathon, Luzern": {"race": "Lucerne Marathon, Luzern", "longitude": 8.3093072, "latitude": 47.05016819999999, "date": {"dim. 28.10.2012": {"weekday": "sunday", "year": 2012, "categories": {"H-M40": {"pace": 333000000000, "rank": 956, "distance": 21, "time": 7045.8}}, "day": 28, "month": 10, "livingplace": "Fislisbach"}}, "location": "Luzern"}, "Gippinger Stauseelauf": {"race": "Gippinger Stauseelauf", "longitude": 8.2152586, "latitude": 47.5810513, "date": {"jeu. 31.12.2015": {"weekday": "thursday", "year": 2015, "categories": {"7-JoggM": {"pace": 287000000000, "rank": 79, "distance": 8, "time": 2165.4}}, "day": 31, "month": 12, "livingplace": "Fislisbach"}}, "location": "Leuggern"}, "Z\u00fcrcher Silvesterlauf, Z\u00fcrich": {"race": "Z\u00fcrcher Silvesterlauf, Z\u00fcrich", "longitude": 8.541694, "latitude": 47.3768866, "date": {"dim. 11.12.2011": {"weekday": "sunday", "year": 2011, "categories": {"8-MenAK1": {"pace": 254000000000, "rank": 205, "distance": 9, "time": 2185.8}}, "day": 11, "month": 12, "livingplace": "Fislisbach"}}, "location": "Z\u00fcrich"}}, "name": "Bauer Beat", "birth": 1972}