{"sex": "M", "races": {"Dreil\u00e4nder-Lauf, Basel": {"race": "Dreil\u00e4nder-Lauf, Basel", "longitude": 7.5885761, "latitude": 47.5595986, "date": {"dim. 25.05.2014": {"weekday": "sunday", "year": 2014, "categories": {"HM50": {"pace": 272000000000, "rank": 10, "distance": 21, "time": 5758.0}}, "day": 25, "month": 5, "livingplace": "Ruschlikon"}}, "location": "Basel"}, "Z\u00fcrich Marathon, Teamrun und Cityrun": {"race": "Z\u00fcrich Marathon, Teamrun und Cityrun", "longitude": 8.541694, "latitude": 47.3768866, "date": {"dim. 17.04.2011": {"weekday": "sunday", "year": 2011, "categories": {"42-M45": {"pace": 291000000000, "rank": 153, "distance": 42, "time": 12295.8}}, "day": 17, "month": 4, "livingplace": "Ruschlikon"}}, "location": "Z\u00fcrich"}, "Zermatt Marathon, Zermatt": {"race": "Zermatt Marathon, Zermatt", "date": {"sam. 05.07.2014": {"weekday": "saturday", "year": 2014, "categories": {"M-M50": {"pace": 436000000000, "rank": 30, "distance": 42, "time": 18433.1}}, "day": 5, "month": 7, "livingplace": "Ruschlikon"}}, "location": "Zermatt"}, "Winterthur Marathon": {"race": "Winterthur Marathon", "longitude": -75.6037351, "latitude": 39.8088766, "date": {"dim. 16.05.2010": {"weekday": "sunday", "year": 2010, "categories": {"HM40": {"pace": 281000000000, "rank": 97, "distance": 21, "time": 5932.8}}, "day": 16, "month": 5, "livingplace": "Ruschlikon"}}, "location": "Winterthur"}, "Lausanne Marathon": {"race": "Lausanne Marathon", "longitude": 6.6322734, "latitude": 46.5196535, "date": {"dim. 28.10.2012": {"weekday": "sunday", "year": 2012, "categories": {"42-H3": {"pace": 297000000000, "rank": 100, "distance": 42, "time": 12552.3}}, "day": 28, "month": 10, "livingplace": "Ruschlikon"}}, "location": "Lausanne"}, "Lucerne Marathon, Luzern": {"race": "Lucerne Marathon, Luzern", "longitude": 8.3093072, "latitude": 47.05016819999999, "date": {"dim. 25.10.2009": {"weekday": "sunday", "year": 2009, "categories": {"H-M40": {"pace": 282000000000, "rank": 326, "distance": 21, "time": 5963.6}}, "day": 25, "month": 10, "livingplace": "Ruschlikon"}, "dim. 31.10.2010": {"weekday": "sunday", "year": 2010, "categories": {"H-M40": {"pace": 278000000000, "rank": 330, "distance": 21, "time": 5876.4}}, "day": 31, "month": 10, "livingplace": "Ruschlikon"}}, "location": "Luzern"}, "Z\u00fcrcher Silvesterlauf, Z\u00fcrich": {"race": "Z\u00fcrcher Silvesterlauf, Z\u00fcrich", "longitude": 8.541694, "latitude": 47.3768866, "date": {"dim. 12.12.2010": {"weekday": "sunday", "year": 2010, "categories": {"8-MenAK2": {"pace": 259000000000, "rank": 276, "distance": 9, "time": 2234.8}}, "day": 12, "month": 12, "livingplace": "Zurich"}}, "location": "Z\u00fcrich"}}, "name": "Baumstark Achim", "birth": 1964}