{"sex": "M", "races": {"Tour du Pays de Vaud #3 - Chavornay": {"race": "Tour du Pays de Vaud #3 - Chavornay", "longitude": 6.641183, "latitude": 46.7784736, "date": {"mer. 28.08.2013": {"weekday": "wednesday", "year": 2013, "categories": {"H-Sen2": {"pace": 269000000000, "rank": 57, "distance": 9, "time": 2397.4}}, "day": 28, "month": 8, "livingplace": "Bavois"}}, "location": "Yverdon-les-Bains"}, "Tour du Pays de Vaud #3, Chavornay": {"race": "Tour du Pays de Vaud #3, Chavornay", "longitude": 6.641183, "latitude": 46.7784736, "date": {"mer. 27.08.2014": {"weekday": "wednesday", "year": 2014, "categories": {"H-Sen2": {"pace": 282000000000, "rank": 48, "distance": 9, "time": 2427.1}}, "day": 27, "month": 8, "livingplace": "Bavois"}}, "location": "Yverdon-les-Bains"}, "Zermatt Marathon, Zermatt": {"race": "Zermatt Marathon, Zermatt", "date": {"sam. 05.07.2014": {"weekday": "saturday", "year": 2014, "categories": {"H-M40": {"pace": 429000000000, "rank": 10, "distance": 21, "time": 9071.3}}, "day": 5, "month": 7, "livingplace": "Bavois"}, "sam. 04.07.2015": {"weekday": "saturday", "year": 2015, "categories": {"H-M40": {"pace": 437000000000, "rank": 10, "distance": 21, "time": 9232.8}}, "day": 4, "month": 7, "livingplace": "Bavois"}}, "location": "Zermatt"}, "Tour du Pays de Vaud #4 - La Sarraz": {"race": "Tour du Pays de Vaud #4 - La Sarraz", "longitude": 6.5707689, "latitude": 46.7088129, "date": {"mer. 04.09.2013": {"weekday": "wednesday", "year": 2013, "categories": {"H-Sen2": {"pace": 273000000000, "rank": 52, "distance": 9, "time": 2325.8}}, "day": 4, "month": 9, "livingplace": "Bavois"}}, "location": "Chavornay"}, "Sierre-Zinal, Sierre": {"race": "Sierre-Zinal, Sierre", "longitude": 7.533536199999999, "latitude": 46.29413110000001, "date": {"dim. 10.08.2014": {"weekday": "sunday", "year": 2014, "categories": {"V\u00e9t_I": {"pace": 544000000000, "rank": 160, "distance": 31, "time": 16869.1}}, "day": 10, "month": 8, "livingplace": "Bavois"}}, "location": "Sierre"}, "Tour du Pays de Vaud #4, La Sarraz": {"race": "Tour du Pays de Vaud #4, La Sarraz", "longitude": 6.5707689, "latitude": 46.7088129, "date": {"mer. 03.09.2014": {"weekday": "wednesday", "year": 2014, "categories": {"H-Sen2": {"pace": 273000000000, "rank": 48, "distance": 9, "time": 2326.1}}, "day": 3, "month": 9, "livingplace": "Bavois"}}, "location": "Chavornay"}, "Tour du pays de Vaud #1 - Penthaz": {"race": "Tour du pays de Vaud #1 - Penthaz", "longitude": 6.539251200000001, "latitude": 46.5993131, "date": {"mer. 14.08.2013": {"weekday": "wednesday", "year": 2013, "categories": {"H-Sen2": {"pace": 264000000000, "rank": 38, "distance": 9, "time": 2258.6}}, "day": 14, "month": 8, "livingplace": "Bavois"}}, "location": "Penthaz"}, "Morat-Fribourg": {"race": "Morat-Fribourg", "longitude": 7.120184, "latitude": 46.92922110000001, "date": {"sam. 05.10.2013": {"weekday": "saturday", "year": 2013, "categories": {"17-M40": {"pace": 281000000000, "rank": 221, "distance": 17, "time": 4919.1}}, "day": 5, "month": 10, "livingplace": "Bavois"}}, "location": "Murten"}, "Lausanne Marathon": {"race": "Lausanne Marathon", "longitude": 6.6322734, "latitude": 46.5196535, "date": {"dim. 26.10.2014": {"weekday": "sunday", "year": 2014, "categories": {"21-H40": {"pace": 281000000000, "rank": 180, "distance": 21, "time": 5949.8}}, "day": 26, "month": 10, "livingplace": "Bavois"}, "dim. 31.10.2010": {"weekday": "sunday", "year": 2010, "categories": {"21-H2": {"pace": 273000000000, "rank": 213, "distance": 21, "time": 5769.8}}, "day": 31, "month": 10, "livingplace": "Bavois"}, "sam. 24.10.2015": {"weekday": "saturday", "year": 2015, "categories": {"21-H40": {"pace": 272000000000, "rank": 108, "distance": 21, "time": 5741.3}}, "day": 24, "month": 10, "livingplace": "Bavois"}}, "location": "Lausanne"}, "20km de Lausanne": {"race": "20km de Lausanne", "longitude": 6.6322734, "latitude": 46.5196535, "date": {"sam. 24.04.2010": {"weekday": "saturday", "year": 2010, "categories": {"10-H30": {"pace": 283000000000, "rank": 168, "distance": 10, "time": 2830.7}}, "day": 24, "month": 4, "livingplace": "PowerBar 4"}, "sam. 28.04.2012": {"weekday": "saturday", "year": 2012, "categories": {"10-H40": {"pace": 286000000000, "rank": 98, "distance": 10, "time": 2869.1}}, "day": 28, "month": 4, "livingplace": "PowerBar VI"}}, "location": "Lausanne"}}, "name": "Beausire C\u00e9dric", "birth": 1972}