{"sex": "M", "races": {"Tour du Chablais #5 Les Mosses": {"race": "Tour du Chablais #5 Les Mosses", "longitude": 6.931504599999999, "latitude": 46.3603257, "date": {"mer. 25.05.2011": {"weekday": "wednesday", "year": 2011, "categories": {"M-M40": {"pace": 280000000000, "rank": 40, "distance": 8, "time": 2243.3}}, "day": 25, "month": 5, "livingplace": "St Gingolph"}}, "location": "Roche VD"}, "Tour du Chablais #4 Yvorne": {"race": "Tour du Chablais #4 Yvorne", "date": {"mer. 28.04.2010": {"weekday": "wednesday", "year": 2010, "categories": {"M-M40": {"pace": 269000000000, "rank": 52, "distance": 8, "time": 2230.8}}, "day": 28, "month": 4, "livingplace": "St Gingolph"}}, "location": "Les Mosses"}, "Tour du Chablais #3 Bex": {"race": "Tour du Chablais #3 Bex", "longitude": 7.0223787, "latitude": 46.1782231, "date": {"mer. 21.04.2010": {"weekday": "wednesday", "year": 2010, "categories": {"M-M40": {"pace": 256000000000, "rank": 39, "distance": 10, "time": 2564.9}}, "day": 21, "month": 4, "livingplace": "St Gingolph"}}, "location": "Evionnaz"}, "Tour du Chablais #1 Roche": {"race": "Tour du Chablais #1 Roche", "longitude": 6.9916269, "latitude": 46.2957462, "date": {"mer. 07.04.2010": {"weekday": "wednesday", "year": 2010, "categories": {"M-M40": {"pace": 248000000000, "rank": 46, "distance": 9, "time": 2223.1}}, "day": 7, "month": 4, "livingplace": "St Gingolph"}}, "location": "Ollon VD"}, "Morat-Fribourg": {"race": "Morat-Fribourg", "longitude": 7.120184, "latitude": 46.92922110000001, "date": {"sam. 06.10.2007": {"weekday": "saturday", "year": 2007, "categories": {"C/M40": {"pace": 279000000000, "rank": 231, "distance": 17, "time": 4803.9}}, "day": 6, "month": 10, "livingplace": "St Gingolph"}}, "location": "Murten"}, "Tour du Chablais #6 Aigle": {"race": "Tour du Chablais #6 Aigle", "longitude": 6.970566, "latitude": 46.3190253, "date": {"mer. 01.06.2011": {"weekday": "wednesday", "year": 2011, "categories": {"M-M40": {"pace": 253000000000, "rank": 42, "distance": 10, "time": 2582.0}}, "day": 1, "month": 6, "livingplace": "St Gingolph"}}, "location": "Aigle"}, "Tour du Chablais #4 Morgins": {"race": "Tour du Chablais #4 Morgins", "date": {"mer. 18.05.2011": {"weekday": "wednesday", "year": 2011, "categories": {"M-M40": {"pace": 273000000000, "rank": 46, "distance": 8, "time": 2280.2}}, "day": 18, "month": 5, "livingplace": "St Gingolph"}}, "location": "Les Mosses"}, "Tour du Chablais #6 Mouthey": {"race": "Tour du Chablais #6 Mouthey", "longitude": 6.970566, "latitude": 46.3190253, "date": {"mer. 12.05.2010": {"weekday": "wednesday", "year": 2010, "categories": {"M-M40": {"pace": 249000000000, "rank": 52, "distance": 9, "time": 2298.7}}, "day": 12, "month": 5, "livingplace": "St Gingolph"}}, "location": "Aigle"}}, "name": "B\u00e9guelin Serge", "birth": 1963}