{"sex": "M", "races": {"Birslauf Basel": {"race": "Birslauf Basel", "longitude": 7.5885761, "latitude": 47.5595986, "date": {"sam. 27.03.2010": {"weekday": "saturday", "year": 2010, "categories": {"M": {"pace": 299000000000, "rank": 316, "distance": 10, "time": 2998.0}}, "day": 27, "month": 3, "livingplace": "Geneve"}}, "location": "Basel"}, "Badener Limmat-Lauf, Baden": {"race": "Badener Limmat-Lauf, Baden", "longitude": 8.5303972, "latitude": 48.5699281, "date": {"sam. 24.03.2012": {"weekday": "saturday", "year": 2012, "categories": {"M50": {"pace": 312000000000, "rank": 107, "distance": 13, "time": 4109.1}}, "day": 24, "month": 3, "livingplace": "Geneve"}}, "location": "Baden"}, "Maratona Ticino, Tenero": {"race": "Maratona Ticino, Tenero", "date": {"dim. 11.11.2012": {"weekday": "sunday", "year": 2012, "categories": {"H-M50": {"pace": 316000000000, "rank": 102, "distance": 21, "time": 6684.2}}, "day": 11, "month": 11, "livingplace": "Geneve"}}, "location": "Tenero"}, "10km de Payerne": {"race": "10km de Payerne", "longitude": 6.9405663, "latitude": 46.8220266, "date": {"sam. 28.03.2009": {"weekday": "saturday", "year": 2009, "categories": {"M55": {"pace": 292000000000, "rank": 21, "distance": 10, "time": 2928.9}}, "day": 28, "month": 3, "livingplace": "Genf"}}, "location": "Payerne"}, "Thuner Stadtlauf, Thun": {"race": "Thuner Stadtlauf, Thun", "longitude": 7.6279881, "latitude": 46.7579868, "date": {"dim. 26.08.2012": {"weekday": "sunday", "year": 2012, "categories": {"10-M50": {"pace": 305000000000, "rank": 51, "distance": 10, "time": 3059.8}}, "day": 26, "month": 8, "livingplace": "Geneve"}}, "location": "Thun"}, "Stralugano, Lugano": {"race": "Stralugano, Lugano", "longitude": 8.951051999999999, "latitude": 46.0036778, "date": {"dim. 20.09.2009": {"weekday": "sunday", "year": 2009, "categories": {"30-M50": {"pace": 359000000000, "rank": 110, "distance": 30, "time": 10786.3}}, "day": 20, "month": 9, "livingplace": "Geneve"}}, "location": "Lugano"}, "10km, Payerne": {"race": "10km, Payerne", "longitude": 6.9405663, "latitude": 46.8220266, "date": {"sam. 16.04.2011": {"weekday": "saturday", "year": 2011, "categories": {"M50": {"pace": 302000000000, "rank": 14, "distance": 10, "time": 3029.3}}, "day": 16, "month": 4, "livingplace": "Geneve"}, "sam. 10.03.2012": {"weekday": "saturday", "year": 2012, "categories": {"M50": {"pace": 297000000000, "rank": 72, "distance": 10, "time": 2975.2}}, "day": 10, "month": 3, "livingplace": "Geneve"}}, "location": "Payerne"}, "Les Traine-Savates, Cheseaux-sur-Lausanne": {"race": "Les Traine-Savates, Cheseaux-sur-Lausanne", "longitude": 6.6047712, "latitude": 46.585452, "date": {"sam. 14.04.2012": {"weekday": "saturday", "year": 2012, "categories": {"10-M50": {"pace": 300000000000, "rank": 75, "distance": 10, "time": 3129.5}}, "day": 14, "month": 4, "livingplace": "Geneve"}}, "location": "Cheseaux-sur-Lausanne"}, "20km de Lausanne": {"race": "20km de Lausanne", "longitude": 6.6322734, "latitude": 46.5196535, "date": {"sam. 28.04.2012": {"weekday": "saturday", "year": 2012, "categories": {"20-H55": {"pace": 324000000000, "rank": 55, "distance": 20, "time": 6490.3}}, "day": 28, "month": 4, "livingplace": "Geneve"}}, "location": "Lausanne"}}, "name": "Bender Hans", "birth": 1954}