{"sex": "M", "races": {"Aletsch-Halbmarathon, Bettmeralp": {"race": "Aletsch-Halbmarathon, Bettmeralp", "date": {"dim. 28.06.2015": {"weekday": "sunday", "year": 2015, "categories": {"M20": {"pace": 447000000000, "rank": 239, "distance": 21, "time": 9444.3}}, "day": 28, "month": 6, "livingplace": "Feu gaz"}}, "location": "Bettmeralp"}, "Tour du Pays de Vaud #3 - Chavornay": {"race": "Tour du Pays de Vaud #3 - Chavornay", "longitude": 6.641183, "latitude": 46.7784736, "date": {"mer. 28.08.2013": {"weekday": "wednesday", "year": 2013, "categories": {"H-Hom": {"pace": 324000000000, "rank": 92, "distance": 9, "time": 2889.9}}, "day": 28, "month": 8, "livingplace": "Cully"}}, "location": "Yverdon-les-Bains"}, "Tour du Pays de Vaud #4 - La Sarraz": {"race": "Tour du Pays de Vaud #4 - La Sarraz", "longitude": 6.5707689, "latitude": 46.7088129, "date": {"mer. 04.09.2013": {"weekday": "wednesday", "year": 2013, "categories": {"H-Hom": {"pace": 341000000000, "rank": 91, "distance": 9, "time": 2899.1}}, "day": 4, "month": 9, "livingplace": "Cully"}}, "location": "Chavornay"}, "Morat-Fribourg": {"race": "Morat-Fribourg", "longitude": 7.120184, "latitude": 46.92922110000001, "date": {"sam. 04.10.2014": {"weekday": "saturday", "year": 2014, "categories": {"17-M20": {"pace": 298000000000, "rank": 923, "distance": 17, "time": 5125.4}}, "day": 4, "month": 10, "livingplace": "Cully"}, "sam. 03.10.2015": {"weekday": "saturday", "year": 2015, "categories": {"17-M20": {"pace": 315000000000, "rank": 1289, "distance": 17, "time": 5422.2}}, "day": 3, "month": 10, "livingplace": "Cully"}}, "location": "Murten"}, "20km de Lausanne": {"race": "20km de Lausanne", "longitude": 6.6322734, "latitude": 46.5196535, "date": {"sam. 25.04.2015": {"weekday": "saturday", "year": 2015, "categories": {"20-H20": {"pace": 279000000000, "rank": 332, "distance": 20, "time": 5590.7}}, "day": 25, "month": 4, "livingplace": "Feu gaz team Lavaux"}, "sam. 28.04.2012": {"weekday": "saturday", "year": 2012, "categories": {"20-H20": {"pace": 340000000000, "rank": 384, "distance": 20, "time": 6805.6}}, "day": 28, "month": 4, "livingplace": "Cully"}, "sam. 27.04.2013": {"weekday": "saturday", "year": 2013, "categories": {"20-H20": {"pace": 318000000000, "rank": 455, "distance": 20, "time": 6367.0}}, "day": 27, "month": 4, "livingplace": "Cully"}, "sam. 26.04.2014": {"weekday": "saturday", "year": 2014, "categories": {"20-H20": {"pace": 293000000000, "rank": 304, "distance": 20, "time": 5875.4}}, "day": 26, "month": 4, "livingplace": "Eurofin Group   20 km"}}, "location": "Lausanne"}, "Les Traine-Savates, Cheseaux-sur-Lausanne": {"race": "Les Traine-Savates, Cheseaux-sur-Lausanne", "longitude": 6.6047712, "latitude": 46.585452, "date": {"sam. 13.04.2013": {"weekday": "saturday", "year": 2013, "categories": {"10-M20": {"pace": 337000000000, "rank": 223, "distance": 10, "time": 3474.8}}, "day": 13, "month": 4, "livingplace": "Cully"}, "sam. 12.04.2014": {"weekday": "saturday", "year": 2014, "categories": {"10-M20": {"pace": 299000000000, "rank": 190, "distance": 10, "time": 3083.5}}, "day": 12, "month": 4, "livingplace": "Cully"}}, "location": "Cheseaux-sur-Lausanne"}, "Tour du Pays de Vaud #1, Penthaz": {"race": "Tour du Pays de Vaud #1, Penthaz", "longitude": 6.539251200000001, "latitude": 46.5993131, "date": {"mer. 13.08.2014": {"weekday": "wednesday", "year": 2014, "categories": {"H-Hom": {"pace": 279000000000, "rank": 39, "distance": 9, "time": 2384.0}}, "day": 13, "month": 8, "livingplace": "Cully"}}, "location": "Penthaz"}, "Semi-Marathon de la C\u00f4te, Allaman-Nyon": {"race": "Semi-Marathon de la C\u00f4te, Allaman-Nyon", "longitude": 6.2347852, "latitude": 46.3832683, "date": {"dim. 14.09.2014": {"weekday": "sunday", "year": 2014, "categories": {"21-H20": {"pace": 296000000000, "rank": 52, "distance": 21, "time": 6260.8}}, "day": 14, "month": 9, "livingplace": "Cully"}}, "location": "Nyon"}, "Tour du Pays de Vaud #4, La Sarraz": {"race": "Tour du Pays de Vaud #4, La Sarraz", "longitude": 6.5707689, "latitude": 46.7088129, "date": {"mer. 03.09.2014": {"weekday": "wednesday", "year": 2014, "categories": {"H-Hom": {"pace": 276000000000, "rank": 36, "distance": 9, "time": 2350.9}}, "day": 3, "month": 9, "livingplace": "Cully"}}, "location": "Chavornay"}, "Tour du Pays de Vaud #2, Mezi\u00e8res": {"race": "Tour du Pays de Vaud #2, Mezi\u00e8res", "longitude": 6.7702883, "latitude": 46.5955273, "date": {"mer. 20.08.2014": {"weekday": "wednesday", "year": 2014, "categories": {"H-Hom": {"pace": 305000000000, "rank": 39, "distance": 8, "time": 2473.4}}, "day": 20, "month": 8, "livingplace": "Cully"}}, "location": "M\u00e9zi\u00e8res VD"}, "D\u00e9fi du vignoble, Cully": {"race": "D\u00e9fi du vignoble, Cully", "longitude": -122.6066627, "latitude": 45.565921, "date": {"mer. 14.05.2014": {"weekday": "wednesday", "year": 2014, "categories": {"M20": {"pace": 648000000000, "rank": 45, "distance": 4, "time": 2361.3}}, "day": 14, "month": 5, "livingplace": "Cully"}}, "location": "Cully"}, "Lausanne Marathon": {"race": "Lausanne Marathon", "longitude": 6.6322734, "latitude": 46.5196535, "date": {"dim. 26.10.2014": {"weekday": "sunday", "year": 2014, "categories": {"21-H20": {"pace": 280000000000, "rank": 173, "distance": 21, "time": 5914.4}}, "day": 26, "month": 10, "livingplace": "Cully"}, "sam. 24.10.2015": {"weekday": "saturday", "year": 2015, "categories": {"21-H20": {"pace": 298000000000, "rank": 265, "distance": 21, "time": 6290.4}}, "day": 24, "month": 10, "livingplace": "Cully"}}, "location": "Lausanne"}, "Tour du Pays de Vaud #3, Chavornay": {"race": "Tour du Pays de Vaud #3, Chavornay", "longitude": 6.641183, "latitude": 46.7784736, "date": {"mer. 27.08.2014": {"weekday": "wednesday", "year": 2014, "categories": {"H-Hom": {"pace": 296000000000, "rank": 42, "distance": 9, "time": 2547.7}}, "day": 27, "month": 8, "livingplace": "Cully"}}, "location": "Yverdon-les-Bains"}}, "name": "Berger Guy-Olivier", "birth": 1986}