{"sex": "M", "races": {"Tour du Chablais #1 Lavey": {"race": "Tour du Chablais #1 Lavey", "longitude": 6.9916269, "latitude": 46.2957462, "date": {"mer. 27.04.2011": {"weekday": "wednesday", "year": 2011, "categories": {"M-M20": {"pace": 227000000000, "rank": 27, "distance": 9, "time": 2043.8}}, "day": 27, "month": 4, "livingplace": "Lavey Village"}}, "location": "Ollon VD"}, "Tour du Chablais #2 St-Gingolph": {"race": "Tour du Chablais #2 St-Gingolph", "longitude": 6.854975199999999, "latitude": 46.3835529, "date": {"mer. 14.04.2010": {"weekday": "wednesday", "year": 2010, "categories": {"M-Jun": {"pace": 238000000000, "rank": 6, "distance": 8, "time": 1990.3}}, "day": 14, "month": 4, "livingplace": "Lavey Village"}}, "location": "Bouveret"}, "Tour du Chablais #5 Les Mosses": {"race": "Tour du Chablais #5 Les Mosses", "longitude": 6.931504599999999, "latitude": 46.3603257, "date": {"mer. 25.05.2011": {"weekday": "wednesday", "year": 2011, "categories": {"M-M20": {"pace": 238000000000, "rank": 21, "distance": 8, "time": 1911.6}}, "day": 25, "month": 5, "livingplace": "Lavey Village"}}, "location": "Roche VD"}, "20km de Lausanne": {"race": "20km de Lausanne", "longitude": 6.6322734, "latitude": 46.5196535, "date": {"sam. 30.04.2011": {"weekday": "saturday", "year": 2011, "categories": {"20-H20": {"pace": 246000000000, "rank": 47, "distance": 20, "time": 4939.5}}, "day": 30, "month": 4, "livingplace": "Lavey Village"}, "sam. 25.04.2015": {"weekday": "saturday", "year": 2015, "categories": {"20-H20": {"pace": 250000000000, "rank": 82, "distance": 20, "time": 5004.8}}, "day": 25, "month": 4, "livingplace": "Team ARNICA"}}, "location": "Lausanne"}, "Tour du Chablais #1 Roche": {"race": "Tour du Chablais #1 Roche", "longitude": 6.9916269, "latitude": 46.2957462, "date": {"mer. 07.04.2010": {"weekday": "wednesday", "year": 2010, "categories": {"M-Jun": {"pace": 232000000000, "rank": 6, "distance": 9, "time": 2077.0}}, "day": 7, "month": 4, "livingplace": "Lavey Village"}}, "location": "Ollon VD"}, "Tour du Chablais #3 Le Bouveret": {"race": "Tour du Chablais #3 Le Bouveret", "longitude": 7.0223787, "latitude": 46.1782231, "date": {"mer. 11.05.2011": {"weekday": "wednesday", "year": 2011, "categories": {"M-M20": {"pace": 234000000000, "rank": 42, "distance": 10, "time": 2348.4}}, "day": 11, "month": 5, "livingplace": "Lavey Village"}}, "location": "Evionnaz"}, "Tour du Chablais #2 Rennaz": {"race": "Tour du Chablais #2 Rennaz", "longitude": 6.854975199999999, "latitude": 46.3835529, "date": {"mer. 04.05.2011": {"weekday": "wednesday", "year": 2011, "categories": {"M-M20": {"pace": 234000000000, "rank": 37, "distance": 9, "time": 2193.8}}, "day": 4, "month": 5, "livingplace": "Lavey Village"}}, "location": "Bouveret"}, "Tour du Chablais #6 Aigle": {"race": "Tour du Chablais #6 Aigle", "longitude": 6.970566, "latitude": 46.3190253, "date": {"mer. 01.06.2011": {"weekday": "wednesday", "year": 2011, "categories": {"M-M20": {"pace": 229000000000, "rank": 35, "distance": 10, "time": 2338.3}}, "day": 1, "month": 6, "livingplace": "Lavey Village"}}, "location": "Aigle"}, "Tour du Chablais #4 Morgins": {"race": "Tour du Chablais #4 Morgins", "date": {"mer. 18.05.2011": {"weekday": "wednesday", "year": 2011, "categories": {"M-M20": {"pace": 238000000000, "rank": 26, "distance": 8, "time": 1992.4}}, "day": 18, "month": 5, "livingplace": "Lavey Village"}}, "location": "Les Mosses"}, "Tour du Chablais #6 Mouthey": {"race": "Tour du Chablais #6 Mouthey", "longitude": 6.970566, "latitude": 46.3190253, "date": {"mer. 12.05.2010": {"weekday": "wednesday", "year": 2010, "categories": {"M-Jun": {"pace": 228000000000, "rank": 8, "distance": 9, "time": 2105.0}}, "day": 12, "month": 5, "livingplace": "Lavey Village"}}, "location": "Aigle"}}, "name": "Bernard Steve", "birth": 1991}