{"sex": "F", "races": {"Int Greifenseelauf, Uster": {"race": "Int Greifenseelauf, Uster", "longitude": 8.717873899999999, "latitude": 47.3482747, "date": {"sam. 16.09.2006": {"weekday": "saturday", "year": 2006, "categories": {"H/W20": {"pace": 343000000000, "rank": 240, "distance": 21, "time": 7252.2}}, "day": 16, "month": 9, "livingplace": "Reinach"}}, "location": "Uster"}, "Z\u00fcrich Marathon, Teamrun und Cityrun": {"race": "Z\u00fcrich Marathon, Teamrun und Cityrun", "longitude": 8.541694, "latitude": 47.3768866, "date": {"dim. 20.04.2008": {"weekday": "sunday", "year": 2008, "categories": {"W20": {"pace": 296000000000, "rank": 21, "distance": 42, "time": 12526.2}}, "day": 20, "month": 4, "livingplace": "Reinach"}}, "location": "Z\u00fcrich"}, "GP Fricktal, Eiken": {"race": "GP Fricktal, Eiken", "date": {"sam. 22.03.2008": {"weekday": "saturday", "year": 2008, "categories": {"F20": {"pace": 271000000000, "rank": 1, "distance": 16, "time": 4362.5}}, "day": 22, "month": 3, "livingplace": "Reinach"}}, "location": "Eiken"}, "Hallwilerseelauf, Beinwil am See": {"race": "Hallwilerseelauf, Beinwil am See", "date": {"sam. 14.10.2006": {"weekday": "saturday", "year": 2006, "categories": {"F20": {"pace": 290000000000, "rank": 33, "distance": 21, "time": 6139.0}}, "day": 14, "month": 10, "livingplace": "Reinach"}}, "location": "Beinwil am See"}, "ASICS Bremgarter Reusslauf": {"race": "ASICS Bremgarter Reusslauf", "longitude": 8.3397905, "latitude": 47.34917739999999, "date": {"sam. 23.02.2008": {"weekday": "saturday", "year": 2008, "categories": {"F20": {"pace": 265000000000, "rank": 13, "distance": 11, "time": 2915.4}}, "day": 23, "month": 2, "livingplace": "Reinach"}}, "location": "Bremgarten AG"}, "Lucerne Marathon, Luzern": {"race": "Lucerne Marathon, Luzern", "longitude": 8.3093072, "latitude": 47.05016819999999, "date": {"dim. 25.10.2009": {"weekday": "sunday", "year": 2009, "categories": {"H-F20": {"pace": 300000000000, "rank": 62, "distance": 21, "time": 6337.1}}, "day": 25, "month": 10, "livingplace": "Reinach"}}, "location": "Luzern"}, "Wiedlisbacher L\u00e4ufe, Wiedlisbach": {"race": "Wiedlisbacher L\u00e4ufe, Wiedlisbach", "longitude": 7.6453444, "latitude": 47.2512653, "date": {"dim. 29.04.2007": {"weekday": "sunday", "year": 2007, "categories": {"F20-21": {"pace": 294000000000, "rank": 7, "distance": 21, "time": 6211.6}}, "day": 29, "month": 4, "livingplace": "Reinach"}}, "location": "Wiedlisbach"}}, "name": "Berner Karin", "birth": 1980}