{"sex": "M", "races": {"Corrida Bulloise, Bulle": {"race": "Corrida Bulloise, Bulle", "longitude": 7.057726799999999, "latitude": 46.6154512, "date": {"sam. 17.11.2012": {"weekday": "saturday", "year": 2012, "categories": {"PopHomm": {"pace": 277000000000, "rank": 232, "distance": 6, "time": 1704.8}}, "day": 17, "month": 11, "livingplace": "Ecuvillens"}}, "location": "Bulle"}, "Groupe E Tour Fribourg #4 Siviriez": {"race": "Groupe E Tour Fribourg #4 Siviriez", "longitude": 6.877722, "latitude": 46.6585092, "date": {"mer. 19.09.2012": {"weekday": "wednesday", "year": 2012, "categories": {"HS1": {"pace": 303000000000, "rank": 45, "distance": 9, "time": 2857.2}}, "day": 19, "month": 9, "livingplace": "Ecuvillens"}}, "location": "Siviriez"}, "Groupe E Tour Fribourg #3 Estavayer-le-Lac": {"race": "Groupe E Tour Fribourg #3 Estavayer-le-Lac", "longitude": 7.1954365, "latitude": 46.97488999999999, "date": {"mer. 12.09.2012": {"weekday": "wednesday", "year": 2012, "categories": {"HS1": {"pace": 274000000000, "rank": 50, "distance": 10, "time": 2709.6}}, "day": 12, "month": 9, "livingplace": "Ecuvillens"}}, "location": "Kerzers"}, "Sempacherseelauf, Sursee": {"race": "Sempacherseelauf, Sursee", "date": {"sam. 23.05.2015": {"weekday": "saturday", "year": 2015, "categories": {"21M30": {"pace": 286000000000, "rank": 101, "distance": 21, "time": 6044.8}}, "day": 23, "month": 5, "livingplace": "Ecuvillens"}}, "location": "Sursee"}, "Groupe E Tour Fribourg #2 Plafayon": {"race": "Groupe E Tour Fribourg #2 Plafayon", "longitude": 7.1654493, "latitude": 46.6175845, "date": {"mer. 05.09.2012": {"weekday": "wednesday", "year": 2012, "categories": {"HS1": {"pace": 288000000000, "rank": 51, "distance": 9, "time": 2702.1}}, "day": 5, "month": 9, "livingplace": "Ecuvillens"}}, "location": "Charmey (Gruy\u00e8re)"}, "Morat-Fribourg": {"race": "Morat-Fribourg", "longitude": 7.120184, "latitude": 46.92922110000001, "date": {"sam. 06.10.2012": {"weekday": "saturday", "year": 2012, "categories": {"17-M20": {"pace": 301000000000, "rank": 999, "distance": 17, "time": 5264.2}}, "day": 6, "month": 10, "livingplace": "Ecuvillens"}}, "location": "Murten"}, "Groupe E Tour Fribourg #5 Fribourg": {"race": "Groupe E Tour Fribourg #5 Fribourg", "longitude": 7.131657799999999, "latitude": 46.8128615, "date": {"mer. 26.09.2012": {"weekday": "wednesday", "year": 2012, "categories": {"HS1": {"pace": 301000000000, "rank": 54, "distance": 11, "time": 3228.2}}, "day": 26, "month": 9, "livingplace": "Ecuvillens"}}, "location": "Givisiez"}}, "name": "Berset Fr\u00e9d\u00e9ric", "birth": 1981}