{"sex": "M", "races": {"Lucerne Marathon, Luzern": {"race": "Lucerne Marathon, Luzern", "longitude": 8.3093072, "latitude": 47.05016819999999, "date": {"dim. 30.10.2011": {"weekday": "sunday", "year": 2011, "categories": {"H-M30": {"pace": 251000000000, "rank": 111, "distance": 21, "time": 5310.1}}, "day": 30, "month": 10, "livingplace": "Vinzel"}}, "location": "Luzern"}, "Tour du Pays de Vaud printanier #3 - Yens": {"race": "Tour du Pays de Vaud printanier #3 - Yens", "longitude": 6.5728678, "latitude": 46.7829756, "date": {"mer. 18.06.2014": {"weekday": "wednesday", "year": 2014, "categories": {"H-Sen2": {"pace": 232000000000, "rank": 3, "distance": 9, "time": 2118.6}}, "day": 18, "month": 6, "livingplace": "Vinzel"}}, "location": "Champvent"}, "Tour du Pays de Vaud etape 1 - Le Mont sur Lausanne": {"race": "Tour du Pays de Vaud etape 1 - Le Mont sur Lausanne", "longitude": 6.641183, "latitude": 46.7784736, "date": {"mer. 12.08.2009": {"weekday": "wednesday", "year": 2009, "categories": {"HS1": {"pace": 285000000000, "rank": 56, "distance": 9, "time": 2654.6}}, "day": 12, "month": 8, "livingplace": "Rolle"}, "mer. 13.08.2008": {"weekday": "wednesday", "year": 2008, "categories": {"HomSen1": {"pace": 275000000000, "rank": 58, "distance": 8, "time": 2311.5}}, "day": 13, "month": 8, "livingplace": "Rolle"}}, "location": "Yverdon-les-Bains"}, "Tour du pays de Vaud #1 - Mezi\u00e8res": {"race": "Tour du pays de Vaud #1 - Mezi\u00e8res", "longitude": 6.641183, "latitude": 46.7784736, "date": {"mer. 10.08.2011": {"weekday": "wednesday", "year": 2011, "categories": {"H-Sen1": {"pace": 259000000000, "rank": 43, "distance": 9, "time": 2209.1}}, "day": 10, "month": 8, "livingplace": "Vinzel"}}, "location": "Yverdon-les-Bains"}, "Morat-Fribourg": {"race": "Morat-Fribourg", "longitude": 7.120184, "latitude": 46.92922110000001, "date": {"sam. 03.10.2009": {"weekday": "saturday", "year": 2009, "categories": {"C-M20": {"pace": 273000000000, "rank": 413, "distance": 17, "time": 4692.7}}, "day": 3, "month": 10, "livingplace": "Tartegnin"}, "sam. 05.10.2013": {"weekday": "saturday", "year": 2013, "categories": {"17-M40": {"pace": 262000000000, "rank": 106, "distance": 17, "time": 4579.3}}, "day": 5, "month": 10, "livingplace": "Vinzel"}}, "location": "Murten"}, "Montreux - Les Rochers de Naye": {"race": "Montreux - Les Rochers de Naye", "longitude": 6.9106799, "latitude": 46.4312213, "date": {"dim. 10.07.2011": {"weekday": "sunday", "year": 2011, "categories": {"M-HElite": {"pace": 428000000000, "rank": 79, "distance": 19, "time": 8059.8}}, "day": 10, "month": 7, "livingplace": "Vinzel"}}, "location": "Montreux"}, "20km de Lausanne": {"race": "20km de Lausanne", "longitude": 6.6322734, "latitude": 46.5196535, "date": {"sam. 28.04.2012": {"weekday": "saturday", "year": 2012, "categories": {"20-H40": {"pace": 257000000000, "rank": 39, "distance": 20, "time": 5157.7}}, "day": 28, "month": 4, "livingplace": "Vinzel"}}, "location": "Lausanne"}, "Tour du pays de Vaud #5 - Penthaz": {"race": "Tour du pays de Vaud #5 - Penthaz", "longitude": 6.539251200000001, "latitude": 46.5993131, "date": {"mer. 07.09.2011": {"weekday": "wednesday", "year": 2011, "categories": {"H-Sen1": {"pace": 274000000000, "rank": 25, "distance": 8, "time": 2293.7}}, "day": 7, "month": 9, "livingplace": "Vinzel"}}, "location": "Penthaz"}, "Tour du pays de Vaud #6 - St  Prex": {"race": "Tour du pays de Vaud #6 - St  Prex", "longitude": 6.458343500000001, "latitude": 46.4829113, "date": {"mer. 14.09.2011": {"weekday": "wednesday", "year": 2011, "categories": {"H-Sen1": {"pace": 253000000000, "rank": 40, "distance": 9, "time": 2177.1}}, "day": 14, "month": 9, "livingplace": "Vinzel"}}, "location": "St-Prex"}, "Tour du Pays de Vaud etape 5 - La Sarraz": {"race": "Tour du Pays de Vaud etape 5 - La Sarraz", "longitude": 6.539251200000001, "latitude": 46.5993131, "date": {"mer. 09.09.2009": {"weekday": "wednesday", "year": 2009, "categories": {"HS1": {"pace": 261000000000, "rank": 44, "distance": 9, "time": 2199.8}}, "day": 9, "month": 9, "livingplace": "Rolle"}, "mer. 10.09.2008": {"weekday": "wednesday", "year": 2008, "categories": {"HomSen1": {"pace": 255000000000, "rank": 43, "distance": 9, "time": 2196.7}}, "day": 10, "month": 9, "livingplace": "Rolle"}}, "location": "Penthaz"}, "Tour du Pays de Vaud etape 3 - Aubonne": {"race": "Tour du Pays de Vaud etape 3 - Aubonne", "longitude": 6.5728678, "latitude": 46.7829756, "date": {"mer. 27.08.2008": {"weekday": "wednesday", "year": 2008, "categories": {"HomSen1": {"pace": 282000000000, "rank": 36, "distance": 8, "time": 2206.3}}, "day": 27, "month": 8, "livingplace": "Rolle"}}, "location": "Champvent"}, "Semi-Marathon de la C\u00f4te, Allaman-Nyon": {"race": "Semi-Marathon de la C\u00f4te, Allaman-Nyon", "longitude": 6.2347852, "latitude": 46.3832683, "date": {"dim. 14.09.2014": {"weekday": "sunday", "year": 2014, "categories": {"21-H40": {"pace": 422000000000, "rank": 203, "distance": 21, "time": 8924.1}}, "day": 14, "month": 9, "livingplace": "Vinzel"}}, "location": "Nyon"}, "Les Traine-Savates, Cheseaux-sur-Lausanne": {"race": "Les Traine-Savates, Cheseaux-sur-Lausanne", "longitude": 6.6047712, "latitude": 46.585452, "date": {"sam. 12.04.2014": {"weekday": "saturday", "year": 2014, "categories": {"10-M40": {"pace": 231000000000, "rank": 19, "distance": 10, "time": 2388.8}}, "day": 12, "month": 4, "livingplace": "Vinzel"}}, "location": "Cheseaux-sur-Lausanne"}, "Sierre-Zinal, Sierre": {"race": "Sierre-Zinal, Sierre", "longitude": 7.533536199999999, "latitude": 46.29413110000001, "date": {"dim. 12.08.2012": {"weekday": "sunday", "year": 2012, "categories": {"V\u00e9t_I": {"pace": 447000000000, "rank": 61, "distance": 31, "time": 13874.7}}, "day": 12, "month": 8, "livingplace": "Vinzel"}}, "location": "Sierre"}, "Tour du Pays de Vaud printanier #2 Yens": {"race": "Tour du Pays de Vaud printanier #2 Yens", "longitude": 6.7975224, "latitude": 46.6698891, "date": {"mer. 06.06.2012": {"weekday": "wednesday", "year": 2012, "categories": {"H-Sen2": {"pace": 250000000000, "rank": 7, "distance": 9, "time": 2279.7}}, "day": 6, "month": 6, "livingplace": "Vinzel"}}, "location": "Moudon"}, "Z\u00fcrich Marathon, Teamrun und Cityrun": {"race": "Z\u00fcrich Marathon, Teamrun und Cityrun", "longitude": 8.541694, "latitude": 47.3768866, "date": {"dim. 22.04.2012": {"weekday": "sunday", "year": 2012, "categories": {"42-M40": {"pace": 262000000000, "rank": 61, "distance": 42, "time": 11062.4}}, "day": 22, "month": 4, "livingplace": "Vinzel"}}, "location": "Z\u00fcrich"}, "D\u00e9fi du vignoble, Cully": {"race": "D\u00e9fi du vignoble, Cully", "longitude": -122.6066627, "latitude": 45.565921, "date": {"mer. 14.05.2014": {"weekday": "wednesday", "year": 2014, "categories": {"M40": {"pace": 585000000000, "rank": 32, "distance": 4, "time": 2131.3}}, "day": 14, "month": 5, "livingplace": "Vinzel"}}, "location": "Cully"}, "Jungfrau-Marathon, Interlaken": {"race": "Jungfrau-Marathon, Interlaken", "date": {"sam. 08.09.2012": {"weekday": "saturday", "year": 2012, "categories": {"SO-M40": {"pace": 426000000000, "rank": 332, "distance": 42, "time": 17991.2}}, "day": 8, "month": 9, "livingplace": "Luins"}}, "location": "Interlaken"}, "Tour du Pays de Vaud etape 2 - Genolier": {"race": "Tour du Pays de Vaud etape 2 - Genolier", "longitude": 6.7702883, "latitude": 46.5955273, "date": {"mer. 20.08.2008": {"weekday": "wednesday", "year": 2008, "categories": {"HomSen1": {"pace": 281000000000, "rank": 59, "distance": 8, "time": 2338.7}}, "day": 20, "month": 8, "livingplace": "Rolle"}, "mer. 19.08.2009": {"weekday": "wednesday", "year": 2009, "categories": {"HSen1": {"pace": 268000000000, "rank": 43, "distance": 8, "time": 2171.8}}, "day": 19, "month": 8, "livingplace": "Rolle"}}, "location": "M\u00e9zi\u00e8res VD"}, "Tour du Pays de Vaud #2 - Genolier": {"race": "Tour du Pays de Vaud #2 - Genolier", "longitude": 6.7702883, "latitude": 46.5955273, "date": {"mer. 15.08.2012": {"weekday": "wednesday", "year": 2012, "categories": {"H-Sen2": {"pace": 243000000000, "rank": 22, "distance": 9, "time": 2073.0}}, "day": 15, "month": 8, "livingplace": "Vinzel"}, "mer. 17.08.2011": {"weekday": "wednesday", "year": 2011, "categories": {"H-Sen1": {"pace": 253000000000, "rank": 26, "distance": 9, "time": 2158.2}}, "day": 17, "month": 8, "livingplace": "Vinzel"}}, "location": "M\u00e9zi\u00e8res VD"}}, "name": "Bersier Alain", "birth": 1972}