{"sex": "F", "races": {"Tour du Chablais #5 Leysin": {"race": "Tour du Chablais #5 Leysin", "longitude": 6.931504599999999, "latitude": 46.3603257, "date": {"mer. 05.05.2010": {"weekday": "wednesday", "year": 2010, "categories": {"F-F50": {"pace": 339000000000, "rank": 9, "distance": 8, "time": 2869.3}}, "day": 5, "month": 5, "livingplace": "Val d'Illiez"}}, "location": "Roche VD"}, "Tour du Chablais #4 Yvorne": {"race": "Tour du Chablais #4 Yvorne", "date": {"mer. 28.04.2010": {"weekday": "wednesday", "year": 2010, "categories": {"F-F50": {"pace": 337000000000, "rank": 9, "distance": 8, "time": 2791.5}}, "day": 28, "month": 4, "livingplace": "Val d'Illiez"}}, "location": "Les Mosses"}, "Tour du Chablais #1 Roche": {"race": "Tour du Chablais #1 Roche", "longitude": 6.9916269, "latitude": 46.2957462, "date": {"mer. 03.04.2013": {"weekday": "wednesday", "year": 2013, "categories": {"F-F50": {"pace": 344000000000, "rank": 24, "distance": 9, "time": 3051.5}}, "day": 3, "month": 4, "livingplace": "Val d'Illiez"}, "mer. 07.04.2010": {"weekday": "wednesday", "year": 2010, "categories": {"F-F50": {"pace": 302000000000, "rank": 9, "distance": 9, "time": 2707.5}}, "day": 7, "month": 4, "livingplace": "Val d'Illiez"}}, "location": "Ollon VD"}, "Tour du Chablais #1 Martigny": {"race": "Tour du Chablais #1 Martigny", "longitude": 6.9916269, "latitude": 46.2957462, "date": {"mer. 23.04.2014": {"weekday": "wednesday", "year": 2014, "categories": {"F-F50": {"pace": 330000000000, "rank": 18, "distance": 9, "time": 2805.1}}, "day": 23, "month": 4, "livingplace": "Val d'Illiez"}}, "location": "Ollon VD"}, "Morat-Fribourg": {"race": "Morat-Fribourg", "longitude": 7.120184, "latitude": 46.92922110000001, "date": {"sam. 06.10.2007": {"weekday": "saturday", "year": 2007, "categories": {"C/W45": {"pace": 345000000000, "rank": 89, "distance": 17, "time": 5925.5}}, "day": 6, "month": 10, "livingplace": "Val d Illiez"}, "dim. 05.10.2003": {"weekday": "sunday", "year": 2003, "categories": {"W40": {"pace": 335000000000, "rank": 99, "distance": 17, "time": 5761.9}}, "day": 5, "month": 10, "livingplace": "Val d'Illiez"}}, "location": "Murten"}, "Tour du Chablais #6 Aigle": {"race": "Tour du Chablais #6 Aigle", "longitude": 6.970566, "latitude": 46.3190253, "date": {"mer. 01.06.2011": {"weekday": "wednesday", "year": 2011, "categories": {"F-F50": {"pace": 304000000000, "rank": 10, "distance": 10, "time": 3105.6}}, "day": 1, "month": 6, "livingplace": "Val d'Illiez"}}, "location": "Aigle"}, "Tour du Chablais #4 Morgins": {"race": "Tour du Chablais #4 Morgins", "date": {"mer. 18.05.2011": {"weekday": "wednesday", "year": 2011, "categories": {"F-F50": {"pace": 347000000000, "rank": 9, "distance": 8, "time": 2901.9}}, "day": 18, "month": 5, "livingplace": "Val d'Illiez"}}, "location": "Les Mosses"}, "Tour du Chablais #3 Bex": {"race": "Tour du Chablais #3 Bex", "longitude": 7.0223787, "latitude": 46.1782231, "date": {"mer. 21.04.2010": {"weekday": "wednesday", "year": 2010, "categories": {"F-F50": {"pace": 318000000000, "rank": 9, "distance": 10, "time": 3181.4}}, "day": 21, "month": 4, "livingplace": "Val d'Illiez"}}, "location": "Evionnaz"}, "Tour du Chablais #4 Champ\u00e9ry": {"race": "Tour du Chablais #4 Champ\u00e9ry", "date": {"mer. 02.05.2012": {"weekday": "wednesday", "year": 2012, "categories": {"F-F50": {"pace": 351000000000, "rank": 26, "distance": 8, "time": 2920.6}}, "day": 2, "month": 5, "livingplace": "Val d'Illiez"}}, "location": "Les Mosses"}, "Tour du Chablais #5 Les Mosses": {"race": "Tour du Chablais #5 Les Mosses", "longitude": 6.931504599999999, "latitude": 46.3603257, "date": {"mer. 25.05.2011": {"weekday": "wednesday", "year": 2011, "categories": {"F-F50": {"pace": 343000000000, "rank": 7, "distance": 8, "time": 2747.4}}, "day": 25, "month": 5, "livingplace": "Val d'Illiez"}}, "location": "Roche VD"}, "Tour du Chablais #1 Lavey": {"race": "Tour du Chablais #1 Lavey", "longitude": 6.9916269, "latitude": 46.2957462, "date": {"mer. 27.04.2011": {"weekday": "wednesday", "year": 2011, "categories": {"F-F50": {"pace": 328000000000, "rank": 12, "distance": 9, "time": 2960.9}}, "day": 27, "month": 4, "livingplace": "Val d'Illiez"}}, "location": "Ollon VD"}, "Tour du Chablais #5 Morgins": {"race": "Tour du Chablais #5 Morgins", "longitude": 6.931504599999999, "latitude": 46.3603257, "date": {"mer. 01.05.2013": {"weekday": "wednesday", "year": 2013, "categories": {"F-F50": {"pace": 378000000000, "rank": 34, "distance": 8, "time": 2879.2}}, "day": 1, "month": 5, "livingplace": "Val d'Illiez"}}, "location": "Roche VD"}, "Tour du Chablais #3 Le Bouveret": {"race": "Tour du Chablais #3 Le Bouveret", "longitude": 7.0223787, "latitude": 46.1782231, "date": {"mer. 11.05.2011": {"weekday": "wednesday", "year": 2011, "categories": {"F-F50": {"pace": 322000000000, "rank": 9, "distance": 10, "time": 3225.2}}, "day": 11, "month": 5, "livingplace": "Val d'Illiez"}}, "location": "Evionnaz"}, "Tour du Chablais #3 Collombey-Muraz": {"race": "Tour du Chablais #3 Collombey-Muraz", "longitude": 7.0223787, "latitude": 46.1782231, "date": {"mer. 25.04.2012": {"weekday": "wednesday", "year": 2012, "categories": {"F-F50": {"pace": 340000000000, "rank": 22, "distance": 9, "time": 3057.2}}, "day": 25, "month": 4, "livingplace": "Val d'Illiez"}}, "location": "Evionnaz"}, "Tour du Chablais #2 Rennaz": {"race": "Tour du Chablais #2 Rennaz", "longitude": 6.854975199999999, "latitude": 46.3835529, "date": {"mer. 04.05.2011": {"weekday": "wednesday", "year": 2011, "categories": {"F-F50": {"pace": 324000000000, "rank": 10, "distance": 9, "time": 3037.8}}, "day": 4, "month": 5, "livingplace": "Val d'Illiez"}}, "location": "Bouveret"}}, "name": "Besson Christine", "birth": 1959}