{"sex": "M", "races": {"Corrida Bulloise, Bulle": {"race": "Corrida Bulloise, Bulle", "longitude": 7.057726799999999, "latitude": 46.6154512, "date": {"sam. 16.11.2013": {"weekday": "saturday", "year": 2013, "categories": {"M40": {"pace": 265000000000, "rank": 112, "distance": 8, "time": 2166.2}}, "day": 16, "month": 11, "livingplace": "Courroux"}, "sam. 15.11.2014": {"weekday": "saturday", "year": 2014, "categories": {"8-M40": {"pace": 262000000000, "rank": 80, "distance": 8, "time": 2139.0}}, "day": 15, "month": 11, "livingplace": "Courroux"}}, "location": "Bulle"}, "Course de l'Escalade, Gen\u00e8ve": {"race": "Course de l'Escalade, Gen\u00e8ve", "longitude": 6.1431577, "latitude": 46.2043907, "date": {"sam. 05.12.2015": {"weekday": "saturday", "year": 2015, "categories": {"Mix2-H": {"pace": 425000000000, "rank": 572, "distance": 5, "time": 2056.4}}, "day": 5, "month": 12, "livingplace": "Courroux"}}, "location": "Gen\u00e8ve"}, "Birslauf Basel": {"race": "Birslauf Basel", "longitude": 7.5885761, "latitude": 47.5595986, "date": {"sam. 24.03.2007": {"weekday": "saturday", "year": 2007, "categories": {"M\u00e4nner": {"pace": 250000000000, "rank": 106, "distance": 10, "time": 2509.6}}, "day": 24, "month": 3, "livingplace": "Courroux"}}, "location": "Basel"}, "La Trotteuse-Tissot, La Chaux-de-Fonds": {"race": "La Trotteuse-Tissot, La Chaux-de-Fonds", "longitude": 6.832783800000001, "latitude": 47.1034892, "date": {"sam. 14.12.2013": {"weekday": "saturday", "year": 2013, "categories": {"GC-H40": {"pace": 270000000000, "rank": 45, "distance": 8, "time": 2164.3}}, "day": 14, "month": 12, "livingplace": "Courroux"}}, "location": "La Chaux-de-Fonds"}, "Hallwilerseelauf, Beinwil am See": {"race": "Hallwilerseelauf, Beinwil am See", "date": {"sam. 11.10.2014": {"weekday": "saturday", "year": 2014, "categories": {"10-Mann": {"pace": 265000000000, "rank": 162, "distance": 10, "time": 2657.3}}, "day": 11, "month": 10, "livingplace": "Courroux"}}, "location": "Beinwil am See"}, "ASICS Bremgarter Reusslauf": {"race": "ASICS Bremgarter Reusslauf", "longitude": 8.3397905, "latitude": 47.34917739999999, "date": {"sam. 17.02.2007": {"weekday": "saturday", "year": 2007, "categories": {"M40": {"pace": 264000000000, "rank": 301, "distance": 11, "time": 2779.8}}, "day": 17, "month": 2, "livingplace": "Courroux"}}, "location": "Bremgarten AG"}, "Morat-Fribourg": {"race": "Morat-Fribourg", "longitude": 7.120184, "latitude": 46.92922110000001, "date": {"sam. 05.10.2013": {"weekday": "saturday", "year": 2013, "categories": {"17-M45": {"pace": 354000000000, "rank": 691, "distance": 17, "time": 6178.7}}, "day": 5, "month": 10, "livingplace": "Courroux"}}, "location": "Murten"}, "Z\u00fcrcher Silvesterlauf, Z\u00fcrich": {"race": "Z\u00fcrcher Silvesterlauf, Z\u00fcrich", "longitude": 8.541694, "latitude": 47.3768866, "date": {"dim. 10.12.2006": {"weekday": "sunday", "year": 2006, "categories": {"MenAK2-8": {"pace": 246000000000, "rank": 186, "distance": 9, "time": 2123.4}}, "day": 10, "month": 12, "livingplace": "Courroux"}, "dim. 13.12.2009": {"weekday": "sunday", "year": 2009, "categories": {"8-MenAK2": {"pace": 271000000000, "rank": 389, "distance": 9, "time": 2334.0}}, "day": 13, "month": 12, "livingplace": "Courroux"}}, "location": "Z\u00fcrich"}, "Basler Stadtlauf": {"race": "Basler Stadtlauf", "longitude": 7.5885761, "latitude": 47.5595986, "date": {"sam. 30.11.2013": {"weekday": "saturday", "year": 2013, "categories": {"M45": {"pace": 246000000000, "rank": 77, "distance": 6, "time": 1354.2}}, "day": 30, "month": 11, "livingplace": "Courroux"}, "sam. 29.11.2014": {"weekday": "saturday", "year": 2014, "categories": {"M45": {"pace": 249000000000, "rank": 96, "distance": 6, "time": 1373.3}}, "day": 29, "month": 11, "livingplace": "Courroux"}}, "location": "Basel"}, "Course de l'Avent, Fribourg": {"race": "Course de l'Avent, Fribourg", "longitude": 7.161971899999999, "latitude": 46.8064773, "date": {"dim. 24.11.2013": {"weekday": "sunday", "year": 2013, "categories": {"P-H40": {"pace": 265000000000, "rank": 5, "distance": 6, "time": 1674.0}}, "day": 24, "month": 11, "livingplace": "Courroux"}}, "location": "Fribourg"}, "Z\u00fcrich Marathon, Teamrun und Cityrun": {"race": "Z\u00fcrich Marathon, Teamrun und Cityrun", "longitude": 8.541694, "latitude": 47.3768866, "date": {"dim. 09.04.2006": {"weekday": "sunday", "year": 2006, "categories": {"M40": {"pace": 385000000000, "rank": 885, "distance": 42, "time": 16252.3}}, "day": 9, "month": 4, "livingplace": "Courroux"}}, "location": "Z\u00fcrich"}, "Langenthaler Stadtlauf": {"race": "Langenthaler Stadtlauf", "longitude": 7.790562299999999, "latitude": 47.2120786, "date": {"sam. 22.11.2014": {"weekday": "saturday", "year": 2014, "categories": {"JogM": {"pace": 243000000000, "rank": 37, "distance": 5, "time": 1216.2}}, "day": 22, "month": 11, "livingplace": "Courroux"}}, "location": "Langenthal"}, "Kerzerslauf": {"race": "Kerzerslauf", "longitude": 7.1954365, "latitude": 46.97488999999999, "date": {"sam. 18.03.2006": {"weekday": "saturday", "year": 2006, "categories": {"M40": {"pace": 288000000000, "rank": 299, "distance": 15, "time": 4329.0}}, "day": 18, "month": 3, "livingplace": "Courroux"}}, "location": "Kerzers"}}, "name": "Beyeler Olivier", "birth": 1966}