{"sex": "F", "races": {"Tour du Pays de Vaud #4 - La Sarraz": {"race": "Tour du Pays de Vaud #4 - La Sarraz", "longitude": 6.5707689, "latitude": 46.7088129, "date": {"mer. 29.08.2012": {"weekday": "wednesday", "year": 2012, "categories": {"D-Sen1": {"pace": 345000000000, "rank": 60, "distance": 9, "time": 2934.4}}, "day": 29, "month": 8, "livingplace": "Carrouge"}, "mer. 04.09.2013": {"weekday": "wednesday", "year": 2013, "categories": {"D-Sen1": {"pace": 364000000000, "rank": 53, "distance": 9, "time": 3095.8}}, "day": 4, "month": 9, "livingplace": "Carrouge"}}, "location": "Chavornay"}, "Tour du Chablais #2 Bex": {"race": "Tour du Chablais #2 Bex", "longitude": 6.854975199999999, "latitude": 46.3835529, "date": {"mer. 18.04.2012": {"weekday": "wednesday", "year": 2012, "categories": {"F-F20": {"pace": 369000000000, "rank": 123, "distance": 8, "time": 2955.6}}, "day": 18, "month": 4, "livingplace": "Carrouge"}}, "location": "Bouveret"}, "Kerzerslauf": {"race": "Kerzerslauf", "longitude": 7.1954365, "latitude": 46.97488999999999, "date": {"sam. 16.03.2013": {"weekday": "saturday", "year": 2013, "categories": {"15-F20": {"pace": 372000000000, "rank": 332, "distance": 15, "time": 5588.7}}, "day": 16, "month": 3, "livingplace": "Carrouge"}}, "location": "Kerzers"}, "Tour du Chablais #6 Montreux": {"race": "Tour du Chablais #6 Montreux", "longitude": 6.970566, "latitude": 46.3190253, "date": {"mer. 16.05.2012": {"weekday": "wednesday", "year": 2012, "categories": {"F-F20": {"pace": 373000000000, "rank": 130, "distance": 9, "time": 3458.1}}, "day": 16, "month": 5, "livingplace": "Carrouge"}}, "location": "Aigle"}, "Tour du Pays de Vaud printanier #1 Chavornay": {"race": "Tour du Pays de Vaud printanier #1 Chavornay", "longitude": 6.2347852, "latitude": 46.3832683, "date": {"mer. 30.05.2012": {"weekday": "wednesday", "year": 2012, "categories": {"D-Sen1": {"pace": 401000000000, "rank": 33, "distance": 9, "time": 3594.4}}, "day": 30, "month": 5, "livingplace": "Carrouge"}}, "location": "Nyon"}, "Tour du Chablais #1 Montreux": {"race": "Tour du Chablais #1 Montreux", "longitude": 6.9916269, "latitude": 46.2957462, "date": {"mer. 11.04.2012": {"weekday": "wednesday", "year": 2012, "categories": {"F-F20": {"pace": 376000000000, "rank": 120, "distance": 8, "time": 2858.3}}, "day": 11, "month": 4, "livingplace": "Carrouge"}}, "location": "Ollon VD"}, "Tour du Pays de Vaud #2 - Genolier": {"race": "Tour du Pays de Vaud #2 - Genolier", "longitude": 6.7702883, "latitude": 46.5955273, "date": {"mer. 15.08.2012": {"weekday": "wednesday", "year": 2012, "categories": {"D-Sen1": {"pace": 368000000000, "rank": 67, "distance": 9, "time": 3133.3}}, "day": 15, "month": 8, "livingplace": "Carrouge"}, "mer. 17.08.2011": {"weekday": "wednesday", "year": 2011, "categories": {"D-Sen1": {"pace": 386000000000, "rank": 63, "distance": 9, "time": 3283.5}}, "day": 17, "month": 8, "livingplace": "Carrouge"}}, "location": "M\u00e9zi\u00e8res VD"}, "Tour du Pays de Vaud #3 - Mezi\u00e8res": {"race": "Tour du Pays de Vaud #3 - Mezi\u00e8res", "longitude": 6.641183, "latitude": 46.7784736, "date": {"mer. 22.08.2012": {"weekday": "wednesday", "year": 2012, "categories": {"D-Sen1": {"pace": 391000000000, "rank": 55, "distance": 8, "time": 3285.3}}, "day": 22, "month": 8, "livingplace": "Carrouge"}}, "location": "Yverdon-les-Bains"}, "Tour du Pays de Vaud #2 - Mezi\u00e8res": {"race": "Tour du Pays de Vaud #2 - Mezi\u00e8res", "longitude": 6.7702883, "latitude": 46.5955273, "date": {"mer. 21.08.2013": {"weekday": "wednesday", "year": 2013, "categories": {"D-Sen1": {"pace": 375000000000, "rank": 42, "distance": 8, "time": 3041.5}}, "day": 21, "month": 8, "livingplace": "Carrouge"}}, "location": "M\u00e9zi\u00e8res VD"}, "Tour du Pays de Vaud printanier #2 Yverdon-les-Bains": {"race": "Tour du Pays de Vaud printanier #2 Yverdon-les-Bains", "longitude": 6.7975224, "latitude": 46.6698891, "date": {"mer. 05.06.2013": {"weekday": "wednesday", "year": 2013, "categories": {"D-Sen1": {"pace": 363000000000, "rank": 33, "distance": 9, "time": 3308.9}}, "day": 5, "month": 6, "livingplace": "Carrouge"}}, "location": "Moudon"}, "Les Traine-Savates, Cheseaux-sur-Lausanne": {"race": "Les Traine-Savates, Cheseaux-sur-Lausanne", "longitude": 6.6047712, "latitude": 46.585452, "date": {"sam. 13.04.2013": {"weekday": "saturday", "year": 2013, "categories": {"10-W20": {"pace": 359000000000, "rank": 103, "distance": 10, "time": 3707.9}}, "day": 13, "month": 4, "livingplace": "Carrouge"}, "sam. 14.04.2012": {"weekday": "saturday", "year": 2012, "categories": {"10-W20": {"pace": 363000000000, "rank": 122, "distance": 10, "time": 3781.5}}, "day": 14, "month": 4, "livingplace": "Carrouge"}}, "location": "Cheseaux-sur-Lausanne"}, "Corrida Bulloise, Bulle": {"race": "Corrida Bulloise, Bulle", "longitude": 7.057726799999999, "latitude": 46.6154512, "date": {"sam. 16.11.2013": {"weekday": "saturday", "year": 2013, "categories": {"F20": {"pace": 350000000000, "rank": 211, "distance": 6, "time": 2158.5}}, "day": 16, "month": 11, "livingplace": "Carrouge"}, "sam. 17.11.2012": {"weekday": "saturday", "year": 2012, "categories": {"F20": {"pace": 334000000000, "rank": 185, "distance": 6, "time": 2058.2}}, "day": 17, "month": 11, "livingplace": "Carrouge"}}, "location": "Bulle"}, "Tour du Chablais #4 Champ\u00e9ry": {"race": "Tour du Chablais #4 Champ\u00e9ry", "date": {"mer. 02.05.2012": {"weekday": "wednesday", "year": 2012, "categories": {"F-F20": {"pace": 367000000000, "rank": 107, "distance": 8, "time": 3046.4}}, "day": 2, "month": 5, "livingplace": "Carrouge"}}, "location": "Les Mosses"}, "Tour du Chablais #6 Monthey": {"race": "Tour du Chablais #6 Monthey", "longitude": 6.970566, "latitude": 46.3190253, "date": {"mer. 08.05.2013": {"weekday": "wednesday", "year": 2013, "categories": {"F-F20": {"pace": 349000000000, "rank": 115, "distance": 9, "time": 3263.1}}, "day": 8, "month": 5, "livingplace": "Carrouge"}}, "location": "Aigle"}, "Tour du Pays de Vaud printanier #3 - Yens": {"race": "Tour du Pays de Vaud printanier #3 - Yens", "longitude": 6.5728678, "latitude": 46.7829756, "date": {"mer. 12.06.2013": {"weekday": "wednesday", "year": 2013, "categories": {"D-Sen1": {"pace": 356000000000, "rank": 30, "distance": 9, "time": 3240.3}}, "day": 12, "month": 6, "livingplace": "Carrouge"}}, "location": "Champvent"}, "Tour du Chablais #3 Collombey-Muraz": {"race": "Tour du Chablais #3 Collombey-Muraz", "longitude": 7.0223787, "latitude": 46.1782231, "date": {"mer. 25.04.2012": {"weekday": "wednesday", "year": 2012, "categories": {"F-F20": {"pace": 358000000000, "rank": 107, "distance": 9, "time": 3215.3}}, "day": 25, "month": 4, "livingplace": "Carrouge"}}, "location": "Evionnaz"}, "Tour du pays de Vaud #1 - Mezi\u00e8res": {"race": "Tour du pays de Vaud #1 - Mezi\u00e8res", "longitude": 6.641183, "latitude": 46.7784736, "date": {"mer. 10.08.2011": {"weekday": "wednesday", "year": 2011, "categories": {"D-Sen1": {"pace": 363000000000, "rank": 58, "distance": 9, "time": 3092.8}}, "day": 10, "month": 8, "livingplace": "Carrouge"}}, "location": "Yverdon-les-Bains"}, "Tour du pays de Vaud #5 - Penthaz": {"race": "Tour du pays de Vaud #5 - Penthaz", "longitude": 6.539251200000001, "latitude": 46.5993131, "date": {"mer. 07.09.2011": {"weekday": "wednesday", "year": 2011, "categories": {"D-Sen1": {"pace": 402000000000, "rank": 46, "distance": 8, "time": 3364.0}}, "day": 7, "month": 9, "livingplace": "Carrouge"}}, "location": "Penthaz"}, "Tour du pays de Vaud #6 - St  Prex": {"race": "Tour du pays de Vaud #6 - St  Prex", "longitude": 6.458343500000001, "latitude": 46.4829113, "date": {"mer. 14.09.2011": {"weekday": "wednesday", "year": 2011, "categories": {"D-Sen1": {"pace": 384000000000, "rank": 82, "distance": 9, "time": 3307.1}}, "day": 14, "month": 9, "livingplace": "Carrouge"}}, "location": "St-Prex"}, "Tour du Chablais #3 Bouveret": {"race": "Tour du Chablais #3 Bouveret", "longitude": 7.0223787, "latitude": 46.1782231, "date": {"mer. 17.04.2013": {"weekday": "wednesday", "year": 2013, "categories": {"F-F20": {"pace": 361000000000, "rank": 109, "distance": 10, "time": 3618.7}}, "day": 17, "month": 4, "livingplace": "Carrouge"}}, "location": "Evionnaz"}, "Tour du Chablais #5 Les Mosses": {"race": "Tour du Chablais #5 Les Mosses", "longitude": 6.931504599999999, "latitude": 46.3603257, "date": {"mer. 25.05.2011": {"weekday": "wednesday", "year": 2011, "categories": {"F-F20": {"pace": 404000000000, "rank": 101, "distance": 8, "time": 3235.9}}, "day": 25, "month": 5, "livingplace": "Carrouge"}}, "location": "Roche VD"}, "Tour du Chablais #3 Le Bouveret": {"race": "Tour du Chablais #3 Le Bouveret", "longitude": 7.0223787, "latitude": 46.1782231, "date": {"mer. 11.05.2011": {"weekday": "wednesday", "year": 2011, "categories": {"F-F20": {"pace": 395000000000, "rank": 134, "distance": 10, "time": 3952.7}}, "day": 11, "month": 5, "livingplace": "Carrouge"}}, "location": "Evionnaz"}, "Tour du pays de Vaud #1 - Penthaz": {"race": "Tour du pays de Vaud #1 - Penthaz", "longitude": 6.539251200000001, "latitude": 46.5993131, "date": {"mer. 14.08.2013": {"weekday": "wednesday", "year": 2013, "categories": {"D-Sen1": {"pace": 353000000000, "rank": 60, "distance": 9, "time": 3014.2}}, "day": 14, "month": 8, "livingplace": "Carrouge"}, "mer. 08.08.2012": {"weekday": "wednesday", "year": 2012, "categories": {"D-Sen1": {"pace": 378000000000, "rank": 75, "distance": 9, "time": 3232.6}}, "day": 8, "month": 8, "livingplace": "Carrouge"}}, "location": "Penthaz"}, "Tour du Pays de Vaud printanier #1 Moudon": {"race": "Tour du Pays de Vaud printanier #1 Moudon", "longitude": 6.2347852, "latitude": 46.3832683, "date": {"mer. 29.05.2013": {"weekday": "wednesday", "year": 2013, "categories": {"D-Sen1": {"pace": 355000000000, "rank": 21, "distance": 8, "time": 3041.8}}, "day": 29, "month": 5, "livingplace": "Carrouge"}}, "location": "Nyon"}}, "name": "Bigler Val\u00e9rie", "birth": 1979}