{"sex": "M", "races": {"Int Greifenseelauf, Uster": {"race": "Int Greifenseelauf, Uster", "longitude": 8.717873899999999, "latitude": 47.3482747, "date": {"sam. 20.09.2003": {"weekday": "saturday", "year": 2003, "categories": {"H/M40": {"pace": 380000000000, "rank": 783, "distance": 21, "time": 8021.5}}, "day": 20, "month": 9, "livingplace": "Duggingen"}}, "location": "Uster"}, "Dreil\u00e4nder-Lauf, Basel": {"race": "Dreil\u00e4nder-Lauf, Basel", "longitude": 7.5885761, "latitude": 47.5595986, "date": {"dim. 16.05.2010": {"weekday": "sunday", "year": 2010, "categories": {"21M40": {"pace": 323000000000, "rank": 140, "distance": 21, "time": 6818.7}}, "day": 16, "month": 5, "livingplace": "Duggingen"}, "dim. 18.05.2008": {"weekday": "sunday", "year": 2008, "categories": {"21M40": {"pace": 308000000000, "rank": 107, "distance": 21, "time": 6508.9}}, "day": 18, "month": 5, "livingplace": "Duggingen"}}, "location": "Basel"}, "Lucerne Marathon, Luzern": {"race": "Lucerne Marathon, Luzern", "longitude": 8.3093072, "latitude": 47.05016819999999, "date": {"dim. 25.10.2009": {"weekday": "sunday", "year": 2009, "categories": {"M-M40": {"pace": 335000000000, "rank": 430, "distance": 42, "time": 14143.9}}, "day": 25, "month": 10, "livingplace": "Duggingen"}}, "location": "Luzern"}, "Engadiner Sommerlauf, Samedan": {"race": "Engadiner Sommerlauf, Samedan", "date": {"dim. 24.08.2008": {"weekday": "sunday", "year": 2008, "categories": {"S/S2": {"pace": 328000000000, "rank": 113, "distance": 27, "time": 8875.2}}, "day": 24, "month": 8, "livingplace": "runone"}}, "location": "Bever"}, "Basler Marathon-Tage": {"race": "Basler Marathon-Tage", "longitude": 7.5885761, "latitude": 47.5595986, "date": {"sam. 25.10.2003": {"weekday": "saturday", "year": 2003, "categories": {"C - M40": {"pace": 425000000000, "rank": 102, "distance": 42, "time": 17936.8}}, "day": 25, "month": 10, "livingplace": "Duggingen"}}, "location": "Basel"}, "Z\u00fcrich Marathon, Teamrun und Cityrun": {"race": "Z\u00fcrich Marathon, Teamrun und Cityrun", "longitude": 8.541694, "latitude": 47.3768866, "date": {"dim. 26.04.2009": {"weekday": "sunday", "year": 2009, "categories": {"M45": {"pace": 363000000000, "rank": 574, "distance": 42, "time": 15334.7}}, "day": 26, "month": 4, "livingplace": "Duggingen"}}, "location": "Z\u00fcrich"}, "Z\u00fcrcher Silvesterlauf, Z\u00fcrich": {"race": "Z\u00fcrcher Silvesterlauf, Z\u00fcrich", "longitude": 8.541694, "latitude": 47.3768866, "date": {"dim. 14.12.2008": {"weekday": "sunday", "year": 2008, "categories": {"MenAK2-8": {"pace": 312000000000, "rank": 898, "distance": 9, "time": 2687.4}}, "day": 14, "month": 12, "livingplace": "Duggingen"}}, "location": "Z\u00fcrich"}, "Basler Stadtlauf": {"race": "Basler Stadtlauf", "longitude": 7.5885761, "latitude": 47.5595986, "date": {"sam. 24.11.2007": {"weekday": "saturday", "year": 2007, "categories": {"U": {"pace": 293000000000, "rank": 307, "distance": 6, "time": 1612.9}}, "day": 24, "month": 11, "livingplace": "Duggingen"}}, "location": "Basel"}, "crossrun, Therwil": {"race": "crossrun, Therwil", "longitude": 7.5532808, "latitude": 47.4990611, "date": {"dim. 01.09.2013": {"weekday": "sunday", "year": 2013, "categories": {"M50": {"pace": 321000000000, "rank": 15, "distance": 10, "time": 3210.3}}, "day": 1, "month": 9, "livingplace": "Duggingen"}}, "location": "Therwil"}}, "name": "Bingisser Roland", "birth": 1961}