{"sex": "F", "races": {"Muttenzer Herbstlauf": {"race": "Muttenzer Herbstlauf", "longitude": 7.6476369, "latitude": 47.5279292, "date": {"dim. 27.10.2013": {"weekday": "sunday", "year": 2013, "categories": {"10-W40": {"pace": 311000000000, "rank": 5, "distance": 10, "time": 3116.4}}, "day": 27, "month": 10, "livingplace": "Dornach"}}, "location": "Muttenz"}, "Schweizer Frauenlauf Bern": {"race": "Schweizer Frauenlauf Bern", "longitude": 7.4474468, "latitude": 46.9479739, "date": {"dim. 15.06.2003": {"weekday": "sunday", "year": 2003, "categories": {"W35": {"pace": 309000000000, "rank": 347, "distance": 5, "time": 1548.8}}, "day": 15, "month": 6, "livingplace": "Allschwil"}}, "location": "Bern"}, "Hallwilerseelauf, Beinwil am See": {"race": "Hallwilerseelauf, Beinwil am See", "date": {"sam. 10.10.2009": {"weekday": "saturday", "year": 2009, "categories": {"21-F40": {"pace": 311000000000, "rank": 79, "distance": 21, "time": 6570.3}}, "day": 10, "month": 10, "livingplace": "Allschwil"}}, "location": "Beinwil am See"}, "Basel City Marathon": {"race": "Basel City Marathon", "longitude": 7.5885761, "latitude": 47.5595986, "date": {"dim. 03.09.2006": {"weekday": "sunday", "year": 2006, "categories": {"H-F30": {"pace": 322000000000, "rank": 31, "distance": 21, "time": 6800.4}}, "day": 3, "month": 9, "livingplace": "Allschwil"}}, "location": "Basel"}, "Gempenlauf, Dornach": {"race": "Gempenlauf, Dornach", "longitude": 7.6170412, "latitude": 47.4790491, "date": {"mer. 29.05.2013": {"weekday": "wednesday", "year": 2013, "categories": {"F45": {"pace": 368000000000, "rank": 11, "distance": 8, "time": 2870.9}}, "day": 29, "month": 5, "livingplace": "Dornach"}}, "location": "Dornach"}, "Pfingstlauf Wohlen AG": {"race": "Pfingstlauf Wohlen AG", "longitude": 8.2768762, "latitude": 47.3493653, "date": {"sam. 18.05.2013": {"weekday": "saturday", "year": 2013, "categories": {"8-10-F40": {"pace": 299000000000, "rank": 13, "distance": 10, "time": 2997.9}}, "day": 18, "month": 5, "livingplace": "Dornach"}}, "location": "Wohlen AG"}, "GP Fricktal, Eiken": {"race": "GP Fricktal, Eiken", "date": {"sam. 23.04.2011": {"weekday": "saturday", "year": 2011, "categories": {"F40": {"pace": 299000000000, "rank": 15, "distance": 16, "time": 4812.8}}, "day": 23, "month": 4, "livingplace": "Allschwil"}}, "location": "Eiken"}, "Basler Marathon-Tage": {"race": "Basler Marathon-Tage", "longitude": 7.5885761, "latitude": 47.5595986, "date": {"sam. 27.10.2007": {"weekday": "saturday", "year": 2007, "categories": {"HM/W40": {"pace": 311000000000, "rank": 8, "distance": 21, "time": 6570.2}}, "day": 27, "month": 10, "livingplace": "Allschwil"}}, "location": "Basel"}, "Basler Stadtlauf": {"race": "Basler Stadtlauf", "longitude": 7.5885761, "latitude": 47.5595986, "date": {"sam. 30.11.2013": {"weekday": "saturday", "year": 2013, "categories": {"F45": {"pace": 290000000000, "rank": 49, "distance": 6, "time": 1596.5}}, "day": 30, "month": 11, "livingplace": "Dornach"}}, "location": "Basel"}, "Int Greifenseelauf, Uster": {"race": "Int Greifenseelauf, Uster", "longitude": 8.717873899999999, "latitude": 47.3482747, "date": {"sam. 17.09.2005": {"weekday": "saturday", "year": 2005, "categories": {"H/W35": {"pace": 321000000000, "rank": 187, "distance": 21, "time": 6778.7}}, "day": 17, "month": 9, "livingplace": "Allschwil"}, "sam. 18.09.2004": {"weekday": "saturday", "year": 2004, "categories": {"H/W35": {"pace": 339000000000, "rank": 221, "distance": 21, "time": 7158.6}}, "day": 18, "month": 9, "livingplace": "Allschwil"}}, "location": "Uster"}}, "name": "Bitterli Eveline", "birth": 1967}