{"sex": "M", "races": {"Tour du Chablais #1 Montreux": {"race": "Tour du Chablais #1 Montreux", "longitude": 6.9916269, "latitude": 46.2957462, "date": {"mer. 11.04.2012": {"weekday": "wednesday", "year": 2012, "categories": {"M-M20": {"pace": 279000000000, "rank": 97, "distance": 8, "time": 2125.3}}, "day": 11, "month": 4, "livingplace": "Les Posses sur Bex"}}, "location": "Ollon VD"}, "Tour du Chablais #4 Yvorne": {"race": "Tour du Chablais #4 Yvorne", "date": {"mer. 28.04.2010": {"weekday": "wednesday", "year": 2010, "categories": {"M-M20": {"pace": 289000000000, "rank": 104, "distance": 8, "time": 2395.3}}, "day": 28, "month": 4, "livingplace": "Les Posses sur Bex"}}, "location": "Les Mosses"}, "Tour du Chablais #5 Leysin": {"race": "Tour du Chablais #5 Leysin", "longitude": 6.931504599999999, "latitude": 46.3603257, "date": {"mer. 05.05.2010": {"weekday": "wednesday", "year": 2010, "categories": {"M-M20": {"pace": 291000000000, "rank": 81, "distance": 8, "time": 2467.2}}, "day": 5, "month": 5, "livingplace": "Les Posses sur Bex"}}, "location": "Roche VD"}, "Tour du Chablais #1 Roche": {"race": "Tour du Chablais #1 Roche", "longitude": 6.9916269, "latitude": 46.2957462, "date": {"mer. 07.04.2010": {"weekday": "wednesday", "year": 2010, "categories": {"M-M20": {"pace": 278000000000, "rank": 137, "distance": 9, "time": 2495.2}}, "day": 7, "month": 4, "livingplace": "Les Posses sur Bex"}}, "location": "Ollon VD"}, "Tour du Chablais #3 Collombey-Muraz": {"race": "Tour du Chablais #3 Collombey-Muraz", "longitude": 7.0223787, "latitude": 46.1782231, "date": {"mer. 25.04.2012": {"weekday": "wednesday", "year": 2012, "categories": {"M-M20": {"pace": 262000000000, "rank": 88, "distance": 9, "time": 2361.0}}, "day": 25, "month": 4, "livingplace": "Les Posses sur Bex"}}, "location": "Evionnaz"}, "Tour du Chablais #2 Bex": {"race": "Tour du Chablais #2 Bex", "longitude": 6.854975199999999, "latitude": 46.3835529, "date": {"mer. 18.04.2012": {"weekday": "wednesday", "year": 2012, "categories": {"M-M20": {"pace": 263000000000, "rank": 88, "distance": 8, "time": 2111.7}}, "day": 18, "month": 4, "livingplace": "Les Posses sur Bex"}}, "location": "Bouveret"}, "Tour du Chablais #6 Montreux": {"race": "Tour du Chablais #6 Montreux", "longitude": 6.970566, "latitude": 46.3190253, "date": {"mer. 16.05.2012": {"weekday": "wednesday", "year": 2012, "categories": {"M-M20": {"pace": 251000000000, "rank": 74, "distance": 9, "time": 2328.6}}, "day": 16, "month": 5, "livingplace": "Les Posses sur Bex"}}, "location": "Aigle"}, "Tour du Chablais #6 Aigle": {"race": "Tour du Chablais #6 Aigle", "longitude": 6.970566, "latitude": 46.3190253, "date": {"mer. 01.06.2011": {"weekday": "wednesday", "year": 2011, "categories": {"M-M20": {"pace": 257000000000, "rank": 104, "distance": 10, "time": 2625.5}}, "day": 1, "month": 6, "livingplace": "Les Posses sur Bex"}}, "location": "Aigle"}, "Tour du Chablais #4 Morgins": {"race": "Tour du Chablais #4 Morgins", "date": {"mer. 18.05.2011": {"weekday": "wednesday", "year": 2011, "categories": {"M-M20": {"pace": 272000000000, "rank": 88, "distance": 8, "time": 2278.4}}, "day": 18, "month": 5, "livingplace": "Les Posses sur Bex"}}, "location": "Les Mosses"}, "Tour du Chablais #6 Mouthey": {"race": "Tour du Chablais #6 Mouthey", "longitude": 6.970566, "latitude": 46.3190253, "date": {"mer. 12.05.2010": {"weekday": "wednesday", "year": 2010, "categories": {"M-M20": {"pace": 261000000000, "rank": 105, "distance": 9, "time": 2401.6}}, "day": 12, "month": 5, "livingplace": "Les Posses sur Bex"}}, "location": "Aigle"}, "Tour du Chablais #4 Champ\u00e9ry": {"race": "Tour du Chablais #4 Champ\u00e9ry", "date": {"mer. 02.05.2012": {"weekday": "wednesday", "year": 2012, "categories": {"M-M20": {"pace": 259000000000, "rank": 77, "distance": 8, "time": 2150.5}}, "day": 2, "month": 5, "livingplace": "Les Posses sur Bex"}}, "location": "Les Mosses"}, "Tour du Chablais #5 Les Mosses": {"race": "Tour du Chablais #5 Les Mosses", "longitude": 6.931504599999999, "latitude": 46.3603257, "date": {"mer. 25.05.2011": {"weekday": "wednesday", "year": 2011, "categories": {"M-M20": {"pace": 294000000000, "rank": 120, "distance": 8, "time": 2354.9}}, "day": 25, "month": 5, "livingplace": "Les Posses sur Bex"}}, "location": "Roche VD"}, "Tour du Chablais #1 Lavey": {"race": "Tour du Chablais #1 Lavey", "longitude": 6.9916269, "latitude": 46.2957462, "date": {"mer. 27.04.2011": {"weekday": "wednesday", "year": 2011, "categories": {"M-M20": {"pace": 274000000000, "rank": 121, "distance": 9, "time": 2466.6}}, "day": 27, "month": 4, "livingplace": "Les Posses sur Bex"}}, "location": "Ollon VD"}, "Tour du Chablais #5 Bex": {"race": "Tour du Chablais #5 Bex", "longitude": 6.931504599999999, "latitude": 46.3603257, "date": {"mer. 09.05.2012": {"weekday": "wednesday", "year": 2012, "categories": {"M-M20": {"pace": 249000000000, "rank": 60, "distance": 9, "time": 2210.7}}, "day": 9, "month": 5, "livingplace": "Les Posses sur Bex"}}, "location": "Roche VD"}, "Tour du Chablais #3 Bex": {"race": "Tour du Chablais #3 Bex", "longitude": 7.0223787, "latitude": 46.1782231, "date": {"mer. 21.04.2010": {"weekday": "wednesday", "year": 2010, "categories": {"M-M20": {"pace": 288000000000, "rank": 122, "distance": 10, "time": 2883.3}}, "day": 21, "month": 4, "livingplace": "Les Posses sur Bex"}}, "location": "Evionnaz"}, "Tour du Chablais #3 Le Bouveret": {"race": "Tour du Chablais #3 Le Bouveret", "longitude": 7.0223787, "latitude": 46.1782231, "date": {"mer. 11.05.2011": {"weekday": "wednesday", "year": 2011, "categories": {"M-M20": {"pace": 267000000000, "rank": 121, "distance": 10, "time": 2673.4}}, "day": 11, "month": 5, "livingplace": "Les Posses sur Bex"}}, "location": "Evionnaz"}, "Tour du Chablais #2 St-Gingolph": {"race": "Tour du Chablais #2 St-Gingolph", "longitude": 6.854975199999999, "latitude": 46.3835529, "date": {"mer. 14.04.2010": {"weekday": "wednesday", "year": 2010, "categories": {"M-M20": {"pace": 308000000000, "rank": 115, "distance": 8, "time": 2579.8}}, "day": 14, "month": 4, "livingplace": "Les Posses sur Bex"}}, "location": "Bouveret"}, "Tour du Chablais #2 Rennaz": {"race": "Tour du Chablais #2 Rennaz", "longitude": 6.854975199999999, "latitude": 46.3835529, "date": {"mer. 04.05.2011": {"weekday": "wednesday", "year": 2011, "categories": {"M-M20": {"pace": 277000000000, "rank": 139, "distance": 9, "time": 2595.0}}, "day": 4, "month": 5, "livingplace": "Les Posses sur Bex"}}, "location": "Bouveret"}}, "name": "Bland Adam", "birth": 1980}