{"sex": "M", "races": {"Course de l'Escalade, Gen\u00e8ve": {"race": "Course de l'Escalade, Gen\u00e8ve", "longitude": 6.1431577, "latitude": 46.2043907, "date": {"sam. 06.12.2003": {"weekday": "saturday", "year": 2003, "categories": {"Hommes3": {"pace": 265000000000, "rank": 467, "distance": 7, "time": 1922.5}}, "day": 6, "month": 12, "livingplace": "Oron La Ville"}}, "location": "Gen\u00e8ve"}, "Int Greifenseelauf, Uster": {"race": "Int Greifenseelauf, Uster", "longitude": 8.717873899999999, "latitude": 47.3482747, "date": {"sam. 17.09.2005": {"weekday": "saturday", "year": 2005, "categories": {"H/M45": {"pace": 284000000000, "rank": 319, "distance": 21, "time": 6008.7}}, "day": 17, "month": 9, "livingplace": "Therwil"}}, "location": "Uster"}, "Z\u00fcrich Marathon, Teamrun und Cityrun": {"race": "Z\u00fcrich Marathon, Teamrun und Cityrun", "longitude": 8.541694, "latitude": 47.3768866, "date": {"dim. 04.04.2004": {"weekday": "sunday", "year": 2004, "categories": {"M45": {"pace": 355000000000, "rank": 578, "distance": 42, "time": 15010.5}}, "day": 4, "month": 4, "livingplace": "Oron la Ville"}}, "location": "Z\u00fcrich"}, "Course en f\u00f4ret, Romont": {"race": "Course en f\u00f4ret, Romont", "longitude": 6.9118086, "latitude": 46.691887, "date": {"dim. 21.09.2003": {"weekday": "sunday", "year": 2003, "categories": {"H40": {"pace": 308000000000, "rank": 78, "distance": 15, "time": 4529.9}}, "day": 21, "month": 9, "livingplace": "Oron la Ville"}}, "location": "Romont FR"}, "Hallwilerseelauf, Beinwil am See": {"race": "Hallwilerseelauf, Beinwil am See", "date": {"sam. 11.10.2003": {"weekday": "saturday", "year": 2003, "categories": {"13": {"pace": 318000000000, "rank": 434, "distance": 21, "time": 6724.4}}, "day": 11, "month": 10, "livingplace": "Oron la Ville"}, "sam. 09.10.2004": {"weekday": "saturday", "year": 2004, "categories": {"13": {"pace": 294000000000, "rank": 332, "distance": 21, "time": 6209.4}}, "day": 9, "month": 10, "livingplace": "Oron la Ville"}}, "location": "Beinwil am See"}, "Thuner Stadtlauf, Thun": {"race": "Thuner Stadtlauf, Thun", "longitude": 7.6279881, "latitude": 46.7579868, "date": {"dim. 05.09.2004": {"weekday": "sunday", "year": 2004, "categories": {"M40": {"pace": 286000000000, "rank": 86, "distance": 10, "time": 2869.5}}, "day": 5, "month": 9, "livingplace": "Basel"}}, "location": "Thun"}, "ASICS Bremgarter Reusslauf": {"race": "ASICS Bremgarter Reusslauf", "longitude": 8.3397905, "latitude": 47.34917739999999, "date": {"sam. 26.02.2005": {"weekday": "saturday", "year": 2005, "categories": {"13": {"pace": 287000000000, "rank": 313, "distance": 11, "time": 3019.8}}, "day": 26, "month": 2, "livingplace": "Therwil"}}, "location": "Bremgarten AG"}, "GP Fricktal, Eiken": {"race": "GP Fricktal, Eiken", "date": {"sam. 26.03.2005": {"weekday": "saturday", "year": 2005, "categories": {"13": {"pace": 307000000000, "rank": 210, "distance": 16, "time": 4939.7}}, "day": 26, "month": 3, "livingplace": "Therwil"}}, "location": "Eiken"}, "Morat-Fribourg": {"race": "Morat-Fribourg", "longitude": 7.120184, "latitude": 46.92922110000001, "date": {"dim. 05.10.2003": {"weekday": "sunday", "year": 2003, "categories": {"M45": {"pace": 311000000000, "rank": 346, "distance": 17, "time": 5340.0}}, "day": 5, "month": 10, "livingplace": "Oron la Ville"}}, "location": "Murten"}, "Basler Stadtlauf": {"race": "Basler Stadtlauf", "longitude": 7.5885761, "latitude": 47.5595986, "date": {"sam. 26.11.2005": {"weekday": "saturday", "year": 2005, "categories": {"U": {"pace": 260000000000, "rank": 138, "distance": 6, "time": 1433.0}}, "day": 26, "month": 11, "livingplace": "Therwil"}, "sam. 27.11.2004": {"weekday": "saturday", "year": 2004, "categories": {"U": {"pace": 266000000000, "rank": 147, "distance": 6, "time": 1468.3}}, "day": 27, "month": 11, "livingplace": "Therwil"}}, "location": "Basel"}}, "name": "Blaser Thomas", "birth": 1956}