{"sex": "F", "races": {"Schweizer Frauenlauf Bern": {"race": "Schweizer Frauenlauf Bern", "longitude": 7.4474468, "latitude": 46.9479739, "date": {"dim. 15.06.2014": {"weekday": "sunday", "year": 2014, "categories": {"5-W30": {"pace": 301000000000, "rank": 54, "distance": 5, "time": 1507.2}}, "day": 15, "month": 6, "livingplace": "Bern"}}, "location": "Bern"}, "ASICS Bremgarter Reusslauf": {"race": "ASICS Bremgarter Reusslauf", "longitude": 8.3397905, "latitude": 47.34917739999999, "date": {"sam. 28.02.2015": {"weekday": "saturday", "year": 2015, "categories": {"11-F30": {"pace": 300000000000, "rank": 89, "distance": 11, "time": 3302.4}}, "day": 28, "month": 2, "livingplace": "Bern"}}, "location": "Bremgarten AG"}, "Ch\u00e4sitzerlouf, Kehrsatz": {"race": "Ch\u00e4sitzerlouf, Kehrsatz", "date": {"sam. 25.04.2015": {"weekday": "saturday", "year": 2015, "categories": {"12-F30": {"pace": 305000000000, "rank": 22, "distance": 12, "time": 3671.4}}, "day": 25, "month": 4, "livingplace": "Bern"}}, "location": "Kehrsatz"}, "Morat-Fribourg": {"race": "Morat-Fribourg", "longitude": 7.120184, "latitude": 46.92922110000001, "date": {"sam. 04.10.2014": {"weekday": "saturday", "year": 2014, "categories": {"17-W20": {"pace": 328000000000, "rank": 162, "distance": 17, "time": 5642.6}}, "day": 4, "month": 10, "livingplace": "Bern"}}, "location": "Murten"}, "Kerzerslauf": {"race": "Kerzerslauf", "longitude": 7.1954365, "latitude": 46.97488999999999, "date": {"sam. 21.03.2015": {"weekday": "saturday", "year": 2015, "categories": {"15-F20": {"pace": 308000000000, "rank": 137, "distance": 15, "time": 4632.5}}, "day": 21, "month": 3, "livingplace": "Bern"}}, "location": "Kerzers"}, "Aletsch-Halbmarathon, Bettmeralp": {"race": "Aletsch-Halbmarathon, Bettmeralp", "date": {"dim. 28.06.2015": {"weekday": "sunday", "year": 2015, "categories": {"F20": {"pace": 524000000000, "rank": 127, "distance": 21, "time": 11068.1}}, "day": 28, "month": 6, "livingplace": "Bern"}}, "location": "Bettmeralp"}, "Z\u00fcrcher Silvesterlauf, Z\u00fcrich": {"race": "Z\u00fcrcher Silvesterlauf, Z\u00fcrich", "longitude": 8.541694, "latitude": 47.3768866, "date": {"dim. 15.12.2013": {"weekday": "sunday", "year": 2013, "categories": {"10-F30": {"pace": 363000000000, "rank": 527, "distance": 10, "time": 3638.9}}, "day": 15, "month": 12, "livingplace": "Horgen"}}, "location": "Z\u00fcrich"}}, "name": "Blum Sandra", "birth": 1983}