{"sex": "M", "races": {"Course de l'Escalade, Gen\u00e8ve": {"race": "Course de l'Escalade, Gen\u00e8ve", "longitude": 6.1431577, "latitude": 46.2043907, "date": {"sam. 01.12.2012": {"weekday": "saturday", "year": 2012, "categories": {"Cad-A-M": {"pace": 203000000000, "rank": 7, "distance": 5, "time": 971.1}}, "day": 1, "month": 12, "livingplace": "St Triphon"}}, "location": "Gen\u00e8ve"}, "Corrida Bulloise, Bulle": {"race": "Corrida Bulloise, Bulle", "longitude": 7.057726799999999, "latitude": 46.6154512, "date": {"sam. 17.11.2012": {"weekday": "saturday", "year": 2012, "categories": {"CM-U18": {"pace": 198000000000, "rank": 1, "distance": 5, "time": 1022.7}}, "day": 17, "month": 11, "livingplace": "St Triphon"}}, "location": "Bulle"}, "Tour du Chablais #4 Champ\u00e9ry": {"race": "Tour du Chablais #4 Champ\u00e9ry", "date": {"mer. 02.05.2012": {"weekday": "wednesday", "year": 2012, "categories": {"M-EC1": {"pace": 202000000000, "rank": 1, "distance": 3, "time": 646.7}}, "day": 2, "month": 5, "livingplace": "St Triphon"}}, "location": "Les Mosses"}, "Tour du Chablais #2 Bex": {"race": "Tour du Chablais #2 Bex", "longitude": 6.854975199999999, "latitude": 46.3835529, "date": {"mer. 18.04.2012": {"weekday": "wednesday", "year": 2012, "categories": {"M-EC1": {"pace": 200000000000, "rank": 3, "distance": 3, "time": 682.6}}, "day": 18, "month": 4, "livingplace": "St Triphon"}}, "location": "Bouveret"}, "Int  Bieler Cross, Biel-Bienne": {"race": "Int  Bieler Cross, Biel-Bienne", "longitude": 7.2467909, "latitude": 47.1367785, "date": {"dim. 09.11.2014": {"weekday": "sunday", "year": 2014, "categories": {"U20-M": {"pace": 191000000000, "rank": 3, "distance": 6, "time": 1224.6}}, "day": 9, "month": 11, "livingplace": "Monthey"}}, "location": "Biel/Bienne"}, "Tour du Chablais #5 Bex": {"race": "Tour du Chablais #5 Bex", "longitude": 6.931504599999999, "latitude": 46.3603257, "date": {"mer. 09.05.2012": {"weekday": "wednesday", "year": 2012, "categories": {"M-Jun": {"pace": 210000000000, "rank": 1, "distance": 9, "time": 1863.7}}, "day": 9, "month": 5, "livingplace": "St Triphon"}}, "location": "Roche VD"}, "Tour du Chablais #6 Montreux": {"race": "Tour du Chablais #6 Montreux", "longitude": 6.970566, "latitude": 46.3190253, "date": {"mer. 16.05.2012": {"weekday": "wednesday", "year": 2012, "categories": {"M-EC1": {"pace": 196000000000, "rank": 1, "distance": 3, "time": 619.1}}, "day": 16, "month": 5, "livingplace": "St Triphon"}}, "location": "Aigle"}, "Montreux - Les Rochers de Naye": {"race": "Montreux - Les Rochers de Naye", "longitude": 6.9106799, "latitude": 46.4312213, "date": {"dim. 08.07.2012": {"weekday": "sunday", "year": 2012, "categories": {"C-HJun": {"pace": 347000000000, "rank": 1, "distance": 10, "time": 3299.6}}, "day": 8, "month": 7, "livingplace": "St Triphon"}, "dim. 10.07.2011": {"weekday": "sunday", "year": 2011, "categories": {"C-HJun": {"pace": 396000000000, "rank": 2, "distance": 10, "time": 3770.8}}, "day": 10, "month": 7, "livingplace": "St Triphon"}}, "location": "Montreux"}, "Tour du Chablais #6 Mouthey": {"race": "Tour du Chablais #6 Mouthey", "longitude": 6.970566, "latitude": 46.3190253, "date": {"mer. 12.05.2010": {"weekday": "wednesday", "year": 2010, "categories": {"M-EC2": {"pace": 223000000000, "rank": 5, "distance": 3, "time": 715.4}}, "day": 12, "month": 5, "livingplace": "St Triphon"}}, "location": "Aigle"}, "Sierre-Zinal, Sierre": {"race": "Sierre-Zinal, Sierre", "longitude": 7.533536199999999, "latitude": 46.29413110000001, "date": {"dim. 12.08.2012": {"weekday": "sunday", "year": 2012, "categories": {"Jun_Homm": {"pace": 318000000000, "rank": 10, "distance": 19, "time": 6047.7}}, "day": 12, "month": 8, "livingplace": "St Triphon"}}, "location": "Sierre"}, "Lausanne Marathon": {"race": "Lausanne Marathon", "longitude": 6.6322734, "latitude": 46.5196535, "date": {"dim. 26.10.2014": {"weekday": "sunday", "year": 2014, "categories": {"10-JunG": {"pace": 194000000000, "rank": 1, "distance": 10, "time": 1942.0}}, "day": 26, "month": 10, "livingplace": "St Triphon"}}, "location": "Lausanne"}, "Tour du Chablais #2 Rennaz": {"race": "Tour du Chablais #2 Rennaz", "longitude": 6.854975199999999, "latitude": 46.3835529, "date": {"mer. 04.05.2011": {"weekday": "wednesday", "year": 2011, "categories": {"M-EC1": {"pace": 216000000000, "rank": 4, "distance": 3, "time": 690.7}}, "day": 4, "month": 5, "livingplace": "St Triphon"}}, "location": "Bouveret"}}, "name": "Bohren Ma\u00ebl", "birth": 1996}