{"sex": "M", "races": {"BCN Tour Les Ponts de Martel": {"race": "BCN Tour Les Ponts de Martel", "longitude": 6.6324944, "latitude": 46.9262933, "date": {"mer. 18.05.2011": {"weekday": "wednesday", "year": 2011, "categories": {"HS1": {"pace": 274000000000, "rank": 54, "distance": 13, "time": 3510.6}}, "day": 18, "month": 5, "livingplace": "Geneve"}}, "location": "Couvet"}, "BCN Tour M\u00f4tier": {"race": "BCN Tour M\u00f4tier", "longitude": 6.6324944, "latitude": 46.9262933, "date": {"mer. 19.05.2010": {"weekday": "wednesday", "year": 2010, "categories": {"HS1": {"pace": 291000000000, "rank": 125, "distance": 10, "time": 2888.3}}, "day": 19, "month": 5, "livingplace": "Geneve"}}, "location": "Couvet"}, "BCN Tour Auvernier": {"race": "BCN Tour Auvernier", "longitude": 6.8589727, "latitude": 46.9668714, "date": {"mer. 20.04.2011": {"weekday": "wednesday", "year": 2011, "categories": {"HS1": {"pace": 295000000000, "rank": 101, "distance": 11, "time": 3189.9}}, "day": 20, "month": 4, "livingplace": "Geneve"}}, "location": "Colombier NE"}, "BCN Tour Ponts-de-Martel": {"race": "BCN Tour Ponts-de-Martel", "longitude": 6.9175754, "latitude": 47.0624261, "date": {"mer. 28.04.2010": {"weekday": "wednesday", "year": 2010, "categories": {"HS1": {"pace": 286000000000, "rank": 74, "distance": 11, "time": 3208.4}}, "day": 28, "month": 4, "livingplace": "Geneve"}}, "location": "Ch\u00e9zard-St-Martin"}, "BCN Tour Fontaine Cernier": {"race": "BCN Tour Fontaine Cernier", "longitude": 6.9175754, "latitude": 47.0624261, "date": {"mer. 27.04.2011": {"weekday": "wednesday", "year": 2011, "categories": {"HS1": {"pace": 259000000000, "rank": 67, "distance": 10, "time": 2671.7}}, "day": 27, "month": 4, "livingplace": "Geneve"}}, "location": "Ch\u00e9zard-St-Martin"}, "BCN Tour Couvet": {"race": "BCN Tour Couvet", "longitude": 6.9175754, "latitude": 47.0624261, "date": {"mer. 02.05.2012": {"weekday": "wednesday", "year": 2012, "categories": {"HS1": {"pace": 296000000000, "rank": 111, "distance": 11, "time": 3308.6}}, "day": 2, "month": 5, "livingplace": "Geneve"}}, "location": "Ch\u00e9zard-St-Martin"}, "BCN Tour Cornaux": {"race": "BCN Tour Cornaux", "longitude": 6.8589727, "latitude": 46.9668714, "date": {"mer. 25.04.2012": {"weekday": "wednesday", "year": 2012, "categories": {"HS1": {"pace": 308000000000, "rank": 79, "distance": 11, "time": 3392.4}}, "day": 25, "month": 4, "livingplace": "Geneve"}}, "location": "Colombier NE"}, "BCN Tour La Br\u00e9vine": {"race": "BCN Tour La Br\u00e9vine", "longitude": 6.733554799999999, "latitude": 46.999113, "date": {"mer. 04.05.2011": {"weekday": "wednesday", "year": 2011, "categories": {"HS1": {"pace": 279000000000, "rank": 79, "distance": 10, "time": 2797.4}}, "day": 4, "month": 5, "livingplace": "Geneve"}}, "location": "Les Ponts-de-Martel"}, "BCN Tour Neuch\u00e2tel": {"race": "BCN Tour Neuch\u00e2tel", "longitude": 6.9292732, "latitude": 46.9899874, "date": {"mer. 25.05.2011": {"weekday": "wednesday", "year": 2011, "categories": {"HS1": {"pace": 271000000000, "rank": 68, "distance": 11, "time": 3091.5}}, "day": 25, "month": 5, "livingplace": "Geneve"}, "mer. 26.05.2010": {"weekday": "wednesday", "year": 2010, "categories": {"HS1": {"pace": 299000000000, "rank": 87, "distance": 10, "time": 2909.7}}, "day": 26, "month": 5, "livingplace": "Geneve"}, "mer. 30.05.2012": {"weekday": "wednesday", "year": 2012, "categories": {"HS1": {"pace": 290000000000, "rank": 82, "distance": 11, "time": 3257.0}}, "day": 30, "month": 5, "livingplace": "Geneve"}}, "location": "Neuch\u00e2tel"}, "BCN Tour Le Locle": {"race": "BCN Tour Le Locle", "longitude": 6.733554799999999, "latitude": 46.999113, "date": {"mer. 05.05.2010": {"weekday": "wednesday", "year": 2010, "categories": {"HS1": {"pace": 275000000000, "rank": 67, "distance": 11, "time": 2999.2}}, "day": 5, "month": 5, "livingplace": "Geneve"}}, "location": "Les Ponts-de-Martel"}, "Stralugano, Lugano": {"race": "Stralugano, Lugano", "longitude": 8.951051999999999, "latitude": 46.0036778, "date": {"dim. 26.09.2010": {"weekday": "sunday", "year": 2010, "categories": {"30-M20": {"pace": 386000000000, "rank": 268, "distance": 30, "time": 11602.5}}, "day": 26, "month": 9, "livingplace": "Geneve"}}, "location": "Lugano"}, "BCN Tour Colombier": {"race": "BCN Tour Colombier", "longitude": 6.8589727, "latitude": 46.9668714, "date": {"mer. 16.05.2012": {"weekday": "wednesday", "year": 2012, "categories": {"HS1": {"pace": 287000000000, "rank": 109, "distance": 11, "time": 3103.3}}, "day": 16, "month": 5, "livingplace": "Geneve"}, "mer. 21.04.2010": {"weekday": "wednesday", "year": 2010, "categories": {"HS1": {"pace": 304000000000, "rank": 71, "distance": 10, "time": 3041.7}}, "day": 21, "month": 4, "livingplace": "Geneve"}}, "location": "Colombier NE"}, "BCN Tour La Chaux-de-Fonds": {"race": "BCN Tour La Chaux-de-Fonds", "longitude": 6.832783800000001, "latitude": 47.1034892, "date": {"mer. 11.05.2011": {"weekday": "wednesday", "year": 2011, "categories": {"HS1": {"pace": 305000000000, "rank": 61, "distance": 11, "time": 3269.6}}, "day": 11, "month": 5, "livingplace": "Geneve"}, "mer. 23.05.2012": {"weekday": "wednesday", "year": 2012, "categories": {"HS1": {"pace": 291000000000, "rank": 120, "distance": 11, "time": 3146.9}}, "day": 23, "month": 5, "livingplace": "Geneve"}}, "location": "La Chaux-de-Fonds"}, "Jungfrau-Marathon, Interlaken": {"race": "Jungfrau-Marathon, Interlaken", "date": {"sam. 08.09.2012": {"weekday": "saturday", "year": 2012, "categories": {"SO-M20": {"pace": 465000000000, "rank": 817, "distance": 42, "time": 19623.5}}, "day": 8, "month": 9, "livingplace": "Geneve"}, "sam. 10.09.2011": {"weekday": "saturday", "year": 2011, "categories": {"M20": {"pace": 456000000000, "rank": 543, "distance": 42, "time": 19252.2}}, "day": 10, "month": 9, "livingplace": "Geneve"}}, "location": "Interlaken"}, "Aletsch-Halbmarathon, Bettmeralp": {"race": "Aletsch-Halbmarathon, Bettmeralp", "date": {"dim. 27.06.2010": {"weekday": "sunday", "year": 2010, "categories": {"M30": {"pace": 410000000000, "rank": 98, "distance": 21, "time": 8616.3}}, "day": 27, "month": 6, "livingplace": "Geneve"}}, "location": "Bettmeralp"}, "BCN Tour La Chaux-de-fonds": {"race": "BCN Tour La Chaux-de-fonds", "longitude": 6.832783800000001, "latitude": 47.1034892, "date": {"mer. 12.05.2010": {"weekday": "wednesday", "year": 2010, "categories": {"HS1": {"pace": 330000000000, "rank": 62, "distance": 11, "time": 3537.9}}, "day": 12, "month": 5, "livingplace": "Geneve"}}, "location": "La Chaux-de-Fonds"}}, "name": "Boillat Pierre", "birth": 1976}