{"sex": "M", "races": {"Tour du Pays de Vaud #3 - Mezi\u00e8res": {"race": "Tour du Pays de Vaud #3 - Mezi\u00e8res", "longitude": 6.641183, "latitude": 46.7784736, "date": {"mer. 22.08.2012": {"weekday": "wednesday", "year": 2012, "categories": {"H-Sen1": {"pace": 329000000000, "rank": 119, "distance": 8, "time": 2767.1}}, "day": 22, "month": 8, "livingplace": "Lausanne"}}, "location": "Yverdon-les-Bains"}, "20km de Lausanne": {"race": "20km de Lausanne", "longitude": 6.6322734, "latitude": 46.5196535, "date": {"sam. 25.04.2015": {"weekday": "saturday", "year": 2015, "categories": {"20-H30": {"pace": 311000000000, "rank": 702, "distance": 20, "time": 6232.7}}, "day": 25, "month": 4, "livingplace": "Lausanne"}}, "location": "Lausanne"}, "Tour du Pays de Vaud #2 - Genolier": {"race": "Tour du Pays de Vaud #2 - Genolier", "longitude": 6.7702883, "latitude": 46.5955273, "date": {"mer. 15.08.2012": {"weekday": "wednesday", "year": 2012, "categories": {"H-Sen1": {"pace": 304000000000, "rank": 118, "distance": 9, "time": 2588.4}}, "day": 15, "month": 8, "livingplace": "Lausanne"}}, "location": "M\u00e9zi\u00e8res VD"}, "Tour du Pays de Vaud etape 5 - La Sarraz": {"race": "Tour du Pays de Vaud etape 5 - La Sarraz", "longitude": 6.539251200000001, "latitude": 46.5993131, "date": {"mer. 09.09.2009": {"weekday": "wednesday", "year": 2009, "categories": {"Hom": {"pace": 346000000000, "rank": 69, "distance": 9, "time": 2913.4}}, "day": 9, "month": 9, "livingplace": "Lausanne"}}, "location": "Penthaz"}, "Lausanne Marathon": {"race": "Lausanne Marathon", "longitude": 6.6322734, "latitude": 46.5196535, "date": {"dim. 28.10.2012": {"weekday": "sunday", "year": 2012, "categories": {"21-H2": {"pace": 340000000000, "rank": 740, "distance": 21, "time": 7175.6}}, "day": 28, "month": 10, "livingplace": "Lausanne"}, "dim. 30.10.2011": {"weekday": "sunday", "year": 2011, "categories": {"21-H2": {"pace": 337000000000, "rank": 751, "distance": 21, "time": 7112.3}}, "day": 30, "month": 10, "livingplace": "Lausanne"}}, "location": "Lausanne"}, "Tour du pays de Vaud #1 - Penthaz": {"race": "Tour du pays de Vaud #1 - Penthaz", "longitude": 6.539251200000001, "latitude": 46.5993131, "date": {"mer. 08.08.2012": {"weekday": "wednesday", "year": 2012, "categories": {"H-Sen1": {"pace": 315000000000, "rank": 134, "distance": 9, "time": 2695.1}}, "day": 8, "month": 8, "livingplace": "Lausanne"}}, "location": "Penthaz"}, "Morat-Fribourg": {"race": "Morat-Fribourg", "longitude": 7.120184, "latitude": 46.92922110000001, "date": {"sam. 03.10.2009": {"weekday": "saturday", "year": 2009, "categories": {"C-M20": {"pace": 364000000000, "rank": 1816, "distance": 17, "time": 6254.1}}, "day": 3, "month": 10, "livingplace": "Lausanne"}, "sam. 06.10.2012": {"weekday": "saturday", "year": 2012, "categories": {"17-M20": {"pace": 330000000000, "rank": 1479, "distance": 17, "time": 5774.0}}, "day": 6, "month": 10, "livingplace": "Lausanne"}}, "location": "Murten"}, "Aletsch-Halbmarathon, Bettmeralp": {"race": "Aletsch-Halbmarathon, Bettmeralp", "date": {"dim. 28.06.2015": {"weekday": "sunday", "year": 2015, "categories": {"M35": {"pace": 500000000000, "rank": 146, "distance": 21, "time": 10570.9}}, "day": 28, "month": 6, "livingplace": "Lausanne"}}, "location": "Bettmeralp"}}, "name": "B\u00f4le Pierre-Aur\u00e9lien", "birth": 1980}