{"sex": "F", "races": {"Corrida Bulloise, Bulle": {"race": "Corrida Bulloise, Bulle", "longitude": 7.057726799999999, "latitude": 46.6154512, "date": {"sam. 19.11.2011": {"weekday": "saturday", "year": 2011, "categories": {"F20": {"pace": 357000000000, "rank": 174, "distance": 6, "time": 2199.9}}, "day": 19, "month": 11, "livingplace": "Chatel St Denis"}}, "location": "Bulle"}, "Tour du Chablais #4 Champ\u00e9ry": {"race": "Tour du Chablais #4 Champ\u00e9ry", "date": {"mer. 02.05.2012": {"weekday": "wednesday", "year": 2012, "categories": {"F-F20": {"pace": 347000000000, "rank": 93, "distance": 8, "time": 2880.1}}, "day": 2, "month": 5, "livingplace": "Chatel St Denis"}}, "location": "Les Mosses"}, "Tour du Chablais #4 Yvorne": {"race": "Tour du Chablais #4 Yvorne", "date": {"mer. 28.04.2010": {"weekday": "wednesday", "year": 2010, "categories": {"F-F20": {"pace": 406000000000, "rank": 101, "distance": 8, "time": 3363.0}}, "day": 28, "month": 4, "livingplace": "Chatel St Denis"}}, "location": "Les Mosses"}, "Tour du Chablais #6 Montreux": {"race": "Tour du Chablais #6 Montreux", "longitude": 6.970566, "latitude": 46.3190253, "date": {"mer. 16.05.2012": {"weekday": "wednesday", "year": 2012, "categories": {"F-F20": {"pace": 338000000000, "rank": 95, "distance": 9, "time": 3131.8}}, "day": 16, "month": 5, "livingplace": "Chatel St Denis"}}, "location": "Aigle"}, "Tour du Chablais #2 Bex": {"race": "Tour du Chablais #2 Bex", "longitude": 6.854975199999999, "latitude": 46.3835529, "date": {"mer. 18.04.2012": {"weekday": "wednesday", "year": 2012, "categories": {"F-F20": {"pace": 349000000000, "rank": 106, "distance": 8, "time": 2797.7}}, "day": 18, "month": 4, "livingplace": "Chatel St Denis"}}, "location": "Bouveret"}, "Morat-Fribourg": {"race": "Morat-Fribourg", "longitude": 7.120184, "latitude": 46.92922110000001, "date": {"sam. 06.10.2007": {"weekday": "saturday", "year": 2007, "categories": {"C/W20": {"pace": 421000000000, "rank": 409, "distance": 17, "time": 7229.2}}, "day": 6, "month": 10, "livingplace": "Chernex"}}, "location": "Murten"}, "20km de Lausanne": {"race": "20km de Lausanne", "longitude": 6.6322734, "latitude": 46.5196535, "date": {"sam. 25.04.2009": {"weekday": "saturday", "year": 2009, "categories": {"10-F30": {"pace": 362000000000, "rank": 331, "distance": 10, "time": 3628.7}}, "day": 25, "month": 4, "livingplace": "Chernex"}, "sam. 28.04.2007": {"weekday": "saturday", "year": 2007, "categories": {"10F20": {"pace": 357000000000, "rank": 215, "distance": 10, "time": 3576.5}}, "day": 28, "month": 4, "livingplace": "Chernex"}, "sam. 28.04.2012": {"weekday": "saturday", "year": 2012, "categories": {"20-F30": {"pace": 382000000000, "rank": 174, "distance": 20, "time": 7654.1}}, "day": 28, "month": 4, "livingplace": "Chatel St Denis"}, "sam. 22.04.2006": {"weekday": "saturday", "year": 2006, "categories": {"10/F20": {"pace": 355000000000, "rank": 141, "distance": 10, "time": 3555.5}}, "day": 22, "month": 4, "livingplace": "Chernex"}}, "location": "Lausanne"}, "Tour du Chablais #2 St-Gingolph": {"race": "Tour du Chablais #2 St-Gingolph", "longitude": 6.854975199999999, "latitude": 46.3835529, "date": {"mer. 14.04.2010": {"weekday": "wednesday", "year": 2010, "categories": {"F-F20": {"pace": 419000000000, "rank": 104, "distance": 8, "time": 3505.7}}, "day": 14, "month": 4, "livingplace": "Chatel St Denis"}}, "location": "Bouveret"}, "Tour du Chablais #5 Leysin": {"race": "Tour du Chablais #5 Leysin", "longitude": 6.931504599999999, "latitude": 46.3603257, "date": {"mer. 05.05.2010": {"weekday": "wednesday", "year": 2010, "categories": {"F-F20": {"pace": 406000000000, "rank": 80, "distance": 8, "time": 3433.8}}, "day": 5, "month": 5, "livingplace": "Chatel St Denis"}}, "location": "Roche VD"}, "Tour du Chablais #5 Les Mosses": {"race": "Tour du Chablais #5 Les Mosses", "longitude": 6.931504599999999, "latitude": 46.3603257, "date": {"mer. 25.05.2011": {"weekday": "wednesday", "year": 2011, "categories": {"F-F20": {"pace": 405000000000, "rank": 103, "distance": 8, "time": 3243.9}}, "day": 25, "month": 5, "livingplace": "Chatel St Denis"}}, "location": "Roche VD"}, "Tour du Chablais #5 Bex": {"race": "Tour du Chablais #5 Bex", "longitude": 6.931504599999999, "latitude": 46.3603257, "date": {"mer. 09.05.2012": {"weekday": "wednesday", "year": 2012, "categories": {"F-F20": {"pace": 335000000000, "rank": 78, "distance": 9, "time": 2974.0}}, "day": 9, "month": 5, "livingplace": "Chatel St Denis"}}, "location": "Roche VD"}, "Tour du Chablais #1 Montreux": {"race": "Tour du Chablais #1 Montreux", "longitude": 6.9916269, "latitude": 46.2957462, "date": {"mer. 11.04.2012": {"weekday": "wednesday", "year": 2012, "categories": {"F-F20": {"pace": 366000000000, "rank": 108, "distance": 8, "time": 2788.0}}, "day": 11, "month": 4, "livingplace": "Chatel St Denis"}}, "location": "Ollon VD"}, "Tour du Chablais #6 Mouthey": {"race": "Tour du Chablais #6 Mouthey", "longitude": 6.970566, "latitude": 46.3190253, "date": {"mer. 12.05.2010": {"weekday": "wednesday", "year": 2010, "categories": {"F-F20": {"pace": 361000000000, "rank": 106, "distance": 9, "time": 3320.3}}, "day": 12, "month": 5, "livingplace": "Chatel St Denis"}}, "location": "Aigle"}, "Tour du Chablais #2 Rennaz": {"race": "Tour du Chablais #2 Rennaz", "longitude": 6.854975199999999, "latitude": 46.3835529, "date": {"mer. 04.05.2011": {"weekday": "wednesday", "year": 2011, "categories": {"F-F20": {"pace": 375000000000, "rank": 115, "distance": 9, "time": 3514.8}}, "day": 4, "month": 5, "livingplace": "Chatel St Denis"}}, "location": "Bouveret"}}, "name": "Borloz Aline", "birth": 1978}