{"sex": "M", "races": {"Bieler Lauftage, Biel Bienne": {"race": "Bieler Lauftage, Biel Bienne", "longitude": 7.2467909, "latitude": 47.1367785, "date": {"jeu. 11.06.2015": {"weekday": "thursday", "year": 2015, "categories": {"H-M45": {"pace": 300000000000, "rank": 28, "distance": 21, "time": 6333.8}}, "day": 11, "month": 6, "livingplace": "Wolfwil"}}, "location": "Biel/Bienne"}, "Lenzburger Lauf": {"race": "Lenzburger Lauf", "longitude": 8.172154500000001, "latitude": 47.3904443, "date": {"sam. 24.05.2014": {"weekday": "saturday", "year": 2014, "categories": {"Jog-M": {"pace": 316000000000, "rank": 22, "distance": 5, "time": 1675.9}}, "day": 24, "month": 5, "livingplace": "Wolfwil"}}, "location": "Lenzburg"}, "Hallwilerseelauf, Beinwil am See": {"race": "Hallwilerseelauf, Beinwil am See", "date": {"sam. 11.10.2014": {"weekday": "saturday", "year": 2014, "categories": {"10-Mann": {"pace": 276000000000, "rank": 201, "distance": 10, "time": 2764.6}}, "day": 11, "month": 10, "livingplace": "Wolfwil"}, "sam. 10.10.2015": {"weekday": "saturday", "year": 2015, "categories": {"10-Mann": {"pace": 264000000000, "rank": 170, "distance": 10, "time": 2640.9}}, "day": 10, "month": 10, "livingplace": "Wolfwil"}}, "location": "Beinwil am See"}, "Lausanne Marathon": {"race": "Lausanne Marathon", "longitude": 6.6322734, "latitude": 46.5196535, "date": {"sam. 24.10.2015": {"weekday": "saturday", "year": 2015, "categories": {"21-H40": {"pace": 280000000000, "rank": 148, "distance": 21, "time": 5918.2}}, "day": 24, "month": 10, "livingplace": "Wolfwil"}}, "location": "Lausanne"}, "Winterthur Marathon": {"race": "Winterthur Marathon", "longitude": -75.6037351, "latitude": 39.8088766, "date": {"dim. 31.05.2015": {"weekday": "sunday", "year": 2015, "categories": {"10-M40": {"pace": 274000000000, "rank": 11, "distance": 10, "time": 2741.3}}, "day": 31, "month": 5, "livingplace": "Olten"}}, "location": "Winterthur"}, "Z\u00fcrcher Silvesterlauf, Z\u00fcrich": {"race": "Z\u00fcrcher Silvesterlauf, Z\u00fcrich", "longitude": 8.541694, "latitude": 47.3768866, "date": {"dim. 14.12.2014": {"weekday": "sunday", "year": 2014, "categories": {"10-M40": {"pace": 275000000000, "rank": 401, "distance": 10, "time": 2753.0}}, "day": 14, "month": 12, "livingplace": "Wolfwil"}}, "location": "Z\u00fcrich"}}, "name": "Bosco Bruno", "birth": 1970}