{"sex": "F", "races": {"Tour du Pays de Vaud etape 1 - Le Mont sur Lausanne": {"race": "Tour du Pays de Vaud etape 1 - Le Mont sur Lausanne", "longitude": 6.641183, "latitude": 46.7784736, "date": {"mer. 13.08.2008": {"weekday": "wednesday", "year": 2008, "categories": {"Dam": {"pace": 280000000000, "rank": 4, "distance": 8, "time": 2353.1}}, "day": 13, "month": 8, "livingplace": "Yverdon les Bains"}}, "location": "Yverdon-les-Bains"}, "Tour du Pays de Vaud etape 3 - Aubonne": {"race": "Tour du Pays de Vaud etape 3 - Aubonne", "longitude": 6.5728678, "latitude": 46.7829756, "date": {"mer. 27.08.2008": {"weekday": "wednesday", "year": 2008, "categories": {"Dam": {"pace": 298000000000, "rank": 3, "distance": 8, "time": 2330.8}}, "day": 27, "month": 8, "livingplace": "Yverdon les Bains"}}, "location": "Champvent"}, "20km de Lausanne": {"race": "20km de Lausanne", "longitude": 6.6322734, "latitude": 46.5196535, "date": {"sam. 24.04.2010": {"weekday": "saturday", "year": 2010, "categories": {"10-F20": {"pace": 310000000000, "rank": 75, "distance": 10, "time": 3106.0}}, "day": 24, "month": 4, "livingplace": "Ton Hopital se bouge"}}, "location": "Lausanne"}, "Tour du Chablais #4 Yvorne": {"race": "Tour du Chablais #4 Yvorne", "date": {"mer. 28.04.2010": {"weekday": "wednesday", "year": 2010, "categories": {"F-F20": {"pace": 309000000000, "rank": 23, "distance": 8, "time": 2564.6}}, "day": 28, "month": 4, "livingplace": "Puidoux Gare"}}, "location": "Les Mosses"}, "Tour du Pays de Vaud etape 5 - La Sarraz": {"race": "Tour du Pays de Vaud etape 5 - La Sarraz", "longitude": 6.539251200000001, "latitude": 46.5993131, "date": {"mer. 10.09.2008": {"weekday": "wednesday", "year": 2008, "categories": {"Dam": {"pace": 276000000000, "rank": 5, "distance": 9, "time": 2381.6}}, "day": 10, "month": 9, "livingplace": "Yverdon les Bains"}}, "location": "Penthaz"}, "Tour du Chablais #1 Roche": {"race": "Tour du Chablais #1 Roche", "longitude": 6.9916269, "latitude": 46.2957462, "date": {"mer. 07.04.2010": {"weekday": "wednesday", "year": 2010, "categories": {"F-F20": {"pace": 297000000000, "rank": 34, "distance": 9, "time": 2660.2}}, "day": 7, "month": 4, "livingplace": "Puidoux Gare"}}, "location": "Ollon VD"}, "Kerzerslauf": {"race": "Kerzerslauf", "longitude": 7.1954365, "latitude": 46.97488999999999, "date": {"sam. 20.03.2004": {"weekday": "saturday", "year": 2004, "categories": {"F20": {"pace": 296000000000, "rank": 92, "distance": 15, "time": 4444.3}}, "day": 20, "month": 3, "livingplace": "Yverdon les Bains"}, "sam. 17.03.2007": {"weekday": "saturday", "year": 2007, "categories": {"F20": {"pace": 289000000000, "rank": 82, "distance": 15, "time": 4345.6}}, "day": 17, "month": 3, "livingplace": "Yverdon les Bains"}}, "location": "Kerzers"}, "Tour du Pays de Vaud etape 2 - Genolier": {"race": "Tour du Pays de Vaud etape 2 - Genolier", "longitude": 6.7702883, "latitude": 46.5955273, "date": {"mer. 20.08.2008": {"weekday": "wednesday", "year": 2008, "categories": {"Dam": {"pace": 288000000000, "rank": 5, "distance": 8, "time": 2397.8}}, "day": 20, "month": 8, "livingplace": "Yverdon les Bains"}}, "location": "M\u00e9zi\u00e8res VD"}, "Tour du Chablais #6 Mouthey": {"race": "Tour du Chablais #6 Mouthey", "longitude": 6.970566, "latitude": 46.3190253, "date": {"mer. 12.05.2010": {"weekday": "wednesday", "year": 2010, "categories": {"F-F20": {"pace": 293000000000, "rank": 32, "distance": 9, "time": 2697.6}}, "day": 12, "month": 5, "livingplace": "Puidoux Gare"}}, "location": "Aigle"}}, "name": "Bosshard St\u00e9phanie", "birth": 1984}