{"sex": "M", "races": {"Tour du Chablais #5 Leysin": {"race": "Tour du Chablais #5 Leysin", "longitude": 6.931504599999999, "latitude": 46.3603257, "date": {"mer. 05.05.2010": {"weekday": "wednesday", "year": 2010, "categories": {"M-M50": {"pace": 249000000000, "rank": 2, "distance": 8, "time": 2108.9}}, "day": 5, "month": 5, "livingplace": "Salvan"}}, "location": "Roche VD"}, "Tour du Chablais #4 Yvorne": {"race": "Tour du Chablais #4 Yvorne", "date": {"mer. 28.04.2010": {"weekday": "wednesday", "year": 2010, "categories": {"M-M50": {"pace": 246000000000, "rank": 3, "distance": 8, "time": 2044.8}}, "day": 28, "month": 4, "livingplace": "Salvan"}}, "location": "Les Mosses"}, "Tour du Chablais #1 Roche": {"race": "Tour du Chablais #1 Roche", "longitude": 6.9916269, "latitude": 46.2957462, "date": {"mer. 07.04.2010": {"weekday": "wednesday", "year": 2010, "categories": {"M-M50": {"pace": 232000000000, "rank": 2, "distance": 9, "time": 2076.6}}, "day": 7, "month": 4, "livingplace": "Salvan"}}, "location": "Ollon VD"}, "Morat-Fribourg": {"race": "Morat-Fribourg", "longitude": 7.120184, "latitude": 46.92922110000001, "date": {"dim. 07.10.2001": {"weekday": "sunday", "year": 2001, "categories": {"M45": {"pace": 237000000000, "rank": 17, "distance": 17, "time": 4080.0}}, "day": 7, "month": 10, "livingplace": "Salvan"}, "sam. 03.10.2009": {"weekday": "saturday", "year": 2009, "categories": {"C-M50": {"pace": 257000000000, "rank": 27, "distance": 17, "time": 4416.7}}, "day": 3, "month": 10, "livingplace": "Salvan"}, "dim. 06.10.2002": {"weekday": "sunday", "year": 2002, "categories": {"M45": {"pace": 229000000000, "rank": 6, "distance": 17, "time": 3944.4}}, "day": 6, "month": 10, "livingplace": "Salvan"}}, "location": "Murten"}, "Tour du Chablais #6 Aigle": {"race": "Tour du Chablais #6 Aigle", "longitude": 6.970566, "latitude": 46.3190253, "date": {"mer. 01.06.2011": {"weekday": "wednesday", "year": 2011, "categories": {"M-M50": {"pace": 234000000000, "rank": 10, "distance": 10, "time": 2392.1}}, "day": 1, "month": 6, "livingplace": "Salvan"}}, "location": "Aigle"}, "Tour du Chablais #4 Morgins": {"race": "Tour du Chablais #4 Morgins", "date": {"mer. 18.05.2011": {"weekday": "wednesday", "year": 2011, "categories": {"M-M50": {"pace": 252000000000, "rank": 7, "distance": 8, "time": 2108.7}}, "day": 18, "month": 5, "livingplace": "Salvan"}}, "location": "Les Mosses"}, "Tour du Chablais #6 Mouthey": {"race": "Tour du Chablais #6 Mouthey", "longitude": 6.970566, "latitude": 46.3190253, "date": {"mer. 12.05.2010": {"weekday": "wednesday", "year": 2010, "categories": {"M-M50": {"pace": 227000000000, "rank": 4, "distance": 9, "time": 2089.7}}, "day": 12, "month": 5, "livingplace": "Salvan"}}, "location": "Aigle"}, "Tour du Chablais #5 Les Mosses": {"race": "Tour du Chablais #5 Les Mosses", "longitude": 6.931504599999999, "latitude": 46.3603257, "date": {"mer. 25.05.2011": {"weekday": "wednesday", "year": 2011, "categories": {"M-M50": {"pace": 255000000000, "rank": 8, "distance": 8, "time": 2045.8}}, "day": 25, "month": 5, "livingplace": "Salvan"}}, "location": "Roche VD"}, "Tour du Chablais #1 Lavey": {"race": "Tour du Chablais #1 Lavey", "longitude": 6.9916269, "latitude": 46.2957462, "date": {"mer. 27.04.2011": {"weekday": "wednesday", "year": 2011, "categories": {"M-M50": {"pace": 243000000000, "rank": 10, "distance": 9, "time": 2191.8}}, "day": 27, "month": 4, "livingplace": "Salvan"}}, "location": "Ollon VD"}, "Tour du Chablais #3 Bex": {"race": "Tour du Chablais #3 Bex", "longitude": 7.0223787, "latitude": 46.1782231, "date": {"mer. 21.04.2010": {"weekday": "wednesday", "year": 2010, "categories": {"M-M50": {"pace": 238000000000, "rank": 3, "distance": 10, "time": 2380.9}}, "day": 21, "month": 4, "livingplace": "Salvan"}}, "location": "Evionnaz"}, "Tour du Chablais #3 Le Bouveret": {"race": "Tour du Chablais #3 Le Bouveret", "longitude": 7.0223787, "latitude": 46.1782231, "date": {"mer. 11.05.2011": {"weekday": "wednesday", "year": 2011, "categories": {"M-M50": {"pace": 245000000000, "rank": 12, "distance": 10, "time": 2456.9}}, "day": 11, "month": 5, "livingplace": "Salvan"}}, "location": "Evionnaz"}, "Tour du Chablais #2 St-Gingolph": {"race": "Tour du Chablais #2 St-Gingolph", "longitude": 6.854975199999999, "latitude": 46.3835529, "date": {"mer. 14.04.2010": {"weekday": "wednesday", "year": 2010, "categories": {"M-M50": {"pace": 246000000000, "rank": 4, "distance": 8, "time": 2059.0}}, "day": 14, "month": 4, "livingplace": "Salvan"}}, "location": "Bouveret"}, "Internationaler Matterhornlauf, Zermatt": {"race": "Internationaler Matterhornlauf, Zermatt", "date": {"dim. 18.08.2002": {"weekday": "sunday", "year": 2002, "categories": {"MHL/M40": {"pace": 356000000000, "rank": 6, "distance": 14, "time": 5115.9}}, "day": 18, "month": 8, "livingplace": "Salvan"}}, "location": "Zermatt"}, "Tour du Chablais #2 Rennaz": {"race": "Tour du Chablais #2 Rennaz", "longitude": 6.854975199999999, "latitude": 46.3835529, "date": {"mer. 04.05.2011": {"weekday": "wednesday", "year": 2011, "categories": {"M-M50": {"pace": 241000000000, "rank": 12, "distance": 9, "time": 2253.8}}, "day": 4, "month": 5, "livingplace": "Salvan"}}, "location": "Bouveret"}}, "name": "Bossy Jean-Daniel", "birth": 1955}