{"sex": "M", "races": {"BCN Tour #4 Fleurier": {"race": "BCN Tour #4 Fleurier", "longitude": 6.832783800000001, "latitude": 47.1034892, "date": {"mer. 15.05.2013": {"weekday": "wednesday", "year": 2013, "categories": {"HV2": {"pace": 320000000000, "rank": 11, "distance": 9, "time": 2771.0}}, "day": 15, "month": 5, "livingplace": "Granges Narboz"}}, "location": "La Chaux-de-Fonds"}, "BCN Tour Les Ponts de Martel": {"race": "BCN Tour Les Ponts de Martel", "longitude": 6.6324944, "latitude": 46.9262933, "date": {"mer. 18.05.2011": {"weekday": "wednesday", "year": 2011, "categories": {"HV2": {"pace": 377000000000, "rank": 23, "distance": 13, "time": 4834.9}}, "day": 18, "month": 5, "livingplace": "Granges Narboz"}}, "location": "Couvet"}, "Course de l'Escalade, Gen\u00e8ve": {"race": "Course de l'Escalade, Gen\u00e8ve", "longitude": 6.1431577, "latitude": 46.2043907, "date": {"sam. 01.12.2012": {"weekday": "saturday", "year": 2012, "categories": {"Esc-Hom5": {"pace": 290000000000, "rank": 39, "distance": 7, "time": 2104.3}}, "day": 1, "month": 12, "livingplace": "Granges Narboz"}}, "location": "Gen\u00e8ve"}, "BCN Tour #1 Corcelles": {"race": "BCN Tour #1 Corcelles", "longitude": 6.8589727, "latitude": 46.9668714, "date": {"mer. 24.04.2013": {"weekday": "wednesday", "year": 2013, "categories": {"HV2": {"pace": 319000000000, "rank": 11, "distance": 10, "time": 3127.2}}, "day": 24, "month": 4, "livingplace": "Granges Narboz"}}, "location": "Colombier NE"}, "BCN Tour M\u00f4tier": {"race": "BCN Tour M\u00f4tier", "longitude": 6.6324944, "latitude": 46.9262933, "date": {"mer. 19.05.2010": {"weekday": "wednesday", "year": 2010, "categories": {"HV2": {"pace": 324000000000, "rank": 23, "distance": 10, "time": 3215.2}}, "day": 19, "month": 5, "livingplace": "Granges Narboz"}}, "location": "Couvet"}, "BCN Tour #3 Dombresson": {"race": "BCN Tour #3 Dombresson", "longitude": 6.733554799999999, "latitude": 46.999113, "date": {"mer. 08.05.2013": {"weekday": "wednesday", "year": 2013, "categories": {"HV2": {"pace": 315000000000, "rank": 14, "distance": 10, "time": 3126.8}}, "day": 8, "month": 5, "livingplace": "Granges Narboz"}}, "location": "Les Ponts-de-Martel"}, "BCN Tour Le Landeron": {"race": "BCN Tour Le Landeron", "longitude": 6.8589727, "latitude": 46.9668714, "date": {"mer. 22.04.2009": {"weekday": "wednesday", "year": 2009, "categories": {"HV2": {"pace": 319000000000, "rank": 18, "distance": 11, "time": 3546.8}}, "day": 22, "month": 4, "livingplace": "Granges Narboz"}}, "location": "Colombier NE"}, "Kerzerslauf": {"race": "Kerzerslauf", "longitude": 7.1954365, "latitude": 46.97488999999999, "date": {"sam. 17.03.2012": {"weekday": "saturday", "year": 2012, "categories": {"15-M65": {"pace": 319000000000, "rank": 30, "distance": 15, "time": 4798.7}}, "day": 17, "month": 3, "livingplace": "Granges Narboz"}}, "location": "Kerzers"}, "BCN Tour Couvet": {"race": "BCN Tour Couvet", "longitude": 6.9175754, "latitude": 47.0624261, "date": {"mer. 02.05.2012": {"weekday": "wednesday", "year": 2012, "categories": {"HV2": {"pace": 328000000000, "rank": 14, "distance": 11, "time": 3667.0}}, "day": 2, "month": 5, "livingplace": "Granges Narboz"}}, "location": "Ch\u00e9zard-St-Martin"}, "BCN Tour #2 La Chaux-de-Fonds": {"race": "BCN Tour #2 La Chaux-de-Fonds", "longitude": 6.9175754, "latitude": 47.0624261, "date": {"mer. 01.05.2013": {"weekday": "wednesday", "year": 2013, "categories": {"HV2": {"pace": 313000000000, "rank": 10, "distance": 11, "time": 3349.8}}, "day": 1, "month": 5, "livingplace": "Granges Narboz"}}, "location": "Ch\u00e9zard-St-Martin"}, "BCN Tour Cornaux": {"race": "BCN Tour Cornaux", "longitude": 6.8589727, "latitude": 46.9668714, "date": {"mer. 25.04.2012": {"weekday": "wednesday", "year": 2012, "categories": {"HV2": {"pace": 347000000000, "rank": 14, "distance": 11, "time": 3816.2}}, "day": 25, "month": 4, "livingplace": "Granges Narboz"}}, "location": "Colombier NE"}, "BCN Tour #5 Colombier": {"race": "BCN Tour #5 Colombier", "longitude": 6.6324944, "latitude": 46.9262933, "date": {"mer. 22.05.2013": {"weekday": "wednesday", "year": 2013, "categories": {"HV2": {"pace": 300000000000, "rank": 12, "distance": 11, "time": 3155.8}}, "day": 22, "month": 5, "livingplace": "Granges Narboz"}}, "location": "Couvet"}, "BCN Tour Neuch\u00e2tel": {"race": "BCN Tour Neuch\u00e2tel", "longitude": 6.9292732, "latitude": 46.9899874, "date": {"mer. 25.05.2011": {"weekday": "wednesday", "year": 2011, "categories": {"HV2": {"pace": 388000000000, "rank": 28, "distance": 11, "time": 4427.6}}, "day": 25, "month": 5, "livingplace": "Granges Narboz"}, "mer. 26.05.2010": {"weekday": "wednesday", "year": 2010, "categories": {"HV2": {"pace": 417000000000, "rank": 22, "distance": 10, "time": 4045.5}}, "day": 26, "month": 5, "livingplace": "Granges Narboz"}, "mer. 30.05.2012": {"weekday": "wednesday", "year": 2012, "categories": {"HV2": {"pace": 318000000000, "rank": 9, "distance": 11, "time": 3568.2}}, "day": 30, "month": 5, "livingplace": "Granges Narboz"}}, "location": "Neuch\u00e2tel"}, "Aletsch-Halbmarathon, Bettmeralp": {"race": "Aletsch-Halbmarathon, Bettmeralp", "date": {"dim. 24.06.2007": {"weekday": "sunday", "year": 2007, "categories": {"M60": {"pace": 538000000000, "rank": 35, "distance": 21, "time": 11309.9}}, "day": 24, "month": 6, "livingplace": "Granges Narboz"}}, "location": "Bettmeralp"}, "BCN Tour #6 Neuch\u00e2tel": {"race": "BCN Tour #6 Neuch\u00e2tel", "longitude": 6.9292732, "latitude": 46.9899874, "date": {"mer. 29.05.2013": {"weekday": "wednesday", "year": 2013, "categories": {"HV2": {"pace": 333000000000, "rank": 13, "distance": 11, "time": 3669.1}}, "day": 29, "month": 5, "livingplace": "Granges Narboz"}}, "location": "Neuch\u00e2tel"}, "BCN Tour La Chaux-de-Fonds": {"race": "BCN Tour La Chaux-de-Fonds", "longitude": 6.832783800000001, "latitude": 47.1034892, "date": {"mer. 11.05.2011": {"weekday": "wednesday", "year": 2011, "categories": {"HV2": {"pace": 427000000000, "rank": 27, "distance": 11, "time": 4573.8}}, "day": 11, "month": 5, "livingplace": "Granges Narboz"}, "mer. 23.05.2012": {"weekday": "wednesday", "year": 2012, "categories": {"HV2": {"pace": 330000000000, "rank": 13, "distance": 11, "time": 3566.1}}, "day": 23, "month": 5, "livingplace": "Granges Narboz"}}, "location": "La Chaux-de-Fonds"}, "BCN Tour Colombier": {"race": "BCN Tour Colombier", "longitude": 6.8589727, "latitude": 46.9668714, "date": {"mer. 16.05.2012": {"weekday": "wednesday", "year": 2012, "categories": {"HV2": {"pace": 307000000000, "rank": 11, "distance": 11, "time": 3326.1}}, "day": 16, "month": 5, "livingplace": "Granges Narboz"}, "mer. 23.04.2008": {"weekday": "wednesday", "year": 2008, "categories": {"HV2": {"pace": 332000000000, "rank": 15, "distance": 10, "time": 3392.1}}, "day": 23, "month": 4, "livingplace": "Granges Narboz"}}, "location": "Colombier NE"}, "Internationaler Matterhornlauf, Zermatt": {"race": "Internationaler Matterhornlauf, Zermatt", "date": {"sam. 21.08.2010": {"weekday": "saturday", "year": 2010, "categories": {"MHL-M60": {"pace": 506000000000, "rank": 24, "distance": 12, "time": 6325.5}}, "day": 21, "month": 8, "livingplace": "Granges Narboz"}}, "location": "Zermatt"}, "BCN Tour Les Ponts-de-Martel": {"race": "BCN Tour Les Ponts-de-Martel", "longitude": 6.733554799999999, "latitude": 46.999113, "date": {"mer. 09.05.2012": {"weekday": "wednesday", "year": 2012, "categories": {"HV2": {"pace": 323000000000, "rank": 12, "distance": 10, "time": 3332.2}}, "day": 9, "month": 5, "livingplace": "Granges Narboz"}}, "location": "Les Ponts-de-Martel"}, "BCN Tour Le Locle": {"race": "BCN Tour Le Locle", "longitude": 6.733554799999999, "latitude": 46.999113, "date": {"mer. 05.05.2010": {"weekday": "wednesday", "year": 2010, "categories": {"HV2": {"pace": 348000000000, "rank": 23, "distance": 11, "time": 3803.7}}, "day": 5, "month": 5, "livingplace": "Granges Narboz"}}, "location": "Les Ponts-de-Martel"}, "BCN Tour La Chaux-de-fonds": {"race": "BCN Tour La Chaux-de-fonds", "longitude": 6.832783800000001, "latitude": 47.1034892, "date": {"mer. 12.05.2010": {"weekday": "wednesday", "year": 2010, "categories": {"HV2": {"pace": 438000000000, "rank": 28, "distance": 11, "time": 4691.1}}, "day": 12, "month": 5, "livingplace": "Granges Narboz"}}, "location": "La Chaux-de-Fonds"}}, "name": "Boutte\u00e7on Christian", "birth": 1946}