{"sex": "M", "races": {"Tour du Chablais #3 Le Bouveret": {"race": "Tour du Chablais #3 Le Bouveret", "longitude": 7.0223787, "latitude": 46.1782231, "date": {"mer. 11.05.2011": {"weekday": "wednesday", "year": 2011, "categories": {"M-Jun": {"pace": 216000000000, "rank": 2, "distance": 10, "time": 2161.4}}, "day": 11, "month": 5, "livingplace": "Troistorrents"}}, "location": "Evionnaz"}, "Tour du Chablais #5 Leysin": {"race": "Tour du Chablais #5 Leysin", "longitude": 6.931504599999999, "latitude": 46.3603257, "date": {"mer. 05.05.2010": {"weekday": "wednesday", "year": 2010, "categories": {"M-Jun": {"pace": 247000000000, "rank": 4, "distance": 8, "time": 2092.1}}, "day": 5, "month": 5, "livingplace": "Troistorrents"}}, "location": "Roche VD"}, "Tour du Chablais #4 St  Maurice": {"race": "Tour du Chablais #4 St  Maurice", "date": {"mer. 24.04.2013": {"weekday": "wednesday", "year": 2013, "categories": {"M-M20": {"pace": 217000000000, "rank": 11, "distance": 10, "time": 2172.3}}, "day": 24, "month": 4, "livingplace": "Troistorrents"}}, "location": "Les Mosses"}, "Tour du Chablais #2 Bex": {"race": "Tour du Chablais #2 Bex", "longitude": 6.854975199999999, "latitude": 46.3835529, "date": {"mer. 18.04.2012": {"weekday": "wednesday", "year": 2012, "categories": {"M-M20": {"pace": 211000000000, "rank": 10, "distance": 8, "time": 1691.4}}, "day": 18, "month": 4, "livingplace": "Troistorrents"}}, "location": "Bouveret"}, "Tour du Chablais #6 Montreux": {"race": "Tour du Chablais #6 Montreux", "longitude": 6.970566, "latitude": 46.3190253, "date": {"mer. 16.05.2012": {"weekday": "wednesday", "year": 2012, "categories": {"M-M20": {"pace": 208000000000, "rank": 8, "distance": 9, "time": 1933.0}}, "day": 16, "month": 5, "livingplace": "Troistorrents"}}, "location": "Aigle"}, "20km de Lausanne": {"race": "20km de Lausanne", "longitude": 6.6322734, "latitude": 46.5196535, "date": {"sam. 30.04.2011": {"weekday": "saturday", "year": 2011, "categories": {"10-Hesp": {"pace": 223000000000, "rank": 2, "distance": 10, "time": 2233.2}}, "day": 30, "month": 4, "livingplace": "Help For Hope Foundation"}, "sam. 28.04.2012": {"weekday": "saturday", "year": 2012, "categories": {"10-H20": {"pace": 218000000000, "rank": 18, "distance": 10, "time": 2186.1}}, "day": 28, "month": 4, "livingplace": "Help For Hope Association"}}, "location": "Lausanne"}, "Tour du Chablais #2 St-Gingolph": {"race": "Tour du Chablais #2 St-Gingolph", "longitude": 6.854975199999999, "latitude": 46.3835529, "date": {"mer. 14.04.2010": {"weekday": "wednesday", "year": 2010, "categories": {"M-Jun": {"pace": 233000000000, "rank": 3, "distance": 8, "time": 1950.5}}, "day": 14, "month": 4, "livingplace": "Troistorrents"}}, "location": "Bouveret"}, "Tour du Chablais #1 Montreux": {"race": "Tour du Chablais #1 Montreux", "longitude": 6.9916269, "latitude": 46.2957462, "date": {"mer. 11.04.2012": {"weekday": "wednesday", "year": 2012, "categories": {"M-M20": {"pace": 213000000000, "rank": 7, "distance": 8, "time": 1619.9}}, "day": 11, "month": 4, "livingplace": "Troistorrents"}}, "location": "Ollon VD"}, "Tour du Chablais #4 Morgins": {"race": "Tour du Chablais #4 Morgins", "date": {"mer. 18.05.2011": {"weekday": "wednesday", "year": 2011, "categories": {"M-Jun": {"pace": 233000000000, "rank": 2, "distance": 8, "time": 1946.8}}, "day": 18, "month": 5, "livingplace": "Troistorrents"}}, "location": "Les Mosses"}, "Tour du Chablais #5 Bex": {"race": "Tour du Chablais #5 Bex", "longitude": 6.931504599999999, "latitude": 46.3603257, "date": {"mer. 09.05.2012": {"weekday": "wednesday", "year": 2012, "categories": {"M-M20": {"pace": 207000000000, "rank": 10, "distance": 9, "time": 1835.0}}, "day": 9, "month": 5, "livingplace": "Troistorrents"}}, "location": "Roche VD"}, "Tour du Chablais #3 Bex": {"race": "Tour du Chablais #3 Bex", "longitude": 7.0223787, "latitude": 46.1782231, "date": {"mer. 21.04.2010": {"weekday": "wednesday", "year": 2010, "categories": {"M-Jun": {"pace": 225000000000, "rank": 6, "distance": 10, "time": 2259.3}}, "day": 21, "month": 4, "livingplace": "Troistorrents"}}, "location": "Evionnaz"}, "Course de l'Avent, Yverdon": {"race": "Course de l'Avent, Yverdon", "longitude": 7.161971899999999, "latitude": 46.8064773, "date": {"dim. 28.11.2010": {"weekday": "sunday", "year": 2010, "categories": {"E-H23": {"pace": 208000000000, "rank": 1, "distance": 8, "time": 1614.3}}, "day": 28, "month": 11, "livingplace": "Troistorrents"}, "dim. 27.11.2011": {"weekday": "sunday", "year": 2011, "categories": {"E-H1": {"pace": 213000000000, "rank": 2, "distance": 8, "time": 1653.5}}, "day": 27, "month": 11, "livingplace": "Troistorrents"}}, "location": "Fribourg"}, "Les Traine-Savates, Cheseaux-sur-Lausanne": {"race": "Les Traine-Savates, Cheseaux-sur-Lausanne", "longitude": 6.6047712, "latitude": 46.585452, "date": {"sam. 09.04.2011": {"weekday": "saturday", "year": 2011, "categories": {"10-U20M": {"pace": 229000000000, "rank": 3, "distance": 10, "time": 2382.9}}, "day": 9, "month": 4, "livingplace": "Troistorrents"}}, "location": "Cheseaux-sur-Lausanne"}, "Tour du Chablais #2 Rennaz": {"race": "Tour du Chablais #2 Rennaz", "longitude": 6.854975199999999, "latitude": 46.3835529, "date": {"mer. 04.05.2011": {"weekday": "wednesday", "year": 2011, "categories": {"M-Jun": {"pace": 215000000000, "rank": 2, "distance": 9, "time": 2015.5}}, "day": 4, "month": 5, "livingplace": "Troistorrents"}}, "location": "Bouveret"}, "Tour du Chablais #4 Champ\u00e9ry": {"race": "Tour du Chablais #4 Champ\u00e9ry", "date": {"mer. 02.05.2012": {"weekday": "wednesday", "year": 2012, "categories": {"M-M20": {"pace": 211000000000, "rank": 10, "distance": 8, "time": 1755.2}}, "day": 2, "month": 5, "livingplace": "Troistorrents"}}, "location": "Les Mosses"}, "Tour du Chablais #6 Monthey": {"race": "Tour du Chablais #6 Monthey", "longitude": 6.970566, "latitude": 46.3190253, "date": {"mer. 08.05.2013": {"weekday": "wednesday", "year": 2013, "categories": {"M-M20": {"pace": 213000000000, "rank": 12, "distance": 9, "time": 1989.5}}, "day": 8, "month": 5, "livingplace": "Troistorrents"}}, "location": "Aigle"}, "Tour du Chablais #2 Yvorne": {"race": "Tour du Chablais #2 Yvorne", "longitude": 6.854975199999999, "latitude": 46.3835529, "date": {"mer. 10.04.2013": {"weekday": "wednesday", "year": 2013, "categories": {"M-M20": {"pace": 229000000000, "rank": 11, "distance": 8, "time": 1837.1}}, "day": 10, "month": 4, "livingplace": "Troistorrents"}}, "location": "Bouveret"}, "Tour du Chablais #4 Yvorne": {"race": "Tour du Chablais #4 Yvorne", "date": {"mer. 28.04.2010": {"weekday": "wednesday", "year": 2010, "categories": {"M-Jun": {"pace": 233000000000, "rank": 3, "distance": 8, "time": 1933.1}}, "day": 28, "month": 4, "livingplace": "Troistorrents"}}, "location": "Les Mosses"}, "Tour du Chablais #3 Bouveret": {"race": "Tour du Chablais #3 Bouveret", "longitude": 7.0223787, "latitude": 46.1782231, "date": {"mer. 17.04.2013": {"weekday": "wednesday", "year": 2013, "categories": {"M-M20": {"pace": 216000000000, "rank": 13, "distance": 10, "time": 2166.8}}, "day": 17, "month": 4, "livingplace": "Troistorrents"}}, "location": "Evionnaz"}, "Tour du Chablais #1 Roche": {"race": "Tour du Chablais #1 Roche", "longitude": 6.9916269, "latitude": 46.2957462, "date": {"mer. 03.04.2013": {"weekday": "wednesday", "year": 2013, "categories": {"M-M20": {"pace": 213000000000, "rank": 10, "distance": 9, "time": 1887.5}}, "day": 3, "month": 4, "livingplace": "Troistorrents"}, "mer. 07.04.2010": {"weekday": "wednesday", "year": 2010, "categories": {"M-Jun": {"pace": 217000000000, "rank": 2, "distance": 9, "time": 1950.7}}, "day": 7, "month": 4, "livingplace": "Troistorrents"}}, "location": "Ollon VD"}, "Tour du Chablais #3 Collombey-Muraz": {"race": "Tour du Chablais #3 Collombey-Muraz", "longitude": 7.0223787, "latitude": 46.1782231, "date": {"mer. 25.04.2012": {"weekday": "wednesday", "year": 2012, "categories": {"M-M20": {"pace": 219000000000, "rank": 23, "distance": 9, "time": 1971.7}}, "day": 25, "month": 4, "livingplace": "Troistorrents"}}, "location": "Evionnaz"}, "Morat-Fribourg": {"race": "Morat-Fribourg", "longitude": 7.120184, "latitude": 46.92922110000001, "date": {"sam. 03.10.2009": {"weekday": "saturday", "year": 2009, "categories": {"C-CadH": {"pace": 269000000000, "rank": 7, "distance": 17, "time": 4621.8}}, "day": 3, "month": 10, "livingplace": "Troistorrents"}, "sam. 01.10.2011": {"weekday": "saturday", "year": 2011, "categories": {"17-JunH": {"pace": 232000000000, "rank": 3, "distance": 17, "time": 3990.9}}, "day": 1, "month": 10, "livingplace": "Troistorrents"}, "sam. 02.10.2010": {"weekday": "saturday", "year": 2010, "categories": {"17-JunH": {"pace": 263000000000, "rank": 13, "distance": 17, "time": 4530.2}}, "day": 2, "month": 10, "livingplace": "Troistorrents"}, "sam. 05.10.2013": {"weekday": "saturday", "year": 2013, "categories": {"8-JoggM": {"pace": 219000000000, "rank": 6, "distance": 9, "time": 1950.1}}, "day": 5, "month": 10, "livingplace": "Troistorrents"}, "sam. 06.10.2012": {"weekday": "saturday", "year": 2012, "categories": {"17-M20": {"pace": 239000000000, "rank": 82, "distance": 17, "time": 4170.7}}, "day": 6, "month": 10, "livingplace": "Troistorrents"}}, "location": "Murten"}, "Tour du Chablais #6 Aigle": {"race": "Tour du Chablais #6 Aigle", "longitude": 6.970566, "latitude": 46.3190253, "date": {"mer. 01.06.2011": {"weekday": "wednesday", "year": 2011, "categories": {"M-Jun": {"pace": 212000000000, "rank": 3, "distance": 10, "time": 2168.6}}, "day": 1, "month": 6, "livingplace": "Troistorrents"}}, "location": "Aigle"}, "Tour du Chablais #6 Mouthey": {"race": "Tour du Chablais #6 Mouthey", "longitude": 6.970566, "latitude": 46.3190253, "date": {"mer. 12.05.2010": {"weekday": "wednesday", "year": 2010, "categories": {"M-Jun": {"pace": 216000000000, "rank": 4, "distance": 9, "time": 1994.9}}, "day": 12, "month": 5, "livingplace": "Troistorrents"}}, "location": "Aigle"}, "Tour du Chablais #5 Les Mosses": {"race": "Tour du Chablais #5 Les Mosses", "longitude": 6.931504599999999, "latitude": 46.3603257, "date": {"mer. 25.05.2011": {"weekday": "wednesday", "year": 2011, "categories": {"M-Jun": {"pace": 236000000000, "rank": 3, "distance": 8, "time": 1895.3}}, "day": 25, "month": 5, "livingplace": "Troistorrents"}}, "location": "Roche VD"}, "Tour du Chablais #1 Lavey": {"race": "Tour du Chablais #1 Lavey", "longitude": 6.9916269, "latitude": 46.2957462, "date": {"mer. 27.04.2011": {"weekday": "wednesday", "year": 2011, "categories": {"M-Jun": {"pace": 224000000000, "rank": 5, "distance": 9, "time": 2024.1}}, "day": 27, "month": 4, "livingplace": "Troistorrents"}}, "location": "Ollon VD"}, "Tour du Chablais #5 Morgins": {"race": "Tour du Chablais #5 Morgins", "longitude": 6.931504599999999, "latitude": 46.3603257, "date": {"mer. 01.05.2013": {"weekday": "wednesday", "year": 2013, "categories": {"M-M20": {"pace": 228000000000, "rank": 13, "distance": 8, "time": 1735.8}}, "day": 1, "month": 5, "livingplace": "Troistorrents"}}, "location": "Roche VD"}, "Lausanne Marathon": {"race": "Lausanne Marathon", "longitude": 6.6322734, "latitude": 46.5196535, "date": {"dim. 31.10.2010": {"weekday": "sunday", "year": 2010, "categories": {"21-JG": {"pace": 229000000000, "rank": 2, "distance": 21, "time": 4838.2}}, "day": 31, "month": 10, "livingplace": "Troistorrents"}, "dim. 28.10.2012": {"weekday": "sunday", "year": 2012, "categories": {"21-H1": {"pace": 252000000000, "rank": 58, "distance": 21, "time": 5319.8}}, "day": 28, "month": 10, "livingplace": "Troistorrents"}, "dim. 27.10.2013": {"weekday": "sunday", "year": 2013, "categories": {"10-H1": {"pace": 207000000000, "rank": 22, "distance": 10, "time": 2071.1}}, "day": 27, "month": 10, "livingplace": "Troistorrents"}, "dim. 30.10.2011": {"weekday": "sunday", "year": 2011, "categories": {"21-JunG": {"pace": 230000000000, "rank": 6, "distance": 21, "time": 4855.6}}, "day": 30, "month": 10, "livingplace": "Troistorrents"}}, "location": "Lausanne"}, "Tour du Chablais #1 Martigny": {"race": "Tour du Chablais #1 Martigny", "longitude": 6.9916269, "latitude": 46.2957462, "date": {"mer. 23.04.2014": {"weekday": "wednesday", "year": 2014, "categories": {"M-M20": {"pace": 207000000000, "rank": 8, "distance": 9, "time": 1767.7}}, "day": 23, "month": 4, "livingplace": "Troistorrents"}}, "location": "Ollon VD"}}, "name": "Bovier Alexandre", "birth": 1992}