{"sex": "M", "races": {"Gempenlauf, Dornach": {"race": "Gempenlauf, Dornach", "longitude": 7.6170412, "latitude": 47.4790491, "date": {"mer. 04.06.2008": {"weekday": "wednesday", "year": 2008, "categories": {"F20": {"pace": 271000000000, "rank": 1, "distance": 8, "time": 2120.4}}, "day": 4, "month": 6, "livingplace": "Allschwil"}}, "location": "Dornach"}, "GP Fricktal, Eiken": {"race": "GP Fricktal, Eiken", "date": {"sam. 03.04.2010": {"weekday": "saturday", "year": 2010, "categories": {"F30": {"pace": 225000000000, "rank": 1, "distance": 16, "time": 3627.2}}, "day": 3, "month": 4, "livingplace": "Allschwil"}}, "location": "Eiken"}, "Basel City Marathon": {"race": "Basel City Marathon", "longitude": 7.5885761, "latitude": 47.5595986, "date": {"dim. 28.08.2005": {"weekday": "sunday", "year": 2005, "categories": {"F20": {"pace": 248000000000, "rank": 2, "distance": 42, "time": 10500.7}}, "day": 28, "month": 8, "livingplace": "Allschwil"}}, "location": "Basel"}, "Winterthur Marathon": {"race": "Winterthur Marathon", "longitude": -75.6037351, "latitude": 39.8088766, "date": {"dim. 25.05.2003": {"weekday": "sunday", "year": 2003, "categories": {"HW23": {"pace": 236000000000, "rank": 1, "distance": 21, "time": 4976.7}}, "day": 25, "month": 5, "livingplace": "Allschwil"}}, "location": "Winterthur"}, "Kerzerslauf": {"race": "Kerzerslauf", "longitude": 7.1954365, "latitude": 46.97488999999999, "date": {"sam. 21.03.2009": {"weekday": "saturday", "year": 2009, "categories": {"15-F20": {"pace": 226000000000, "rank": 5, "distance": 15, "time": 3403.2}}, "day": 21, "month": 3, "livingplace": "Allschwil"}, "sam. 15.03.2003": {"weekday": "saturday", "year": 2003, "categories": {"F20": {"pace": 243000000000, "rank": 25, "distance": 15, "time": 3648.4}}, "day": 15, "month": 3, "livingplace": "Allschwil"}}, "location": "Kerzers"}, "Rotseelauf, Ebikon": {"race": "Rotseelauf, Ebikon", "date": {"sam. 17.04.2010": {"weekday": "saturday", "year": 2010, "categories": {"F30": {"pace": 227000000000, "rank": 1, "distance": 10, "time": 2278.5}}, "day": 17, "month": 4, "livingplace": "Allschwil"}}, "location": "Ebikon"}, "Basler Stadtlauf": {"race": "Basler Stadtlauf", "longitude": 7.5885761, "latitude": 47.5595986, "date": {"sam. 24.11.2001": {"weekday": "saturday", "year": 2001, "categories": {"X": {"pace": 249000000000, "rank": 1, "distance": 8, "time": 1943.9}}, "day": 24, "month": 11, "livingplace": "Allschwil"}}, "location": "Basel"}, "Langenthaler Stadtlauf": {"race": "Langenthaler Stadtlauf", "longitude": 7.790562299999999, "latitude": 47.2120786, "date": {"sam. 20.11.2010": {"weekday": "saturday", "year": 2010, "categories": {"JogF": {"pace": 219000000000, "rank": 1, "distance": 5, "time": 1095.9}}, "day": 20, "month": 11, "livingplace": "Allschwil"}}, "location": "Langenthal"}, "Schweizer Frauenlauf Bern": {"race": "Schweizer Frauenlauf Bern", "longitude": 7.4474468, "latitude": 46.9479739, "date": {"dim. 11.06.2006": {"weekday": "sunday", "year": 2006, "categories": {"5-W20": {"pace": 223000000000, "rank": 1, "distance": 5, "time": 1117.2}}, "day": 11, "month": 6, "livingplace": "Allschwil"}}, "location": "Bern"}, "Lenzburger Lauf": {"race": "Lenzburger Lauf", "longitude": 8.172154500000001, "latitude": 47.3904443, "date": {"sam. 24.05.2008": {"weekday": "saturday", "year": 2008, "categories": {"F30": {"pace": 222000000000, "rank": 1, "distance": 12, "time": 2759.2}}, "day": 24, "month": 5, "livingplace": "Goldwurst Power"}}, "location": "Lenzburg"}, "Pfingstlauf Wohlen AG": {"race": "Pfingstlauf Wohlen AG", "longitude": 8.2768762, "latitude": 47.3493653, "date": {"sam. 10.05.2008": {"weekday": "saturday", "year": 2008, "categories": {"F30": {"pace": 226000000000, "rank": 1, "distance": 8, "time": 1858.3}}, "day": 10, "month": 5, "livingplace": "Goldwurst Power"}}, "location": "Wohlen AG"}, "Z\u00fcrich Marathon, Teamrun und Cityrun": {"race": "Z\u00fcrich Marathon, Teamrun und Cityrun", "longitude": 8.541694, "latitude": 47.3768866, "date": {"dim. 26.04.2009": {"weekday": "sunday", "year": 2009, "categories": {"W30": {"pace": 233000000000, "rank": 7, "distance": 42, "time": 9848.3}}, "day": 26, "month": 4, "livingplace": "Allschwil"}}, "location": "Z\u00fcrich"}, "Gippinger Stauseelauf": {"race": "Gippinger Stauseelauf", "longitude": 8.2152586, "latitude": 47.5810513, "date": {"sam. 31.12.2005": {"weekday": "saturday", "year": 2005, "categories": {"F20": {"pace": 226000000000, "rank": 4, "distance": 8, "time": 1699.0}}, "day": 31, "month": 12, "livingplace": "Allschwil"}}, "location": "Leuggern"}, "crossrun, Therwil": {"race": "crossrun, Therwil", "longitude": 7.5532808, "latitude": 47.4990611, "date": {"dim. 10.05.2009": {"weekday": "sunday", "year": 2009, "categories": {"F30": {"pace": 235000000000, "rank": 1, "distance": 10, "time": 2355.0}}, "day": 10, "month": 5, "livingplace": "Goldwurst Power"}}, "location": "Therwil"}, "Baldeggerseelauf, Hitzkirch": {"race": "Baldeggerseelauf, Hitzkirch", "date": {"sam. 31.05.2008": {"weekday": "saturday", "year": 2008, "categories": {"16/F30": {"pace": 227000000000, "rank": 1, "distance": 16, "time": 3654.7}}, "day": 31, "month": 5, "livingplace": "Allschwil"}}, "location": "Hitzkirch"}}, "name": "Breitschmid Jenny", "birth": 1978}