{"sex": "M", "races": {"Int Greifenseelauf, Uster": {"race": "Int Greifenseelauf, Uster", "longitude": 8.717873899999999, "latitude": 47.3482747, "date": {"sam. 22.09.2007": {"weekday": "saturday", "year": 2007, "categories": {"H/M35": {"pace": 355000000000, "rank": 857, "distance": 21, "time": 7499.8}}, "day": 22, "month": 9, "livingplace": "Winterthur"}, "sam. 20.09.2008": {"weekday": "saturday", "year": 2008, "categories": {"H-M40": {"pace": 334000000000, "rank": 887, "distance": 21, "time": 7057.9}}, "day": 20, "month": 9, "livingplace": "Winterthur"}}, "location": "Uster"}, "Gurtenclassic, Wabern": {"race": "Gurtenclassic, Wabern", "longitude": 7.448973199999999, "latitude": 46.92901639999999, "date": {"dim. 01.11.2009": {"weekday": "sunday", "year": 2009, "categories": {"M40": {"pace": 400000000000, "rank": 164, "distance": 15, "time": 6012.1}}, "day": 1, "month": 11, "livingplace": "Bern"}}, "location": "Wabern"}, "Z\u00fcrich Marathon, Teamrun und Cityrun": {"race": "Z\u00fcrich Marathon, Teamrun und Cityrun", "longitude": 8.541694, "latitude": 47.3768866, "date": {"dim. 26.04.2009": {"weekday": "sunday", "year": 2009, "categories": {"M40": {"pace": 426000000000, "rank": 812, "distance": 42, "time": 18011.7}}, "day": 26, "month": 4, "livingplace": "Bern"}}, "location": "Z\u00fcrich"}, "GP der Stadt D\u00fcbendorf": {"race": "GP der Stadt D\u00fcbendorf", "longitude": 8.618012799999999, "latitude": 47.3971476, "date": {"sam. 14.04.2012": {"weekday": "saturday", "year": 2012, "categories": {"C": {"pace": 272000000000, "rank": 149, "distance": 10, "time": 2723.5}}, "day": 14, "month": 4, "livingplace": "Bern"}}, "location": "D\u00fcbendorf"}, "Z\u00fcrcher Silvesterlauf, Z\u00fcrich": {"race": "Z\u00fcrcher Silvesterlauf, Z\u00fcrich", "longitude": 8.541694, "latitude": 47.3768866, "date": {"dim. 10.12.2006": {"weekday": "sunday", "year": 2006, "categories": {"MenAK1-8": {"pace": 303000000000, "rank": 1061, "distance": 9, "time": 2610.5}}, "day": 10, "month": 12, "livingplace": "Zurich"}}, "location": "Z\u00fcrich"}, "Winterthur Marathon": {"race": "Winterthur Marathon", "longitude": -75.6037351, "latitude": 39.8088766, "date": {"dim. 01.06.2014": {"weekday": "sunday", "year": 2014, "categories": {"H-M40": {"pace": 317000000000, "rank": 162, "distance": 21, "time": 6660.8}}, "day": 1, "month": 6, "livingplace": "Bern"}}, "location": "Winterthur"}, "R\u00fctilauf, R\u00fcti ZH": {"race": "R\u00fctilauf, R\u00fcti ZH", "longitude": 8.854421, "latitude": 47.2566995, "date": {"sam. 06.09.2008": {"weekday": "saturday", "year": 2008, "categories": {"C": {"pace": 333000000000, "rank": 137, "distance": 11, "time": 3768.8}}, "day": 6, "month": 9, "livingplace": "Winterthur"}}, "location": "R\u00fcti ZH"}, "SwissCityMarathon - Lucerne, Luzern": {"race": "SwissCityMarathon - Lucerne, Luzern", "longitude": 8.3093072, "latitude": 47.05016819999999, "date": {"dim. 25.10.2015": {"weekday": "sunday", "year": 2015, "categories": {"H-M45": {"pace": 273000000000, "rank": 116, "distance": 21, "time": 5770.9}}, "day": 25, "month": 10, "livingplace": "Bern"}}, "location": "Luzern"}, "Murilauf, Muri b  Bern": {"race": "Murilauf, Muri b  Bern", "longitude": 7.498472799999999, "latitude": 46.9350521, "date": {"dim. 01.07.2012": {"weekday": "sunday", "year": 2012, "categories": {"10-M92": {"pace": 297000000000, "rank": 34, "distance": 10, "time": 2975.3}}, "day": 1, "month": 7, "livingplace": "Bern"}, "dim. 03.07.2011": {"weekday": "sunday", "year": 2011, "categories": {"10-M92": {"pace": 298000000000, "rank": 40, "distance": 10, "time": 2988.3}}, "day": 3, "month": 7, "livingplace": "Bern"}}, "location": "Muri b. Bern"}, "Wylandlauf, Andelfingen": {"race": "Wylandlauf, Andelfingen", "date": {"sam. 14.06.2008": {"weekday": "saturday", "year": 2008, "categories": {"C": {"pace": 313000000000, "rank": 143, "distance": 15, "time": 4651.3}}, "day": 14, "month": 6, "livingplace": "Winterthur"}, "sam. 16.06.2012": {"weekday": "saturday", "year": 2012, "categories": {"C": {"pace": 354000000000, "rank": 119, "distance": 15, "time": 5261.9}}, "day": 16, "month": 6, "livingplace": "Bern"}}, "location": "Andelfingen"}, "Laufsporttag Winterthur": {"race": "Laufsporttag Winterthur", "longitude": -75.6037351, "latitude": 39.8088766, "date": {"sam. 05.03.2011": {"weekday": "saturday", "year": 2011, "categories": {"C": {"pace": 342000000000, "rank": 177, "distance": 11, "time": 3769.1}}, "day": 5, "month": 3, "livingplace": "Bern"}}, "location": "Winterthur"}, "Thuner Stadtlauf, Thun": {"race": "Thuner Stadtlauf, Thun", "longitude": 7.6279881, "latitude": 46.7579868, "date": {"dim. 26.08.2012": {"weekday": "sunday", "year": 2012, "categories": {"10-M40": {"pace": 295000000000, "rank": 103, "distance": 10, "time": 2952.8}}, "day": 26, "month": 8, "livingplace": "Bern"}}, "location": "Thun"}, "Lausanne Marathon": {"race": "Lausanne Marathon", "longitude": 6.6322734, "latitude": 46.5196535, "date": {"dim. 26.10.2014": {"weekday": "sunday", "year": 2014, "categories": {"21-H40": {"pace": 282000000000, "rank": 183, "distance": 21, "time": 5955.6}}, "day": 26, "month": 10, "livingplace": "Bern"}}, "location": "Lausanne"}, "Ch\u00e4sitzerlouf, Kehrsatz": {"race": "Ch\u00e4sitzerlouf, Kehrsatz", "date": {"sam. 26.04.2014": {"weekday": "saturday", "year": 2014, "categories": {"12-M40": {"pace": 299000000000, "rank": 135, "distance": 12, "time": 3589.4}}, "day": 26, "month": 4, "livingplace": "Bern"}}, "location": "Kehrsatz"}}, "name": "Britt Andreas", "birth": 1968}