{"sex": "M", "races": {"Course de l'Escalade, Gen\u00e8ve": {"race": "Course de l'Escalade, Gen\u00e8ve", "longitude": 6.1431577, "latitude": 46.2043907, "date": {"sam. 07.12.2002": {"weekday": "saturday", "year": 2002, "categories": {"Hommes4": {"pace": 248000000000, "rank": 65, "distance": 7, "time": 1799.5}}, "day": 7, "month": 12, "livingplace": "St Maurice"}}, "location": "Gen\u00e8ve"}, "Tour du Chablais #5 Leysin": {"race": "Tour du Chablais #5 Leysin", "longitude": 6.931504599999999, "latitude": 46.3603257, "date": {"mer. 05.05.2010": {"weekday": "wednesday", "year": 2010, "categories": {"M-M50": {"pace": 303000000000, "rank": 28, "distance": 8, "time": 2561.8}}, "day": 5, "month": 5, "livingplace": "St Maurice"}}, "location": "Roche VD"}, "Montreux - Les Rochers de Naye": {"race": "Montreux - Les Rochers de Naye", "longitude": 6.9106799, "latitude": 46.4312213, "date": {"dim. 11.07.2010": {"weekday": "sunday", "year": 2010, "categories": {"C-H-Spe2": {"pace": 469000000000, "rank": 11, "distance": 10, "time": 4463.0}}, "day": 11, "month": 7, "livingplace": "St Maurice"}}, "location": "Montreux"}, "Hallwilerseelauf, Beinwil am See": {"race": "Hallwilerseelauf, Beinwil am See", "date": {"sam. 11.10.2014": {"weekday": "saturday", "year": 2014, "categories": {"21-M60": {"pace": 348000000000, "rank": 98, "distance": 21, "time": 7351.6}}, "day": 11, "month": 10, "livingplace": "Saint Maurice"}}, "location": "Beinwil am See"}, "Tour du Chablais #1 Roche": {"race": "Tour du Chablais #1 Roche", "longitude": 6.9916269, "latitude": 46.2957462, "date": {"mer. 07.04.2010": {"weekday": "wednesday", "year": 2010, "categories": {"M-M50": {"pace": 283000000000, "rank": 36, "distance": 9, "time": 2538.5}}, "day": 7, "month": 4, "livingplace": "St Maurice"}}, "location": "Ollon VD"}, "Tour du Chablais #1 Martigny": {"race": "Tour du Chablais #1 Martigny", "longitude": 6.9916269, "latitude": 46.2957462, "date": {"mer. 23.04.2014": {"weekday": "wednesday", "year": 2014, "categories": {"M-M60": {"pace": 303000000000, "rank": 21, "distance": 9, "time": 2583.7}}, "day": 23, "month": 4, "livingplace": "Saint Maurice"}}, "location": "Ollon VD"}, "Tour du Chablais #4 Yvorne": {"race": "Tour du Chablais #4 Yvorne", "date": {"mer. 28.04.2010": {"weekday": "wednesday", "year": 2010, "categories": {"M-M50": {"pace": 291000000000, "rank": 21, "distance": 8, "time": 2410.8}}, "day": 28, "month": 4, "livingplace": "St Maurice"}}, "location": "Les Mosses"}, "Morat-Fribourg": {"race": "Morat-Fribourg", "longitude": 7.120184, "latitude": 46.92922110000001, "date": {"dim. 07.10.2001": {"weekday": "sunday", "year": 2001, "categories": {"M50": {"pace": 276000000000, "rank": 71, "distance": 17, "time": 4745.2}}, "day": 7, "month": 10, "livingplace": "St Maurice"}, "dim. 06.10.2002": {"weekday": "sunday", "year": 2002, "categories": {"M50": {"pace": 276000000000, "rank": 78, "distance": 17, "time": 4753.0}}, "day": 6, "month": 10, "livingplace": "St Maurice"}, "dim. 05.10.2003": {"weekday": "sunday", "year": 2003, "categories": {"M50": {"pace": 291000000000, "rank": 141, "distance": 17, "time": 5009.9}}, "day": 5, "month": 10, "livingplace": "St Maurice"}}, "location": "Murten"}, "Tour du Chablais #6 Aigle": {"race": "Tour du Chablais #6 Aigle", "longitude": 6.970566, "latitude": 46.3190253, "date": {"mer. 01.06.2011": {"weekday": "wednesday", "year": 2011, "categories": {"M-M60": {"pace": 275000000000, "rank": 10, "distance": 10, "time": 2812.0}}, "day": 1, "month": 6, "livingplace": "St Maurice"}}, "location": "Aigle"}, "Tour du Chablais #4 Morgins": {"race": "Tour du Chablais #4 Morgins", "date": {"mer. 18.05.2011": {"weekday": "wednesday", "year": 2011, "categories": {"M-M60": {"pace": 300000000000, "rank": 8, "distance": 8, "time": 2508.7}}, "day": 18, "month": 5, "livingplace": "St Maurice"}}, "location": "Les Mosses"}, "Tour du Chablais #6 Mouthey": {"race": "Tour du Chablais #6 Mouthey", "longitude": 6.970566, "latitude": 46.3190253, "date": {"mer. 12.05.2010": {"weekday": "wednesday", "year": 2010, "categories": {"M-M50": {"pace": 273000000000, "rank": 38, "distance": 9, "time": 2510.8}}, "day": 12, "month": 5, "livingplace": "St Maurice"}}, "location": "Aigle"}, "Tour du Chablais #5 Les Mosses": {"race": "Tour du Chablais #5 Les Mosses", "longitude": 6.931504599999999, "latitude": 46.3603257, "date": {"mer. 25.05.2011": {"weekday": "wednesday", "year": 2011, "categories": {"M-M60": {"pace": 302000000000, "rank": 8, "distance": 8, "time": 2423.6}}, "day": 25, "month": 5, "livingplace": "St Maurice"}}, "location": "Roche VD"}, "Tour du Chablais #1 Lavey": {"race": "Tour du Chablais #1 Lavey", "longitude": 6.9916269, "latitude": 46.2957462, "date": {"mer. 27.04.2011": {"weekday": "wednesday", "year": 2011, "categories": {"M-M60": {"pace": 291000000000, "rank": 12, "distance": 9, "time": 2627.8}}, "day": 27, "month": 4, "livingplace": "St Maurice"}}, "location": "Ollon VD"}, "Tour du Chablais #3 Bex": {"race": "Tour du Chablais #3 Bex", "longitude": 7.0223787, "latitude": 46.1782231, "date": {"mer. 21.04.2010": {"weekday": "wednesday", "year": 2010, "categories": {"M-M50": {"pace": 279000000000, "rank": 30, "distance": 10, "time": 2790.6}}, "day": 21, "month": 4, "livingplace": "St Maurice"}}, "location": "Evionnaz"}, "Tour du Chablais #3 Le Bouveret": {"race": "Tour du Chablais #3 Le Bouveret", "longitude": 7.0223787, "latitude": 46.1782231, "date": {"mer. 11.05.2011": {"weekday": "wednesday", "year": 2011, "categories": {"M-M60": {"pace": 289000000000, "rank": 15, "distance": 10, "time": 2891.2}}, "day": 11, "month": 5, "livingplace": "St Maurice"}}, "location": "Evionnaz"}, "Tour du Chablais #2 St-Gingolph": {"race": "Tour du Chablais #2 St-Gingolph", "longitude": 6.854975199999999, "latitude": 46.3835529, "date": {"mer. 14.04.2010": {"weekday": "wednesday", "year": 2010, "categories": {"M-M50": {"pace": 300000000000, "rank": 32, "distance": 8, "time": 2511.6}}, "day": 14, "month": 4, "livingplace": "St Maurice"}}, "location": "Bouveret"}, "Tour du Chablais #2 Rennaz": {"race": "Tour du Chablais #2 Rennaz", "longitude": 6.854975199999999, "latitude": 46.3835529, "date": {"mer. 04.05.2011": {"weekday": "wednesday", "year": 2011, "categories": {"M-M60": {"pace": 283000000000, "rank": 10, "distance": 9, "time": 2653.0}}, "day": 4, "month": 5, "livingplace": "St Maurice"}}, "location": "Bouveret"}}, "name": "Bruchez Guy", "birth": 1951}