{"sex": "M", "races": {"Tour du Chablais #5 Leysin": {"race": "Tour du Chablais #5 Leysin", "longitude": 6.931504599999999, "latitude": 46.3603257, "date": {"mer. 05.05.2010": {"weekday": "wednesday", "year": 2010, "categories": {"M-M50": {"pace": 321000000000, "rank": 42, "distance": 8, "time": 2718.0}}, "day": 5, "month": 5, "livingplace": "Fully"}}, "location": "Roche VD"}, "Tour du Chablais #4 Yvorne": {"race": "Tour du Chablais #4 Yvorne", "date": {"mer. 28.04.2010": {"weekday": "wednesday", "year": 2010, "categories": {"M-M50": {"pace": 317000000000, "rank": 41, "distance": 8, "time": 2625.8}}, "day": 28, "month": 4, "livingplace": "Fully"}}, "location": "Les Mosses"}, "Tour du Chablais #1 Roche": {"race": "Tour du Chablais #1 Roche", "longitude": 6.9916269, "latitude": 46.2957462, "date": {"mer. 07.04.2010": {"weekday": "wednesday", "year": 2010, "categories": {"M-M50": {"pace": 291000000000, "rank": 42, "distance": 9, "time": 2609.4}}, "day": 7, "month": 4, "livingplace": "Fully"}}, "location": "Ollon VD"}, "Tour du Chablais #6 Aigle": {"race": "Tour du Chablais #6 Aigle", "longitude": 6.970566, "latitude": 46.3190253, "date": {"mer. 01.06.2011": {"weekday": "wednesday", "year": 2011, "categories": {"M-M50": {"pace": 285000000000, "rank": 47, "distance": 10, "time": 2916.8}}, "day": 1, "month": 6, "livingplace": "Fully"}}, "location": "Aigle"}, "Tour du Chablais #4 Morgins": {"race": "Tour du Chablais #4 Morgins", "date": {"mer. 18.05.2011": {"weekday": "wednesday", "year": 2011, "categories": {"M-M50": {"pace": 337000000000, "rank": 64, "distance": 8, "time": 2814.4}}, "day": 18, "month": 5, "livingplace": "Fully"}}, "location": "Les Mosses"}, "Tour du Chablais #2 St-Gingolph": {"race": "Tour du Chablais #2 St-Gingolph", "longitude": 6.854975199999999, "latitude": 46.3835529, "date": {"mer. 14.04.2010": {"weekday": "wednesday", "year": 2010, "categories": {"M-M50": {"pace": 311000000000, "rank": 42, "distance": 8, "time": 2602.7}}, "day": 14, "month": 4, "livingplace": "Fully"}}, "location": "Bouveret"}, "Tour du Chablais #5 Les Mosses": {"race": "Tour du Chablais #5 Les Mosses", "longitude": 6.931504599999999, "latitude": 46.3603257, "date": {"mer. 25.05.2011": {"weekday": "wednesday", "year": 2011, "categories": {"M-M50": {"pace": 334000000000, "rank": 54, "distance": 8, "time": 2677.3}}, "day": 25, "month": 5, "livingplace": "Fully"}}, "location": "Roche VD"}, "Tour du Chablais #1 Lavey": {"race": "Tour du Chablais #1 Lavey", "longitude": 6.9916269, "latitude": 46.2957462, "date": {"mer. 27.04.2011": {"weekday": "wednesday", "year": 2011, "categories": {"M-M50": {"pace": 299000000000, "rank": 58, "distance": 9, "time": 2699.8}}, "day": 27, "month": 4, "livingplace": "Fully"}}, "location": "Ollon VD"}, "Tour du Chablais #3 Bex": {"race": "Tour du Chablais #3 Bex", "longitude": 7.0223787, "latitude": 46.1782231, "date": {"mer. 21.04.2010": {"weekday": "wednesday", "year": 2010, "categories": {"M-M50": {"pace": 302000000000, "rank": 53, "distance": 10, "time": 3021.0}}, "day": 21, "month": 4, "livingplace": "Fully"}}, "location": "Evionnaz"}, "Tour du Chablais #3 Le Bouveret": {"race": "Tour du Chablais #3 Le Bouveret", "longitude": 7.0223787, "latitude": 46.1782231, "date": {"mer. 11.05.2011": {"weekday": "wednesday", "year": 2011, "categories": {"M-M50": {"pace": 301000000000, "rank": 62, "distance": 10, "time": 3017.9}}, "day": 11, "month": 5, "livingplace": "Fully"}}, "location": "Evionnaz"}, "Tour du Chablais #6 Mouthey": {"race": "Tour du Chablais #6 Mouthey", "longitude": 6.970566, "latitude": 46.3190253, "date": {"mer. 12.05.2010": {"weekday": "wednesday", "year": 2010, "categories": {"M-M50": {"pace": 279000000000, "rank": 45, "distance": 9, "time": 2566.1}}, "day": 12, "month": 5, "livingplace": "Fully"}}, "location": "Aigle"}, "Tour du Chablais #2 Rennaz": {"race": "Tour du Chablais #2 Rennaz", "longitude": 6.854975199999999, "latitude": 46.3835529, "date": {"mer. 04.05.2011": {"weekday": "wednesday", "year": 2011, "categories": {"M-M50": {"pace": 295000000000, "rank": 61, "distance": 9, "time": 2761.0}}, "day": 4, "month": 5, "livingplace": "Fully"}}, "location": "Bouveret"}}, "name": "Bruchez Edmond", "birth": 1955}