{"sex": "M", "races": {"Stralugano, Lugano": {"race": "Stralugano, Lugano", "longitude": 8.951051999999999, "latitude": 46.0036778, "date": {"dim. 27.09.2015": {"weekday": "sunday", "year": 2015, "categories": {"30-M20": {"pace": 247000000000, "rank": 31, "distance": 30, "time": 7426.6}}, "day": 27, "month": 9, "livingplace": "Basel"}}, "location": "Lugano"}, "Birslauf Basel": {"race": "Birslauf Basel", "longitude": 7.5885761, "latitude": 47.5595986, "date": {"sam. 06.04.2013": {"weekday": "saturday", "year": 2013, "categories": {"M\u00e4nner": {"pace": 268000000000, "rank": 201, "distance": 10, "time": 2681.5}}, "day": 6, "month": 4, "livingplace": "Basel"}}, "location": "Basel"}, "Winterthur Marathon": {"race": "Winterthur Marathon", "longitude": -75.6037351, "latitude": 39.8088766, "date": {"dim. 01.06.2014": {"weekday": "sunday", "year": 2014, "categories": {"H-M30": {"pace": 243000000000, "rank": 18, "distance": 21, "time": 5111.7}}, "day": 1, "month": 6, "livingplace": "Basel"}}, "location": "Winterthur"}, "ASICS Bremgarter Reusslauf": {"race": "ASICS Bremgarter Reusslauf", "longitude": 8.3397905, "latitude": 47.34917739999999, "date": {"sam. 28.02.2015": {"weekday": "saturday", "year": 2015, "categories": {"11-M30": {"pace": 229000000000, "rank": 51, "distance": 11, "time": 2520.3}}, "day": 28, "month": 2, "livingplace": "Basel"}, "sam. 23.02.2013": {"weekday": "saturday", "year": 2013, "categories": {"11-M30": {"pace": 254000000000, "rank": 136, "distance": 11, "time": 2797.8}}, "day": 23, "month": 2, "livingplace": "Basel"}}, "location": "Bremgarten AG"}, "SwissCityMarathon - Lucerne, Luzern": {"race": "SwissCityMarathon - Lucerne, Luzern", "longitude": 8.3093072, "latitude": 47.05016819999999, "date": {"dim. 27.10.2013": {"weekday": "sunday", "year": 2013, "categories": {"M-M30": {"pace": 293000000000, "rank": 100, "distance": 42, "time": 12404.3}}, "day": 27, "month": 10, "livingplace": "Basel"}}, "location": "Luzern"}, "Dreil\u00e4nder-Lauf, Basel": {"race": "Dreil\u00e4nder-Lauf, Basel", "longitude": 7.5885761, "latitude": 47.5595986, "date": {"dim. 26.05.2013": {"weekday": "sunday", "year": 2013, "categories": {"21M30": {"pace": 272000000000, "rank": 48, "distance": 21, "time": 5753.6}}, "day": 26, "month": 5, "livingplace": "Basel"}}, "location": "Basel"}, "Basler Stadtlauf": {"race": "Basler Stadtlauf", "longitude": 7.5885761, "latitude": 47.5595986, "date": {"sam. 28.11.2015": {"weekday": "saturday", "year": 2015, "categories": {"M30": {"pace": 209000000000, "rank": 18, "distance": 6, "time": 1152.9}}, "day": 28, "month": 11, "livingplace": "Basel"}, "sam. 30.11.2013": {"weekday": "saturday", "year": 2013, "categories": {"M30": {"pace": 240000000000, "rank": 83, "distance": 6, "time": 1320.8}}, "day": 30, "month": 11, "livingplace": "Basel"}, "sam. 24.11.2012": {"weekday": "saturday", "year": 2012, "categories": {"M30": {"pace": 262000000000, "rank": 129, "distance": 6, "time": 1444.0}}, "day": 24, "month": 11, "livingplace": "Basel"}, "sam. 29.11.2014": {"weekday": "saturday", "year": 2014, "categories": {"M30": {"pace": 216000000000, "rank": 20, "distance": 6, "time": 1188.5}}, "day": 29, "month": 11, "livingplace": "Basel"}}, "location": "Basel"}, "IWB Basel Marathon": {"race": "IWB Basel Marathon", "longitude": 7.5885761, "latitude": 47.5595986, "date": {"dim. 28.09.2014": {"weekday": "sunday", "year": 2014, "categories": {"21-M30": {"pace": 235000000000, "rank": 9, "distance": 21, "time": 4966.8}}, "day": 28, "month": 9, "livingplace": "Basel"}, "dim. 22.09.2013": {"weekday": "sunday", "year": 2013, "categories": {"H-21-M30": {"pace": 260000000000, "rank": 42, "distance": 21, "time": 5489.7}}, "day": 22, "month": 9, "livingplace": "Basel"}}, "location": "Basel"}, "Thuner Stadtlauf, Thun": {"race": "Thuner Stadtlauf, Thun", "longitude": 7.6279881, "latitude": 46.7579868, "date": {"dim. 25.08.2013": {"weekday": "sunday", "year": 2013, "categories": {"10-M30": {"pace": 246000000000, "rank": 36, "distance": 10, "time": 2461.8}}, "day": 25, "month": 8, "livingplace": "Basel"}}, "location": "Thun"}, "Hellebardenlauf Sempach": {"race": "Hellebardenlauf Sempach", "date": {"sam. 14.06.2014": {"weekday": "saturday", "year": 2014, "categories": {"16-M30": {"pace": 237000000000, "rank": 12, "distance": 16, "time": 3819.1}}, "day": 14, "month": 6, "livingplace": "Basel"}}, "location": "Sempach Stadt"}, "Lausanne Marathon": {"race": "Lausanne Marathon", "longitude": 6.6322734, "latitude": 46.5196535, "date": {"sam. 24.10.2015": {"weekday": "saturday", "year": 2015, "categories": {"42-H30": {"pace": 239000000000, "rank": 13, "distance": 42, "time": 10127.6}}, "day": 24, "month": 10, "livingplace": "Basel"}}, "location": "Lausanne"}, "Kerzerslauf": {"race": "Kerzerslauf", "longitude": 7.1954365, "latitude": 46.97488999999999, "date": {"sam. 16.03.2013": {"weekday": "saturday", "year": 2013, "categories": {"15-M20": {"pace": 334000000000, "rank": 495, "distance": 15, "time": 5020.6}}, "day": 16, "month": 3, "livingplace": "Basel"}, "sam. 21.03.2015": {"weekday": "saturday", "year": 2015, "categories": {"15-M20": {"pace": 232000000000, "rank": 75, "distance": 15, "time": 3492.9}}, "day": 21, "month": 3, "livingplace": "Basel"}}, "location": "Kerzers"}}, "name": "Brugnatti Michele", "birth": 1982}