{"sex": "F", "races": {"Int Greifenseelauf, Uster": {"race": "Int Greifenseelauf, Uster", "longitude": 8.717873899999999, "latitude": 47.3482747, "date": {"sam. 20.09.2003": {"weekday": "saturday", "year": 2003, "categories": {"K/W30": {"pace": 319000000000, "rank": 21, "distance": 6, "time": 1978.8}}, "day": 20, "month": 9, "livingplace": "Oberglatt"}}, "location": "Uster"}, "Z\u00fcrich Marathon, Teamrun und Cityrun": {"race": "Z\u00fcrich Marathon, Teamrun und Cityrun", "longitude": 8.541694, "latitude": 47.3768866, "date": {"dim. 06.04.2014": {"weekday": "sunday", "year": 2014, "categories": {"10-W40": {"pace": 278000000000, "rank": 29, "distance": 10, "time": 2732.1}}, "day": 6, "month": 4, "livingplace": "Watt"}}, "location": "Z\u00fcrich"}, "IWB Basel Marathon": {"race": "IWB Basel Marathon", "longitude": 7.5885761, "latitude": 47.5595986, "date": {"dim. 11.09.2011": {"weekday": "sunday", "year": 2011, "categories": {"H-21-F30": {"pace": 324000000000, "rank": 15, "distance": 21, "time": 6850.5}}, "day": 11, "month": 9, "livingplace": "Watt"}}, "location": "Basel"}, "ASICS Bremgarter Reusslauf": {"race": "ASICS Bremgarter Reusslauf", "longitude": 8.3397905, "latitude": 47.34917739999999, "date": {"sam. 26.02.2011": {"weekday": "saturday", "year": 2011, "categories": {"F30": {"pace": 294000000000, "rank": 72, "distance": 11, "time": 3243.9}}, "day": 26, "month": 2, "livingplace": "Watt"}}, "location": "Bremgarten AG"}, "Lucerne Marathon, Luzern": {"race": "Lucerne Marathon, Luzern", "longitude": 8.3093072, "latitude": 47.05016819999999, "date": {"dim. 28.10.2012": {"weekday": "sunday", "year": 2012, "categories": {"H-F30": {"pace": 346000000000, "rank": 334, "distance": 21, "time": 7318.1}}, "day": 28, "month": 10, "livingplace": "Watt"}}, "location": "Luzern"}, "Gippinger Stauseelauf": {"race": "Gippinger Stauseelauf", "longitude": 8.2152586, "latitude": 47.5810513, "date": {"mar. 31.12.2002": {"weekday": "tuesday", "year": 2002, "categories": {"F20": {"pace": 301000000000, "rank": 32, "distance": 8, "time": 2257.6}}, "day": 31, "month": 12, "livingplace": "Oberglatt"}, "mer. 31.12.2003": {"weekday": "wednesday", "year": 2003, "categories": {"F30": {"pace": 282000000000, "rank": 20, "distance": 8, "time": 2117.5}}, "day": 31, "month": 12, "livingplace": "Oberglatt"}}, "location": "Leuggern"}, "Walliseller Lauf, Wallisellen": {"race": "Walliseller Lauf, Wallisellen", "date": {"dim. 03.11.2013": {"weekday": "sunday", "year": 2013, "categories": {"F7": {"pace": 294000000000, "rank": 18, "distance": 5, "time": 1473.8}}, "day": 3, "month": 11, "livingplace": "Bulach"}}, "location": "Wallisellen"}}, "name": "B\u00fcgler Heidi", "birth": 1973}