{"sex": "M", "races": {"Course de l'Escalade, Gen\u00e8ve": {"race": "Course de l'Escalade, Gen\u00e8ve", "longitude": 6.1431577, "latitude": 46.2043907, "date": {"sam. 06.12.2003": {"weekday": "saturday", "year": 2003, "categories": {"Hommes2": {"pace": 262000000000, "rank": 425, "distance": 7, "time": 1901.3}}, "day": 6, "month": 12, "livingplace": "Saint Aubin"}}, "location": "Gen\u00e8ve"}, "BCN Tour #4 Fleurier": {"race": "BCN Tour #4 Fleurier", "longitude": 6.832783800000001, "latitude": 47.1034892, "date": {"mer. 15.05.2013": {"weekday": "wednesday", "year": 2013, "categories": {"HS2": {"pace": 284000000000, "rank": 82, "distance": 9, "time": 2463.1}}, "day": 15, "month": 5, "livingplace": "St Aubin Sauges"}}, "location": "La Chaux-de-Fonds"}, "La Trotteuse-Tissot, La Chaux-de-Fonds": {"race": "La Trotteuse-Tissot, La Chaux-de-Fonds", "longitude": 6.832783800000001, "latitude": 47.1034892, "date": {"sam. 18.12.2010": {"weekday": "saturday", "year": 2010, "categories": {"GC-H40": {"pace": 288000000000, "rank": 45, "distance": 8, "time": 2306.8}}, "day": 18, "month": 12, "livingplace": "St Aubin Sauges"}}, "location": "La Chaux-de-Fonds"}, "BCN Tour #3 Dombresson": {"race": "BCN Tour #3 Dombresson", "longitude": 6.733554799999999, "latitude": 46.999113, "date": {"mer. 08.05.2013": {"weekday": "wednesday", "year": 2013, "categories": {"HS2": {"pace": 290000000000, "rank": 155, "distance": 10, "time": 2873.4}}, "day": 8, "month": 5, "livingplace": "St Aubin Sauges"}}, "location": "Les Ponts-de-Martel"}, "D\u00e9fi Val-de-Travers, Couvet": {"race": "D\u00e9fi Val-de-Travers, Couvet", "longitude": 6.6324944, "latitude": 46.9262933, "date": {"sam. 21.06.2008": {"weekday": "saturday", "year": 2008, "categories": {"DHS1": {"pace": 486000000000, "rank": 26, "distance": 75, "time": 36517.5}}, "day": 21, "month": 6, "livingplace": "Saint aubin"}}, "location": "Couvet"}, "BCN Tour Boudry": {"race": "BCN Tour Boudry", "longitude": 6.8589727, "latitude": 46.9668714, "date": {"mer. 26.04.2006": {"weekday": "wednesday", "year": 2006, "categories": {"HS1": {"pace": 317000000000, "rank": 148, "distance": 10, "time": 3241.5}}, "day": 26, "month": 4, "livingplace": "St Aubin Sauges"}}, "location": "Colombier NE"}, "Kerzerslauf": {"race": "Kerzerslauf", "longitude": 7.1954365, "latitude": 46.97488999999999, "date": {"sam. 15.03.2014": {"weekday": "saturday", "year": 2014, "categories": {"15-M45": {"pace": 288000000000, "rank": 301, "distance": 15, "time": 4326.8}}, "day": 15, "month": 3, "livingplace": "St Aubin Sauges"}, "sam. 15.03.2008": {"weekday": "saturday", "year": 2008, "categories": {"15/M40": {"pace": 296000000000, "rank": 382, "distance": 15, "time": 4452.3}}, "day": 15, "month": 3, "livingplace": "Saint Aubin"}, "sam. 16.03.2013": {"weekday": "saturday", "year": 2013, "categories": {"15-M45": {"pace": 286000000000, "rank": 252, "distance": 15, "time": 4293.5}}, "day": 16, "month": 3, "livingplace": "St Aubin Sauges"}, "sam. 21.03.2015": {"weekday": "saturday", "year": 2015, "categories": {"15-M45": {"pace": 274000000000, "rank": 176, "distance": 15, "time": 4113.3}}, "day": 21, "month": 3, "livingplace": "St Aubin Sauges"}}, "location": "Kerzers"}, "Morat-Fribourg": {"race": "Morat-Fribourg", "longitude": 7.120184, "latitude": 46.92922110000001, "date": {"sam. 06.10.2007": {"weekday": "saturday", "year": 2007, "categories": {"C/M20": {"pace": 300000000000, "rank": 915, "distance": 17, "time": 5160.3}}, "day": 6, "month": 10, "livingplace": "Saint aubin"}}, "location": "Murten"}, "Montreux - Les Rochers de Naye": {"race": "Montreux - Les Rochers de Naye", "longitude": 6.9106799, "latitude": 46.4312213, "date": {"dim. 26.06.2005": {"weekday": "sunday", "year": 2005, "categories": {"Sen": {"pace": 503000000000, "rank": 81, "distance": 19, "time": 9473.3}}, "day": 26, "month": 6, "livingplace": "St Aubin Sauges"}}, "location": "Montreux"}, "Aletsch-Halbmarathon, Bettmeralp": {"race": "Aletsch-Halbmarathon, Bettmeralp", "date": {"dim. 29.06.2014": {"weekday": "sunday", "year": 2014, "categories": {"M45": {"pace": 343000000000, "rank": 43, "distance": 13, "time": 4569.2}}, "day": 29, "month": 6, "livingplace": "St Aubin Sauges"}}, "location": "Bettmeralp"}, "Grand Prix Craft, Neuch\u00e2tel": {"race": "Grand Prix Craft, Neuch\u00e2tel", "longitude": 6.9292732, "latitude": 46.9899874, "date": {"dim. 16.12.2007": {"weekday": "sunday", "year": 2007, "categories": {"HS1": {"pace": 250000000000, "rank": 39, "distance": 7, "time": 1753.5}}, "day": 16, "month": 12, "livingplace": "Saint Aubin"}, "dim. 17.12.2006": {"weekday": "sunday", "year": 2006, "categories": {"HS1": {"pace": 264000000000, "rank": 60, "distance": 7, "time": 1851.1}}, "day": 17, "month": 12, "livingplace": "St Aubin Sauges"}}, "location": "Neuch\u00e2tel"}, "BCN Tour Colombier": {"race": "BCN Tour Colombier", "longitude": 6.8589727, "latitude": 46.9668714, "date": {"mer. 23.04.2008": {"weekday": "wednesday", "year": 2008, "categories": {"HS2": {"pace": 324000000000, "rank": 139, "distance": 10, "time": 3310.8}}, "day": 23, "month": 4, "livingplace": "Saint aubin"}}, "location": "Colombier NE"}, "BCN Tour Le Landeron": {"race": "BCN Tour Le Landeron", "longitude": 6.8589727, "latitude": 46.9668714, "date": {"mer. 22.04.2009": {"weekday": "wednesday", "year": 2009, "categories": {"HS2": {"pace": 315000000000, "rank": 149, "distance": 11, "time": 3507.1}}, "day": 22, "month": 4, "livingplace": "Saint aubin"}}, "location": "Colombier NE"}}, "name": "Burgat Bertrand", "birth": 1968}