{"sex": "M", "races": {"10km Schweizer Meisterschaften Lyss": {"race": "10km Schweizer Meisterschaften Lyss", "longitude": 7.3077022, "latitude": 47.0746504, "date": {"sam. 02.04.2011": {"weekday": "saturday", "year": 2011, "categories": {"10-M45": {"pace": 286000000000, "rank": 52, "distance": 10, "time": 2867.9}}, "day": 2, "month": 4, "livingplace": "Bern"}}, "location": "Lyss"}, "Gurtenclassic, Wabern": {"race": "Gurtenclassic, Wabern", "longitude": 7.448973199999999, "latitude": 46.92901639999999, "date": {"dim. 04.11.2012": {"weekday": "sunday", "year": 2012, "categories": {"15-M40": {"pace": 376000000000, "rank": 110, "distance": 15, "time": 5641.3}}, "day": 4, "month": 11, "livingplace": "Bern"}, "dim. 01.11.2009": {"weekday": "sunday", "year": 2009, "categories": {"M40": {"pace": 351000000000, "rank": 135, "distance": 15, "time": 5276.7}}, "day": 1, "month": 11, "livingplace": "Ostermundigen"}}, "location": "Wabern"}, "Z\u00fcrich Marathon, Teamrun und Cityrun": {"race": "Z\u00fcrich Marathon, Teamrun und Cityrun", "longitude": 8.541694, "latitude": 47.3768866, "date": {"dim. 17.04.2011": {"weekday": "sunday", "year": 2011, "categories": {"42-M45": {"pace": 322000000000, "rank": 303, "distance": 42, "time": 13595.5}}, "day": 17, "month": 4, "livingplace": "Bern"}}, "location": "Z\u00fcrich"}, "Bl\u00fcemlisalp-Lauf, Reichenbach": {"race": "Bl\u00fcemlisalp-Lauf, Reichenbach", "longitude": 7.6940529, "latitude": 46.6254387, "date": {"dim. 25.05.2014": {"weekday": "sunday", "year": 2014, "categories": {"M40": {"pace": 467000000000, "rank": 166, "distance": 16, "time": 7521.8}}, "day": 25, "month": 5, "livingplace": "smrun"}}, "location": "Reichenbach im Kandertal"}, "Thuner Stadtlauf, Thun": {"race": "Thuner Stadtlauf, Thun", "longitude": 7.6279881, "latitude": 46.7579868, "date": {"dim. 22.08.2010": {"weekday": "sunday", "year": 2010, "categories": {"10-M40": {"pace": 313000000000, "rank": 93, "distance": 10, "time": 3137.7}}, "day": 22, "month": 8, "livingplace": "Bern"}}, "location": "Thun"}, "ASICS Bremgarter Reusslauf": {"race": "ASICS Bremgarter Reusslauf", "longitude": 8.3397905, "latitude": 47.34917739999999, "date": {"sam. 23.02.2013": {"weekday": "saturday", "year": 2013, "categories": {"11-M40": {"pace": 320000000000, "rank": 412, "distance": 11, "time": 3529.0}}, "day": 23, "month": 2, "livingplace": "smrun"}}, "location": "Bremgarten AG"}, "Ch\u00e4sitzerlouf, Kehrsatz": {"race": "Ch\u00e4sitzerlouf, Kehrsatz", "date": {"sam. 04.04.2009": {"weekday": "saturday", "year": 2009, "categories": {"M40": {"pace": 307000000000, "rank": 135, "distance": 12, "time": 3690.4}}, "day": 4, "month": 4, "livingplace": "Ostermundigen"}}, "location": "Kehrsatz"}, "Morat-Fribourg": {"race": "Morat-Fribourg", "longitude": 7.120184, "latitude": 46.92922110000001, "date": {"sam. 03.10.2009": {"weekday": "saturday", "year": 2009, "categories": {"C-M40": {"pace": 341000000000, "rank": 648, "distance": 17, "time": 5872.0}}, "day": 3, "month": 10, "livingplace": "Ostermundigen"}, "sam. 06.10.2007": {"weekday": "saturday", "year": 2007, "categories": {"C/M40": {"pace": 377000000000, "rank": 783, "distance": 17, "time": 6488.9}}, "day": 6, "month": 10, "livingplace": "Ostermundigen"}}, "location": "Murten"}, "Steinh\u00f6lzlilauf, Liebefeld": {"race": "Steinh\u00f6lzlilauf, Liebefeld", "longitude": 7.416668, "latitude": 46.933331, "date": {"dim. 06.12.2009": {"weekday": "sunday", "year": 2009, "categories": {"SenIIM": {"pace": 292000000000, "rank": 36, "distance": 11, "time": 3076.1}}, "day": 6, "month": 12, "livingplace": "Ostermundigen"}}, "location": "Liebefeld"}, "Kerzerslauf": {"race": "Kerzerslauf", "longitude": 7.1954365, "latitude": 46.97488999999999, "date": {"sam. 19.03.2011": {"weekday": "saturday", "year": 2011, "categories": {"15-M45": {"pace": 310000000000, "rank": 428, "distance": 15, "time": 4652.1}}, "day": 19, "month": 3, "livingplace": "Bern"}, "sam. 15.03.2008": {"weekday": "saturday", "year": 2008, "categories": {"15/M40": {"pace": 353000000000, "rank": 576, "distance": 15, "time": 5308.6}}, "day": 15, "month": 3, "livingplace": "Ostermundigen"}}, "location": "Kerzers"}, "Murilauf, Muri b  Bern": {"race": "Murilauf, Muri b  Bern", "longitude": 7.498472799999999, "latitude": 46.9350521, "date": {"dim. 01.07.2012": {"weekday": "sunday", "year": 2012, "categories": {"10-M92": {"pace": 303000000000, "rank": 35, "distance": 10, "time": 3031.2}}, "day": 1, "month": 7, "livingplace": "Bern"}}, "location": "Muri b. Bern"}}, "name": "Burkhardt Ralf", "birth": 1966}