{"sex": "F", "races": {"Tour du Chablais #5 Morgins": {"race": "Tour du Chablais #5 Morgins", "longitude": 6.931504599999999, "latitude": 46.3603257, "date": {"mer. 01.05.2013": {"weekday": "wednesday", "year": 2013, "categories": {"F-F20": {"pace": 322000000000, "rank": 43, "distance": 8, "time": 2450.5}}, "day": 1, "month": 5, "livingplace": "Le Cotterg"}}, "location": "Roche VD"}, "Tour du Chablais #6 Monthey": {"race": "Tour du Chablais #6 Monthey", "longitude": 6.970566, "latitude": 46.3190253, "date": {"mer. 08.05.2013": {"weekday": "wednesday", "year": 2013, "categories": {"F-F20": {"pace": 303000000000, "rank": 55, "distance": 9, "time": 2830.4}}, "day": 8, "month": 5, "livingplace": "Le Cotterg"}}, "location": "Aigle"}, "Tour du Chablais #2 Yvorne": {"race": "Tour du Chablais #2 Yvorne", "longitude": 6.854975199999999, "latitude": 46.3835529, "date": {"mer. 10.04.2013": {"weekday": "wednesday", "year": 2013, "categories": {"F-F20": {"pace": 326000000000, "rank": 41, "distance": 8, "time": 2608.8}}, "day": 10, "month": 4, "livingplace": "Le Cotterg"}}, "location": "Bouveret"}, "Tour du Chablais #3 Bouveret": {"race": "Tour du Chablais #3 Bouveret", "longitude": 7.0223787, "latitude": 46.1782231, "date": {"mer. 17.04.2013": {"weekday": "wednesday", "year": 2013, "categories": {"F-F20": {"pace": 306000000000, "rank": 47, "distance": 10, "time": 3066.1}}, "day": 17, "month": 4, "livingplace": "Le Cotterg"}}, "location": "Evionnaz"}, "Tour du Chablais #1 Roche": {"race": "Tour du Chablais #1 Roche", "longitude": 6.9916269, "latitude": 46.2957462, "date": {"mer. 03.04.2013": {"weekday": "wednesday", "year": 2013, "categories": {"F-F20": {"pace": 298000000000, "rank": 45, "distance": 9, "time": 2645.1}}, "day": 3, "month": 4, "livingplace": "Le Cotterg"}}, "location": "Ollon VD"}, "Tour du Chablais #4 St  Maurice": {"race": "Tour du Chablais #4 St  Maurice", "date": {"mer. 24.04.2013": {"weekday": "wednesday", "year": 2013, "categories": {"F-F20": {"pace": 305000000000, "rank": 38, "distance": 10, "time": 3057.8}}, "day": 24, "month": 4, "livingplace": "Le Cotterg"}}, "location": "Les Mosses"}}, "name": "Burtin C\u00e9line", "birth": 1988}