{"sex": "M", "races": {"Badener Limmat-Lauf, Baden": {"race": "Badener Limmat-Lauf, Baden", "longitude": 8.5303972, "latitude": 48.5699281, "date": {"sam. 29.03.2008": {"weekday": "saturday", "year": 2008, "categories": {"M30": {"pace": 276000000000, "rank": 82, "distance": 13, "time": 3648.8}}, "day": 29, "month": 3, "livingplace": "Aarau"}}, "location": "Baden"}, "Basel City Marathon": {"race": "Basel City Marathon", "longitude": 7.5885761, "latitude": 47.5595986, "date": {"dim. 03.09.2006": {"weekday": "sunday", "year": 2006, "categories": {"H-M30": {"pace": 325000000000, "rank": 141, "distance": 21, "time": 6866.8}}, "day": 3, "month": 9, "livingplace": "Kuttigen"}}, "location": "Basel"}, "Hallwilerseelauf, Beinwil am See": {"race": "Hallwilerseelauf, Beinwil am See", "date": {"sam. 10.10.2009": {"weekday": "saturday", "year": 2009, "categories": {"10-Mann": {"pace": 307000000000, "rank": 170, "distance": 10, "time": 3072.3}}, "day": 10, "month": 10, "livingplace": "Aarau"}}, "location": "Beinwil am See"}, "ASICS Bremgarter Reusslauf": {"race": "ASICS Bremgarter Reusslauf", "longitude": 8.3397905, "latitude": 47.34917739999999, "date": {"sam. 17.02.2007": {"weekday": "saturday", "year": 2007, "categories": {"M30": {"pace": 273000000000, "rank": 259, "distance": 11, "time": 2876.2}}, "day": 17, "month": 2, "livingplace": "Kuttigen"}, "sam. 23.02.2008": {"weekday": "saturday", "year": 2008, "categories": {"M30": {"pace": 295000000000, "rank": 278, "distance": 11, "time": 3254.5}}, "day": 23, "month": 2, "livingplace": "Kuttigen"}}, "location": "Bremgarten AG"}, "Kerzerslauf": {"race": "Kerzerslauf", "longitude": 7.1954365, "latitude": 46.97488999999999, "date": {"sam. 15.03.2008": {"weekday": "saturday", "year": 2008, "categories": {"15/M35": {"pace": 301000000000, "rank": 315, "distance": 15, "time": 4515.9}}, "day": 15, "month": 3, "livingplace": "Kuttigen"}, "sam. 17.03.2007": {"weekday": "saturday", "year": 2007, "categories": {"M35": {"pace": 300000000000, "rank": 324, "distance": 15, "time": 4506.6}}, "day": 17, "month": 3, "livingplace": "Kuttigen"}}, "location": "Kerzers"}, "20km de Lausanne": {"race": "20km de Lausanne", "longitude": 6.6322734, "latitude": 46.5196535, "date": {"sam. 28.04.2007": {"weekday": "saturday", "year": 2007, "categories": {"20H30": {"pace": 325000000000, "rank": 468, "distance": 20, "time": 6505.6}}, "day": 28, "month": 4, "livingplace": "Kuettigen"}}, "location": "Lausanne"}}, "name": "Butscher Patrick", "birth": 1970}