{"sex": "F", "races": {"Tour du Chablais #2 Bex": {"race": "Tour du Chablais #2 Bex", "longitude": 6.854975199999999, "latitude": 46.3835529, "date": {"mer. 18.04.2012": {"weekday": "wednesday", "year": 2012, "categories": {"F-F50": {"pace": 283000000000, "rank": 4, "distance": 8, "time": 2264.0}}, "day": 18, "month": 4, "livingplace": "Val d'Illiez"}}, "location": "Bouveret"}, "Tour du Chablais #5 Bex": {"race": "Tour du Chablais #5 Bex", "longitude": 6.931504599999999, "latitude": 46.3603257, "date": {"mer. 09.05.2012": {"weekday": "wednesday", "year": 2012, "categories": {"F-F50": {"pace": 271000000000, "rank": 5, "distance": 9, "time": 2406.9}}, "day": 9, "month": 5, "livingplace": "Val d'Illiez"}}, "location": "Roche VD"}, "Tour du Chablais #6 Montreux": {"race": "Tour du Chablais #6 Montreux", "longitude": 6.970566, "latitude": 46.3190253, "date": {"mer. 16.05.2012": {"weekday": "wednesday", "year": 2012, "categories": {"F-F50": {"pace": 275000000000, "rank": 4, "distance": 9, "time": 2548.4}}, "day": 16, "month": 5, "livingplace": "Val d'Illiez"}}, "location": "Aigle"}, "Tour du Chablais #4 Morgins": {"race": "Tour du Chablais #4 Morgins", "date": {"mer. 18.05.2011": {"weekday": "wednesday", "year": 2011, "categories": {"F-F40": {"pace": 326000000000, "rank": 26, "distance": 8, "time": 2723.4}}, "day": 18, "month": 5, "livingplace": "Val d'Illiez"}}, "location": "Les Mosses"}, "Lausanne Marathon": {"race": "Lausanne Marathon", "longitude": 6.6322734, "latitude": 46.5196535, "date": {"dim. 28.10.2012": {"weekday": "sunday", "year": 2012, "categories": {"42-D4": {"pace": 346000000000, "rank": 12, "distance": 42, "time": 14638.1}}, "day": 28, "month": 10, "livingplace": "Val d'Illiez"}}, "location": "Lausanne"}, "Tour du Chablais #1 Montreux": {"race": "Tour du Chablais #1 Montreux", "longitude": 6.9916269, "latitude": 46.2957462, "date": {"mer. 11.04.2012": {"weekday": "wednesday", "year": 2012, "categories": {"F-F50": {"pace": 294000000000, "rank": 3, "distance": 8, "time": 2240.8}}, "day": 11, "month": 4, "livingplace": "Val d'Illiez"}}, "location": "Ollon VD"}, "Sierre-Zinal, Sierre": {"race": "Sierre-Zinal, Sierre", "longitude": 7.533536199999999, "latitude": 46.29413110000001, "date": {"dim. 09.08.2015": {"weekday": "sunday", "year": 2015, "categories": {"Femm_II": {"pace": 617000000000, "rank": 13, "distance": 31, "time": 19129.7}}, "day": 9, "month": 8, "livingplace": "Val d'Illiez"}}, "location": "Sierre"}, "Tour du Chablais #4 St  Maurice": {"race": "Tour du Chablais #4 St  Maurice", "date": {"mer. 24.04.2013": {"weekday": "wednesday", "year": 2013, "categories": {"F-F50": {"pace": 283000000000, "rank": 4, "distance": 10, "time": 2837.1}}, "day": 24, "month": 4, "livingplace": "Val d'Illiez"}}, "location": "Les Mosses"}, "La Montheysanne, Monthey": {"race": "La Montheysanne, Monthey", "longitude": 6.9469598, "latitude": 46.2521873, "date": {"dim. 25.08.2013": {"weekday": "sunday", "year": 2013, "categories": {"10-DA3": {"pace": 278000000000, "rank": 1, "distance": 10, "time": 2786.7}}, "day": 25, "month": 8, "livingplace": "Val d'Illiez"}, "dim. 24.08.2014": {"weekday": "sunday", "year": 2014, "categories": {"10-DA3": {"pace": 294000000000, "rank": 4, "distance": 10, "time": 2947.9}}, "day": 24, "month": 8, "livingplace": "Val d'Illiez"}}, "location": "Monthey"}, "Tour du Chablais #4 Champ\u00e9ry": {"race": "Tour du Chablais #4 Champ\u00e9ry", "date": {"mer. 02.05.2012": {"weekday": "wednesday", "year": 2012, "categories": {"F-F50": {"pace": 281000000000, "rank": 4, "distance": 8, "time": 2332.9}}, "day": 2, "month": 5, "livingplace": "Val d'Illiez"}}, "location": "Les Mosses"}, "Tour du Chablais #6 Monthey": {"race": "Tour du Chablais #6 Monthey", "longitude": 6.970566, "latitude": 46.3190253, "date": {"mer. 08.05.2013": {"weekday": "wednesday", "year": 2013, "categories": {"F-F50": {"pace": 274000000000, "rank": 4, "distance": 9, "time": 2556.5}}, "day": 8, "month": 5, "livingplace": "Val d'Illiez"}}, "location": "Aigle"}, "Tour du Chablais #2 Yvorne": {"race": "Tour du Chablais #2 Yvorne", "longitude": 6.854975199999999, "latitude": 46.3835529, "date": {"mer. 10.04.2013": {"weekday": "wednesday", "year": 2013, "categories": {"F-F50": {"pace": 299000000000, "rank": 3, "distance": 8, "time": 2393.3}}, "day": 10, "month": 4, "livingplace": "Val d'Illiez"}}, "location": "Bouveret"}, "Montreux - Les Rochers de Naye": {"race": "Montreux - Les Rochers de Naye", "longitude": 6.9106799, "latitude": 46.4312213, "date": {"dim. 11.07.2010": {"weekday": "sunday", "year": 2010, "categories": {"M-F-Spez": {"pace": 566000000000, "rank": 46, "distance": 19, "time": 10655.4}}, "day": 11, "month": 7, "livingplace": "Val d'Illiez"}}, "location": "Montreux"}, "Tour du Chablais #3 Bouveret": {"race": "Tour du Chablais #3 Bouveret", "longitude": 7.0223787, "latitude": 46.1782231, "date": {"mer. 17.04.2013": {"weekday": "wednesday", "year": 2013, "categories": {"F-F50": {"pace": 283000000000, "rank": 4, "distance": 10, "time": 2839.7}}, "day": 17, "month": 4, "livingplace": "Val d'Illiez"}}, "location": "Evionnaz"}, "Tour du Chablais #1 Roche": {"race": "Tour du Chablais #1 Roche", "longitude": 6.9916269, "latitude": 46.2957462, "date": {"mer. 03.04.2013": {"weekday": "wednesday", "year": 2013, "categories": {"F-F50": {"pace": 277000000000, "rank": 5, "distance": 9, "time": 2460.4}}, "day": 3, "month": 4, "livingplace": "Val d'Illiez"}}, "location": "Ollon VD"}, "Tour du Chablais #3 Collombey-Muraz": {"race": "Tour du Chablais #3 Collombey-Muraz", "longitude": 7.0223787, "latitude": 46.1782231, "date": {"mer. 25.04.2012": {"weekday": "wednesday", "year": 2012, "categories": {"F-F50": {"pace": 277000000000, "rank": 5, "distance": 9, "time": 2490.9}}, "day": 25, "month": 4, "livingplace": "Val d'Illiez"}}, "location": "Evionnaz"}, "Morat-Fribourg": {"race": "Morat-Fribourg", "longitude": 7.120184, "latitude": 46.92922110000001, "date": {"sam. 01.10.2011": {"weekday": "saturday", "year": 2011, "categories": {"17-W45": {"pace": 341000000000, "rank": 78, "distance": 17, "time": 5863.8}}, "day": 1, "month": 10, "livingplace": "Val d'Illiez"}, "sam. 06.10.2012": {"weekday": "saturday", "year": 2012, "categories": {"17-W50": {"pace": 319000000000, "rank": 32, "distance": 17, "time": 5572.2}}, "day": 6, "month": 10, "livingplace": "Val d'Illiez"}}, "location": "Murten"}, "Tour du Chablais #6 Aigle": {"race": "Tour du Chablais #6 Aigle", "longitude": 6.970566, "latitude": 46.3190253, "date": {"mer. 01.06.2011": {"weekday": "wednesday", "year": 2011, "categories": {"F-F40": {"pace": 288000000000, "rank": 21, "distance": 10, "time": 2940.5}}, "day": 1, "month": 6, "livingplace": "Val d'Illiez"}}, "location": "Aigle"}, "Tour du Chablais #5 Les Mosses": {"race": "Tour du Chablais #5 Les Mosses", "longitude": 6.931504599999999, "latitude": 46.3603257, "date": {"mer. 25.05.2011": {"weekday": "wednesday", "year": 2011, "categories": {"F-F40": {"pace": 318000000000, "rank": 20, "distance": 8, "time": 2548.3}}, "day": 25, "month": 5, "livingplace": "Val d'Illiez"}}, "location": "Roche VD"}, "Tour du Chablais #1 Lavey": {"race": "Tour du Chablais #1 Lavey", "longitude": 6.9916269, "latitude": 46.2957462, "date": {"mer. 27.04.2011": {"weekday": "wednesday", "year": 2011, "categories": {"F-F40": {"pace": 305000000000, "rank": 25, "distance": 9, "time": 2746.4}}, "day": 27, "month": 4, "livingplace": "Val d'Illiez"}}, "location": "Ollon VD"}, "Tour du Chablais #5 Morgins": {"race": "Tour du Chablais #5 Morgins", "longitude": 6.931504599999999, "latitude": 46.3603257, "date": {"mer. 01.05.2013": {"weekday": "wednesday", "year": 2013, "categories": {"F-F50": {"pace": 291000000000, "rank": 3, "distance": 8, "time": 2214.6}}, "day": 1, "month": 5, "livingplace": "Val d'Illiez"}}, "location": "Roche VD"}, "Tour du Chablais #3 Le Bouveret": {"race": "Tour du Chablais #3 Le Bouveret", "longitude": 7.0223787, "latitude": 46.1782231, "date": {"mer. 11.05.2011": {"weekday": "wednesday", "year": 2011, "categories": {"F-F40": {"pace": 330000000000, "rank": 43, "distance": 10, "time": 3302.9}}, "day": 11, "month": 5, "livingplace": "Val d'Illiez"}}, "location": "Evionnaz"}, "Tour du Chablais #2 Rennaz": {"race": "Tour du Chablais #2 Rennaz", "longitude": 6.854975199999999, "latitude": 46.3835529, "date": {"mer. 04.05.2011": {"weekday": "wednesday", "year": 2011, "categories": {"F-F40": {"pace": 305000000000, "rank": 23, "distance": 9, "time": 2856.8}}, "day": 4, "month": 5, "livingplace": "Val d'Illiez"}}, "location": "Bouveret"}, "Tour du Chablais #1 Martigny": {"race": "Tour du Chablais #1 Martigny", "longitude": 6.9916269, "latitude": 46.2957462, "date": {"mer. 23.04.2014": {"weekday": "wednesday", "year": 2014, "categories": {"F-F50": {"pace": 284000000000, "rank": 5, "distance": 9, "time": 2420.8}}, "day": 23, "month": 4, "livingplace": "Val d'Illiez"}}, "location": "Ollon VD"}}, "name": "Caillet-Bois Susanne", "birth": 1962}