{"sex": "M", "races": {"Tour du Chablais #4 Champ\u00e9ry": {"race": "Tour du Chablais #4 Champ\u00e9ry", "date": {"mer. 02.05.2012": {"weekday": "wednesday", "year": 2012, "categories": {"M-M20": {"pace": 225000000000, "rank": 27, "distance": 8, "time": 1870.9}}, "day": 2, "month": 5, "livingplace": "Chermignon"}}, "location": "Les Mosses"}, "Tour du Chablais #4 Yvorne": {"race": "Tour du Chablais #4 Yvorne", "date": {"mer. 28.04.2010": {"weekday": "wednesday", "year": 2010, "categories": {"M-M20": {"pace": 238000000000, "rank": 22, "distance": 8, "time": 1974.9}}, "day": 28, "month": 4, "livingplace": "Chermignon"}}, "location": "Les Mosses"}, "Tour du Chablais #6 Montreux": {"race": "Tour du Chablais #6 Montreux", "longitude": 6.970566, "latitude": 46.3190253, "date": {"mer. 16.05.2012": {"weekday": "wednesday", "year": 2012, "categories": {"M-M20": {"pace": 221000000000, "rank": 24, "distance": 9, "time": 2052.6}}, "day": 16, "month": 5, "livingplace": "Chermignon"}}, "location": "Aigle"}, "Tour du Chablais #3 Collombey-Muraz": {"race": "Tour du Chablais #3 Collombey-Muraz", "longitude": 7.0223787, "latitude": 46.1782231, "date": {"mer. 25.04.2012": {"weekday": "wednesday", "year": 2012, "categories": {"M-M20": {"pace": 228000000000, "rank": 36, "distance": 9, "time": 2051.2}}, "day": 25, "month": 4, "livingplace": "Chermignon"}}, "location": "Evionnaz"}, "Tour du Chablais #2 Bex": {"race": "Tour du Chablais #2 Bex", "longitude": 6.854975199999999, "latitude": 46.3835529, "date": {"mer. 18.04.2012": {"weekday": "wednesday", "year": 2012, "categories": {"M-M20": {"pace": 232000000000, "rank": 35, "distance": 8, "time": 1861.3}}, "day": 18, "month": 4, "livingplace": "Chermignon"}}, "location": "Bouveret"}, "Morat-Fribourg": {"race": "Morat-Fribourg", "longitude": 7.120184, "latitude": 46.92922110000001, "date": {"sam. 03.10.2009": {"weekday": "saturday", "year": 2009, "categories": {"C-M20": {"pace": 244000000000, "rank": 98, "distance": 17, "time": 4200.4}}, "day": 3, "month": 10, "livingplace": "Monthey"}, "sam. 01.10.2011": {"weekday": "saturday", "year": 2011, "categories": {"17-M20": {"pace": 239000000000, "rank": 108, "distance": 17, "time": 4104.8}}, "day": 1, "month": 10, "livingplace": "Chermignon"}, "sam. 04.10.2008": {"weekday": "saturday", "year": 2008, "categories": {"C-M20": {"pace": 265000000000, "rank": 334, "distance": 17, "time": 4553.6}}, "day": 4, "month": 10, "livingplace": "Chermignon"}}, "location": "Murten"}, "Tour du Chablais #6 Aigle": {"race": "Tour du Chablais #6 Aigle", "longitude": 6.970566, "latitude": 46.3190253, "date": {"mer. 01.06.2011": {"weekday": "wednesday", "year": 2011, "categories": {"M-M20": {"pace": 222000000000, "rank": 27, "distance": 10, "time": 2272.8}}, "day": 1, "month": 6, "livingplace": "Chermignon"}}, "location": "Aigle"}, "Tour du Chablais #4 Morgins": {"race": "Tour du Chablais #4 Morgins", "date": {"mer. 18.05.2011": {"weekday": "wednesday", "year": 2011, "categories": {"M-M20": {"pace": 248000000000, "rank": 36, "distance": 8, "time": 2076.7}}, "day": 18, "month": 5, "livingplace": "Chermignon"}}, "location": "Les Mosses"}, "Tour du Chablais #6 Mouthey": {"race": "Tour du Chablais #6 Mouthey", "longitude": 6.970566, "latitude": 46.3190253, "date": {"mer. 12.05.2010": {"weekday": "wednesday", "year": 2010, "categories": {"M-M20": {"pace": 222000000000, "rank": 33, "distance": 9, "time": 2045.5}}, "day": 12, "month": 5, "livingplace": "Chermignon"}}, "location": "Aigle"}, "Tour du Chablais #5 Leysin": {"race": "Tour du Chablais #5 Leysin", "longitude": 6.931504599999999, "latitude": 46.3603257, "date": {"mer. 05.05.2010": {"weekday": "wednesday", "year": 2010, "categories": {"M-M20": {"pace": 243000000000, "rank": 20, "distance": 8, "time": 2060.4}}, "day": 5, "month": 5, "livingplace": "Chermignon"}}, "location": "Roche VD"}, "Tour du Chablais #5 Les Mosses": {"race": "Tour du Chablais #5 Les Mosses", "longitude": 6.931504599999999, "latitude": 46.3603257, "date": {"mer. 25.05.2011": {"weekday": "wednesday", "year": 2011, "categories": {"M-M20": {"pace": 245000000000, "rank": 29, "distance": 8, "time": 1967.8}}, "day": 25, "month": 5, "livingplace": "Chermignon"}}, "location": "Roche VD"}, "Tour du Chablais #5 Bex": {"race": "Tour du Chablais #5 Bex", "longitude": 6.931504599999999, "latitude": 46.3603257, "date": {"mer. 09.05.2012": {"weekday": "wednesday", "year": 2012, "categories": {"M-M20": {"pace": 222000000000, "rank": 25, "distance": 9, "time": 1975.0}}, "day": 9, "month": 5, "livingplace": "Chermignon"}}, "location": "Roche VD"}, "Tour du Chablais #3 Bex": {"race": "Tour du Chablais #3 Bex", "longitude": 7.0223787, "latitude": 46.1782231, "date": {"mer. 21.04.2010": {"weekday": "wednesday", "year": 2010, "categories": {"M-M20": {"pace": 238000000000, "rank": 32, "distance": 10, "time": 2383.1}}, "day": 21, "month": 4, "livingplace": "Chermignon"}}, "location": "Evionnaz"}, "Tour du Chablais #1 Montreux": {"race": "Tour du Chablais #1 Montreux", "longitude": 6.9916269, "latitude": 46.2957462, "date": {"mer. 11.04.2012": {"weekday": "wednesday", "year": 2012, "categories": {"M-M20": {"pace": 244000000000, "rank": 46, "distance": 8, "time": 1858.2}}, "day": 11, "month": 4, "livingplace": "Chermignon"}}, "location": "Ollon VD"}, "Tour du Chablais #3 Le Bouveret": {"race": "Tour du Chablais #3 Le Bouveret", "longitude": 7.0223787, "latitude": 46.1782231, "date": {"mer. 11.05.2011": {"weekday": "wednesday", "year": 2011, "categories": {"M-M20": {"pace": 260000000000, "rank": 101, "distance": 10, "time": 2603.7}}, "day": 11, "month": 5, "livingplace": "Chermignon"}}, "location": "Evionnaz"}, "Tour du Chablais #2 St-Gingolph": {"race": "Tour du Chablais #2 St-Gingolph", "longitude": 6.854975199999999, "latitude": 46.3835529, "date": {"mer. 14.04.2010": {"weekday": "wednesday", "year": 2010, "categories": {"M-M20": {"pace": 245000000000, "rank": 25, "distance": 8, "time": 2049.9}}, "day": 14, "month": 4, "livingplace": "Chermignon"}}, "location": "Bouveret"}, "Lausanne Marathon": {"race": "Lausanne Marathon", "longitude": 6.6322734, "latitude": 46.5196535, "date": {"dim. 30.10.2011": {"weekday": "sunday", "year": 2011, "categories": {"21-H2": {"pace": 233000000000, "rank": 33, "distance": 21, "time": 4929.4}}, "day": 30, "month": 10, "livingplace": "Chermignon"}}, "location": "Lausanne"}, "Tour du Chablais #2 Rennaz": {"race": "Tour du Chablais #2 Rennaz", "longitude": 6.854975199999999, "latitude": 46.3835529, "date": {"mer. 04.05.2011": {"weekday": "wednesday", "year": 2011, "categories": {"M-M20": {"pace": 240000000000, "rank": 50, "distance": 9, "time": 2252.5}}, "day": 4, "month": 5, "livingplace": "Chermignon"}}, "location": "Bouveret"}}, "name": "Caillat Pierre-Fran\u00e7ois", "birth": 1978}