{"sex": "F", "races": {"Tour du Chablais #2 Yvorne": {"race": "Tour du Chablais #2 Yvorne", "longitude": 6.854975199999999, "latitude": 46.3835529, "date": {"mer. 10.04.2013": {"weekday": "wednesday", "year": 2013, "categories": {"F-F20": {"pace": 330000000000, "rank": 46, "distance": 8, "time": 2643.3}}, "day": 10, "month": 4, "livingplace": "Val d'Illiez"}}, "location": "Bouveret"}, "Course p\u00e9destre Thyon-Dixence, Thyon": {"race": "Course p\u00e9destre Thyon-Dixence, Thyon", "date": {"dim. 03.08.2014": {"weekday": "sunday", "year": 2014, "categories": {"FemElite": {"pace": 515000000000, "rank": 35, "distance": 16, "time": 8431.2}}, "day": 3, "month": 8, "livingplace": "Val d'Illiez"}}, "location": "Thyon-Les Collons"}, "Tour du Chablais #6 Monthey": {"race": "Tour du Chablais #6 Monthey", "longitude": 6.970566, "latitude": 46.3190253, "date": {"mer. 08.05.2013": {"weekday": "wednesday", "year": 2013, "categories": {"F-F20": {"pace": 311000000000, "rank": 61, "distance": 9, "time": 2901.4}}, "day": 8, "month": 5, "livingplace": "Val d'Illiez"}}, "location": "Aigle"}, "Tour du Chablais #5 Morgins": {"race": "Tour du Chablais #5 Morgins", "longitude": 6.931504599999999, "latitude": 46.3603257, "date": {"mer. 01.05.2013": {"weekday": "wednesday", "year": 2013, "categories": {"F-F20": {"pace": 331000000000, "rank": 52, "distance": 8, "time": 2517.3}}, "day": 1, "month": 5, "livingplace": "Val d'Illiez"}}, "location": "Roche VD"}, "Tour du Chablais #1 Roche": {"race": "Tour du Chablais #1 Roche", "longitude": 6.9916269, "latitude": 46.2957462, "date": {"mer. 03.04.2013": {"weekday": "wednesday", "year": 2013, "categories": {"F-F20": {"pace": 296000000000, "rank": 41, "distance": 9, "time": 2623.1}}, "day": 3, "month": 4, "livingplace": "Val d'Illiez"}}, "location": "Ollon VD"}, "Tour du Chablais #4 St  Maurice": {"race": "Tour du Chablais #4 St  Maurice", "date": {"mer. 24.04.2013": {"weekday": "wednesday", "year": 2013, "categories": {"F-F20": {"pace": 313000000000, "rank": 48, "distance": 10, "time": 3135.7}}, "day": 24, "month": 4, "livingplace": "Val d'Illiez"}}, "location": "Les Mosses"}, "Morat-Fribourg": {"race": "Morat-Fribourg", "longitude": 7.120184, "latitude": 46.92922110000001, "date": {"sam. 01.10.2011": {"weekday": "saturday", "year": 2011, "categories": {"17-JunF": {"pace": 331000000000, "rank": 10, "distance": 17, "time": 5699.0}}, "day": 1, "month": 10, "livingplace": "Val d'Illiez"}, "sam. 06.10.2012": {"weekday": "saturday", "year": 2012, "categories": {"17-JunF": {"pace": 341000000000, "rank": 7, "distance": 17, "time": 5953.7}}, "day": 6, "month": 10, "livingplace": "Val d'Illiez"}}, "location": "Murten"}, "Montreux - Les Rochers de Naye": {"race": "Montreux - Les Rochers de Naye", "longitude": 6.9106799, "latitude": 46.4312213, "date": {"dim. 11.07.2010": {"weekday": "sunday", "year": 2010, "categories": {"M-F-Spez": {"pace": 560000000000, "rank": 42, "distance": 19, "time": 10545.9}}, "day": 11, "month": 7, "livingplace": "Val d'Illiez"}}, "location": "Montreux"}, "Tour du Chablais #1 Martigny": {"race": "Tour du Chablais #1 Martigny", "longitude": 6.9916269, "latitude": 46.2957462, "date": {"mer. 23.04.2014": {"weekday": "wednesday", "year": 2014, "categories": {"F-F20": {"pace": 311000000000, "rank": 74, "distance": 9, "time": 2646.0}}, "day": 23, "month": 4, "livingplace": "Val d'Illiez"}}, "location": "Ollon VD"}}, "name": "Caillet-Bois Romy", "birth": 1993}