{"sex": "M", "races": {"BCN Tour #4 Fleurier": {"race": "BCN Tour #4 Fleurier", "longitude": 6.832783800000001, "latitude": 47.1034892, "date": {"mer. 15.05.2013": {"weekday": "wednesday", "year": 2013, "categories": {"HS2": {"pace": 375000000000, "rank": 275, "distance": 9, "time": 3251.2}}, "day": 15, "month": 5, "livingplace": "Neuchatel"}}, "location": "La Chaux-de-Fonds"}, "BCN Tour #3 Dombresson": {"race": "BCN Tour #3 Dombresson", "longitude": 6.733554799999999, "latitude": 46.999113, "date": {"mer. 08.05.2013": {"weekday": "wednesday", "year": 2013, "categories": {"HS2": {"pace": 361000000000, "rank": 333, "distance": 10, "time": 3582.8}}, "day": 8, "month": 5, "livingplace": "Neuchatel"}}, "location": "Les Ponts-de-Martel"}, "BCN Tour #1 Corcelles": {"race": "BCN Tour #1 Corcelles", "longitude": 6.8589727, "latitude": 46.9668714, "date": {"mer. 24.04.2013": {"weekday": "wednesday", "year": 2013, "categories": {"HS2": {"pace": 348000000000, "rank": 276, "distance": 10, "time": 3411.2}}, "day": 24, "month": 4, "livingplace": "Neuchatel"}}, "location": "Colombier NE"}, "BCN Tour La Chaux-de-Fonds": {"race": "BCN Tour La Chaux-de-Fonds", "longitude": 6.6324944, "latitude": 46.9262933, "date": {"mer. 23.05.2012": {"weekday": "wednesday", "year": 2012, "categories": {"HS2": {"pace": 356000000000, "rank": 283, "distance": 11, "time": 3848.0}}, "day": 23, "month": 5, "livingplace": "Neuchatel"}}, "location": "Couvet"}, "La Trotteuse-Tissot, La Chaux-de-Fonds": {"race": "La Trotteuse-Tissot, La Chaux-de-Fonds", "longitude": 6.832783800000001, "latitude": 47.1034892, "date": {"sam. 12.12.2015": {"weekday": "saturday", "year": 2015, "categories": {"GC-H50": {"pace": 295000000000, "rank": 73, "distance": 8, "time": 2360.5}}, "day": 12, "month": 12, "livingplace": "Neuchatel"}, "sam. 17.12.2011": {"weekday": "saturday", "year": 2011, "categories": {"GC-H40": {"pace": 313000000000, "rank": 82, "distance": 8, "time": 2507.1}}, "day": 17, "month": 12, "livingplace": "Neuchatel"}, "sam. 08.12.2012": {"weekday": "saturday", "year": 2012, "categories": {"GC-H40": {"pace": 313000000000, "rank": 78, "distance": 8, "time": 2507.9}}, "day": 8, "month": 12, "livingplace": "Neuchatel"}, "sam. 13.12.2014": {"weekday": "saturday", "year": 2014, "categories": {"GC-H40": {"pace": 294000000000, "rank": 113, "distance": 8, "time": 2352.6}}, "day": 13, "month": 12, "livingplace": "Neuchatel"}}, "location": "La Chaux-de-Fonds"}, "BCN Tour Colombier": {"race": "BCN Tour Colombier", "longitude": 6.832783800000001, "latitude": 47.1034892, "date": {"mer. 16.05.2012": {"weekday": "wednesday", "year": 2012, "categories": {"HS2": {"pace": 368000000000, "rank": 320, "distance": 11, "time": 3976.7}}, "day": 16, "month": 5, "livingplace": "Neuchatel"}}, "location": "La Chaux-de-Fonds"}, "Morat-Fribourg": {"race": "Morat-Fribourg", "longitude": 7.120184, "latitude": 46.92922110000001, "date": {"sam. 01.10.2011": {"weekday": "saturday", "year": 2011, "categories": {"17-M45": {"pace": 324000000000, "rank": 442, "distance": 17, "time": 5578.0}}, "day": 1, "month": 10, "livingplace": "Neuchatel"}}, "location": "Murten"}, "Kerzerslauf": {"race": "Kerzerslauf", "longitude": 7.1954365, "latitude": 46.97488999999999, "date": {"sam. 15.03.2014": {"weekday": "saturday", "year": 2014, "categories": {"5-M20": {"pace": 275000000000, "rank": 60, "distance": 5, "time": 1379.6}}, "day": 15, "month": 3, "livingplace": "Neuchatel"}, "sam. 16.03.2013": {"weekday": "saturday", "year": 2013, "categories": {"15-M45": {"pace": 288000000000, "rank": 270, "distance": 15, "time": 4324.7}}, "day": 16, "month": 3, "livingplace": "Neuchatel"}, "sam. 17.03.2012": {"weekday": "saturday", "year": 2012, "categories": {"15-M45": {"pace": 318000000000, "rank": 466, "distance": 15, "time": 4770.2}}, "day": 17, "month": 3, "livingplace": "Neuchatel"}}, "location": "Kerzers"}, "BCN Tour Couvet": {"race": "BCN Tour Couvet", "longitude": 6.9175754, "latitude": 47.0624261, "date": {"mer. 02.05.2012": {"weekday": "wednesday", "year": 2012, "categories": {"HS2": {"pace": 346000000000, "rank": 235, "distance": 11, "time": 3858.9}}, "day": 2, "month": 5, "livingplace": "Neuchatel"}}, "location": "Ch\u00e9zard-St-Martin"}, "BCN Tour #2 La Chaux-de-Fonds": {"race": "BCN Tour #2 La Chaux-de-Fonds", "longitude": 6.9175754, "latitude": 47.0624261, "date": {"mer. 01.05.2013": {"weekday": "wednesday", "year": 2013, "categories": {"HS2": {"pace": 362000000000, "rank": 332, "distance": 11, "time": 3873.8}}, "day": 1, "month": 5, "livingplace": "Neuchatel"}}, "location": "Ch\u00e9zard-St-Martin"}, "20km de Lausanne": {"race": "20km de Lausanne", "longitude": 6.6322734, "latitude": 46.5196535, "date": {"sam. 27.04.2013": {"weekday": "saturday", "year": 2013, "categories": {"20-H45": {"pace": 299000000000, "rank": 193, "distance": 20, "time": 5983.0}}, "day": 27, "month": 4, "livingplace": "Neuchatel"}}, "location": "Lausanne"}, "BCN Tour #5 Colombier": {"race": "BCN Tour #5 Colombier", "longitude": 6.6324944, "latitude": 46.9262933, "date": {"mer. 22.05.2013": {"weekday": "wednesday", "year": 2013, "categories": {"HS2": {"pace": 346000000000, "rank": 338, "distance": 11, "time": 3634.9}}, "day": 22, "month": 5, "livingplace": "Neuchatel"}}, "location": "Couvet"}, "BCN Tour Neuch\u00e2tel": {"race": "BCN Tour Neuch\u00e2tel", "longitude": 6.9292732, "latitude": 46.9899874, "date": {"mer. 26.05.2010": {"weekday": "wednesday", "year": 2010, "categories": {"HS2": {"pace": 351000000000, "rank": 141, "distance": 10, "time": 3412.8}}, "day": 26, "month": 5, "livingplace": "Neuchatel"}, "mer. 30.05.2012": {"weekday": "wednesday", "year": 2012, "categories": {"HS2": {"pace": 353000000000, "rank": 225, "distance": 11, "time": 3959.3}}, "day": 30, "month": 5, "livingplace": "Neuchatel"}}, "location": "Neuch\u00e2tel"}, "BCN Tour Cornaux": {"race": "BCN Tour Cornaux", "longitude": 6.8589727, "latitude": 46.9668714, "date": {"mer. 25.04.2012": {"weekday": "wednesday", "year": 2012, "categories": {"HS2": {"pace": 384000000000, "rank": 235, "distance": 11, "time": 4227.0}}, "day": 25, "month": 4, "livingplace": "Neuchatel"}}, "location": "Colombier NE"}, "SwissCityMarathon - Lucerne, Luzern": {"race": "SwissCityMarathon - Lucerne, Luzern", "longitude": 8.3093072, "latitude": 47.05016819999999, "date": {"dim. 27.10.2013": {"weekday": "sunday", "year": 2013, "categories": {"H-M40": {"pace": 291000000000, "rank": 449, "distance": 21, "time": 6143.0}}, "day": 27, "month": 10, "livingplace": "Neuchatel"}}, "location": "Luzern"}, "BCN Tour #6 Neuch\u00e2tel": {"race": "BCN Tour #6 Neuch\u00e2tel", "longitude": 6.9292732, "latitude": 46.9899874, "date": {"mer. 29.05.2013": {"weekday": "wednesday", "year": 2013, "categories": {"HS2": {"pace": 354000000000, "rank": 258, "distance": 11, "time": 3901.2}}, "day": 29, "month": 5, "livingplace": "Neuchatel"}}, "location": "Neuch\u00e2tel"}, "BCN Tour Les Ponts-de-Martel": {"race": "BCN Tour Les Ponts-de-Martel", "longitude": 6.733554799999999, "latitude": 46.999113, "date": {"mer. 09.05.2012": {"weekday": "wednesday", "year": 2012, "categories": {"HS2": {"pace": 384000000000, "rank": 305, "distance": 10, "time": 3961.7}}, "day": 9, "month": 5, "livingplace": "Neuchatel"}}, "location": "Les Ponts-de-Martel"}, "Ch\u00e4sitzerlouf, Kehrsatz": {"race": "Ch\u00e4sitzerlouf, Kehrsatz", "date": {"sam. 28.04.2012": {"weekday": "saturday", "year": 2012, "categories": {"12-M40": {"pace": 303000000000, "rank": 88, "distance": 12, "time": 3646.7}}, "day": 28, "month": 4, "livingplace": "Neuchatel"}, "sam. 08.05.2010": {"weekday": "saturday", "year": 2010, "categories": {"12-M40": {"pace": 328000000000, "rank": 163, "distance": 12, "time": 3936.5}}, "day": 8, "month": 5, "livingplace": "Neuchatel"}}, "location": "Kehrsatz"}, "Lausanne Marathon": {"race": "Lausanne Marathon", "longitude": 6.6322734, "latitude": 46.5196535, "date": {"dim. 30.10.2011": {"weekday": "sunday", "year": 2011, "categories": {"21-H3": {"pace": 306000000000, "rank": 487, "distance": 21, "time": 6477.3}}, "day": 30, "month": 10, "livingplace": "Neuchatel"}}, "location": "Lausanne"}}, "name": "Calderone Francesco", "birth": 1965}