{"sex": "M", "races": {"Course de l'Escalade, Gen\u00e8ve": {"race": "Course de l'Escalade, Gen\u00e8ve", "longitude": 6.1431577, "latitude": 46.2043907, "date": {"sam. 07.12.2002": {"weekday": "saturday", "year": 2002, "categories": {"Hommes2": {"pace": 327000000000, "rank": 1125, "distance": 7, "time": 2377.9}}, "day": 7, "month": 12, "livingplace": "Bramois"}, "sam. 06.12.2003": {"weekday": "saturday", "year": 2003, "categories": {"Hommes2": {"pace": 305000000000, "rank": 1304, "distance": 7, "time": 2214.2}}, "day": 6, "month": 12, "livingplace": "Bramois"}}, "location": "Gen\u00e8ve"}, "Tour du Chablais #4 Champ\u00e9ry": {"race": "Tour du Chablais #4 Champ\u00e9ry", "date": {"mer. 02.05.2012": {"weekday": "wednesday", "year": 2012, "categories": {"M-M40": {"pace": 303000000000, "rank": 109, "distance": 8, "time": 2515.1}}, "day": 2, "month": 5, "livingplace": "Bramois"}}, "location": "Les Mosses"}, "Tour du Chablais #2 Yvorne": {"race": "Tour du Chablais #2 Yvorne", "longitude": 6.854975199999999, "latitude": 46.3835529, "date": {"mer. 10.04.2013": {"weekday": "wednesday", "year": 2013, "categories": {"M-M40": {"pace": 334000000000, "rank": 108, "distance": 8, "time": 2678.3}}, "day": 10, "month": 4, "livingplace": "Bramois"}}, "location": "Bouveret"}, "Tour du Chablais #6 Monthey": {"race": "Tour du Chablais #6 Monthey", "longitude": 6.970566, "latitude": 46.3190253, "date": {"mer. 08.05.2013": {"weekday": "wednesday", "year": 2013, "categories": {"M-M40": {"pace": 312000000000, "rank": 127, "distance": 9, "time": 2916.0}}, "day": 8, "month": 5, "livingplace": "Bramois"}}, "location": "Aigle"}, "Tour du Chablais #2 Bex": {"race": "Tour du Chablais #2 Bex", "longitude": 6.854975199999999, "latitude": 46.3835529, "date": {"mer. 18.04.2012": {"weekday": "wednesday", "year": 2012, "categories": {"M-M40": {"pace": 309000000000, "rank": 125, "distance": 8, "time": 2477.9}}, "day": 18, "month": 4, "livingplace": "Bramois"}}, "location": "Bouveret"}, "Tour du Chablais #1 Roche": {"race": "Tour du Chablais #1 Roche", "longitude": 6.9916269, "latitude": 46.2957462, "date": {"mer. 03.04.2013": {"weekday": "wednesday", "year": 2013, "categories": {"M-M40": {"pace": 303000000000, "rank": 108, "distance": 9, "time": 2692.6}}, "day": 3, "month": 4, "livingplace": "Bramois"}}, "location": "Ollon VD"}, "Tour du Chablais #6 Montreux": {"race": "Tour du Chablais #6 Montreux", "longitude": 6.970566, "latitude": 46.3190253, "date": {"mer. 16.05.2012": {"weekday": "wednesday", "year": 2012, "categories": {"M-M40": {"pace": 305000000000, "rank": 149, "distance": 9, "time": 2821.7}}, "day": 16, "month": 5, "livingplace": "Bramois"}}, "location": "Aigle"}, "Morat-Fribourg": {"race": "Morat-Fribourg", "longitude": 7.120184, "latitude": 46.92922110000001, "date": {"sam. 03.10.2015": {"weekday": "saturday", "year": 2015, "categories": {"17-M45": {"pace": 326000000000, "rank": 397, "distance": 17, "time": 5612.7}}, "day": 3, "month": 10, "livingplace": "Bramois"}, "sam. 06.10.2012": {"weekday": "saturday", "year": 2012, "categories": {"17-M45": {"pace": 335000000000, "rank": 490, "distance": 17, "time": 5858.3}}, "day": 6, "month": 10, "livingplace": "Bramois"}}, "location": "Murten"}, "Tour du Chablais #6 Aigle": {"race": "Tour du Chablais #6 Aigle", "longitude": 6.970566, "latitude": 46.3190253, "date": {"mer. 01.06.2011": {"weekday": "wednesday", "year": 2011, "categories": {"M-M40": {"pace": 305000000000, "rank": 123, "distance": 10, "time": 3118.3}}, "day": 1, "month": 6, "livingplace": "Bramois"}}, "location": "Aigle"}, "Tour du Chablais #4 Morgins": {"race": "Tour du Chablais #4 Morgins", "date": {"mer. 18.05.2011": {"weekday": "wednesday", "year": 2011, "categories": {"M-M40": {"pace": 340000000000, "rank": 138, "distance": 8, "time": 2844.4}}, "day": 18, "month": 5, "livingplace": "Bramois"}}, "location": "Les Mosses"}, "Tour du Chablais #1 Montreux": {"race": "Tour du Chablais #1 Montreux", "longitude": 6.9916269, "latitude": 46.2957462, "date": {"mer. 11.04.2012": {"weekday": "wednesday", "year": 2012, "categories": {"M-M40": {"pace": 322000000000, "rank": 133, "distance": 8, "time": 2450.2}}, "day": 11, "month": 4, "livingplace": "Bramois"}}, "location": "Ollon VD"}, "Tour du Chablais #5 Les Mosses": {"race": "Tour du Chablais #5 Les Mosses", "longitude": 6.931504599999999, "latitude": 46.3603257, "date": {"mer. 25.05.2011": {"weekday": "wednesday", "year": 2011, "categories": {"M-M40": {"pace": 331000000000, "rank": 104, "distance": 8, "time": 2653.1}}, "day": 25, "month": 5, "livingplace": "Bramois"}}, "location": "Roche VD"}, "Tour du Chablais #1 Lavey": {"race": "Tour du Chablais #1 Lavey", "longitude": 6.9916269, "latitude": 46.2957462, "date": {"mer. 27.04.2011": {"weekday": "wednesday", "year": 2011, "categories": {"M-M40": {"pace": 345000000000, "rank": 161, "distance": 9, "time": 3109.8}}, "day": 27, "month": 4, "livingplace": "Bramois"}}, "location": "Ollon VD"}, "Tour du Chablais #5 Bex": {"race": "Tour du Chablais #5 Bex", "longitude": 6.931504599999999, "latitude": 46.3603257, "date": {"mer. 09.05.2012": {"weekday": "wednesday", "year": 2012, "categories": {"M-M40": {"pace": 300000000000, "rank": 103, "distance": 9, "time": 2658.4}}, "day": 9, "month": 5, "livingplace": "Bramois"}}, "location": "Roche VD"}, "Tour du Chablais #5 Morgins": {"race": "Tour du Chablais #5 Morgins", "longitude": 6.931504599999999, "latitude": 46.3603257, "date": {"mer. 01.05.2013": {"weekday": "wednesday", "year": 2013, "categories": {"M-M40": {"pace": 345000000000, "rank": 110, "distance": 8, "time": 2628.5}}, "day": 1, "month": 5, "livingplace": "Bramois"}}, "location": "Roche VD"}, "Tour du Chablais #3 Le Bouveret": {"race": "Tour du Chablais #3 Le Bouveret", "longitude": 7.0223787, "latitude": 46.1782231, "date": {"mer. 11.05.2011": {"weekday": "wednesday", "year": 2011, "categories": {"M-M40": {"pace": 343000000000, "rank": 164, "distance": 10, "time": 3430.4}}, "day": 11, "month": 5, "livingplace": "Bramois"}}, "location": "Evionnaz"}, "Tour du Chablais #4 St  Maurice": {"race": "Tour du Chablais #4 St  Maurice", "date": {"mer. 24.04.2013": {"weekday": "wednesday", "year": 2013, "categories": {"M-M40": {"pace": 308000000000, "rank": 117, "distance": 10, "time": 3088.7}}, "day": 24, "month": 4, "livingplace": "Bramois"}}, "location": "Les Mosses"}, "Tour du Chablais #2 Rennaz": {"race": "Tour du Chablais #2 Rennaz", "longitude": 6.854975199999999, "latitude": 46.3835529, "date": {"mer. 04.05.2011": {"weekday": "wednesday", "year": 2011, "categories": {"M-M40": {"pace": 333000000000, "rank": 163, "distance": 9, "time": 3114.6}}, "day": 4, "month": 5, "livingplace": "Bramois"}}, "location": "Bouveret"}}, "name": "Caloz Pierre", "birth": 1967}