{"sex": "M", "races": {"Burgdorfer Stadtlauf, Burgdorf": {"race": "Burgdorfer Stadtlauf, Burgdorf", "longitude": -115.9129022, "latitude": 45.277123, "date": {"sam. 15.09.2007": {"weekday": "saturday", "year": 2007, "categories": {"MSKAT": {"pace": 116000000000, "rank": 9, "distance": 8, "time": 933.4}}, "day": 15, "month": 9, "livingplace": "Thun"}}, "location": "Burgdorf"}, "Internationaler Matterhornlauf, Zermatt": {"race": "Internationaler Matterhornlauf, Zermatt", "date": {"sam. 18.08.2007": {"weekday": "saturday", "year": 2007, "categories": {"MHL/M30": {"pace": 419000000000, "rank": 26, "distance": 12, "time": 5245.2}}, "day": 18, "month": 8, "livingplace": "Thun"}}, "location": "Zermatt"}, "Kerzerslauf": {"race": "Kerzerslauf", "longitude": 7.1954365, "latitude": 46.97488999999999, "date": {"sam. 20.03.2010": {"weekday": "saturday", "year": 2010, "categories": {"15-M35": {"pace": 272000000000, "rank": 183, "distance": 15, "time": 4090.3}}, "day": 20, "month": 3, "livingplace": "Thun"}, "sam. 21.03.2015": {"weekday": "saturday", "year": 2015, "categories": {"15-M40": {"pace": 275000000000, "rank": 200, "distance": 15, "time": 4137.1}}, "day": 21, "month": 3, "livingplace": "Wunnewil"}}, "location": "Kerzers"}, "Morat-Fribourg": {"race": "Morat-Fribourg", "longitude": 7.120184, "latitude": 46.92922110000001, "date": {"sam. 03.10.2015": {"weekday": "saturday", "year": 2015, "categories": {"17-M40": {"pace": 304000000000, "rank": 309, "distance": 17, "time": 5230.6}}, "day": 3, "month": 10, "livingplace": "Wunnewil"}}, "location": "Murten"}, "Z\u00fcrcher Silvesterlauf, Z\u00fcrich": {"race": "Z\u00fcrcher Silvesterlauf, Z\u00fcrich", "longitude": 8.541694, "latitude": 47.3768866, "date": {"dim. 13.12.2009": {"weekday": "sunday", "year": 2009, "categories": {"8-MenAK1": {"pace": 253000000000, "rank": 215, "distance": 9, "time": 2180.6}}, "day": 13, "month": 12, "livingplace": "Thun"}}, "location": "Z\u00fcrich"}, "SwissCityMarathon - Lucerne, Luzern": {"race": "SwissCityMarathon - Lucerne, Luzern", "longitude": 8.3093072, "latitude": 47.05016819999999, "date": {"dim. 27.10.2013": {"weekday": "sunday", "year": 2013, "categories": {"M-M30": {"pace": 293000000000, "rank": 98, "distance": 42, "time": 12393.2}}, "day": 27, "month": 10, "livingplace": "Thun"}}, "location": "Luzern"}, "Glacier 3000 Run, Gstaad": {"race": "Glacier 3000 Run, Gstaad", "longitude": 7.2865728, "latitude": 46.4717588, "date": {"sam. 10.08.2013": {"weekday": "saturday", "year": 2013, "categories": {"M30": {"pace": 445000000000, "rank": 26, "distance": 26, "time": 11585.3}}, "day": 10, "month": 8, "livingplace": "Thun"}}, "location": "Gstaad"}, "Zermatt Marathon, Zermatt": {"race": "Zermatt Marathon, Zermatt", "date": {"sam. 05.07.2014": {"weekday": "saturday", "year": 2014, "categories": {"M-M40": {"pace": 445000000000, "rank": 36, "distance": 42, "time": 18809.9}}, "day": 5, "month": 7, "livingplace": "Tri Team Ticino"}}, "location": "Zermatt"}, "Thuner Stadtlauf, Thun": {"race": "Thuner Stadtlauf, Thun", "longitude": 7.6279881, "latitude": 46.7579868, "date": {"dim. 25.08.2013": {"weekday": "sunday", "year": 2013, "categories": {"10-M30": {"pace": 240000000000, "rank": 28, "distance": 10, "time": 2402.6}}, "day": 25, "month": 8, "livingplace": "Thun"}}, "location": "Thun"}, "Ch\u00e4sitzerlouf, Kehrsatz": {"race": "Ch\u00e4sitzerlouf, Kehrsatz", "date": {"sam. 08.05.2010": {"weekday": "saturday", "year": 2010, "categories": {"12-M30": {"pace": 266000000000, "rank": 66, "distance": 12, "time": 3194.5}}, "day": 8, "month": 5, "livingplace": "Thun"}}, "location": "Kehrsatz"}, "M\u00e4nnlichen Halbmarathon, Grindelwald": {"race": "M\u00e4nnlichen Halbmarathon, Grindelwald", "longitude": 8.0413962, "latitude": 46.624164, "date": {"dim. 09.06.2013": {"weekday": "sunday", "year": 2013, "categories": {"M30": {"pace": 396000000000, "rank": 13, "distance": 21, "time": 8363.8}}, "day": 9, "month": 6, "livingplace": "Thun"}}, "location": "Grindelwald"}, "Course de l'Avent, Yverdon": {"race": "Course de l'Avent, Yverdon", "longitude": 7.161971899999999, "latitude": 46.8064773, "date": {"dim. 28.11.2010": {"weekday": "sunday", "year": 2010, "categories": {"E-H43": {"pace": 240000000000, "rank": 13, "distance": 8, "time": 1855.6}}, "day": 28, "month": 11, "livingplace": "Thun"}}, "location": "Fribourg"}}, "name": "Campiotti Reto", "birth": 1974}