{"sex": "F", "races": {"Tour du Chablais #6 Montreux": {"race": "Tour du Chablais #6 Montreux", "longitude": 6.970566, "latitude": 46.3190253, "date": {"mer. 16.05.2012": {"weekday": "wednesday", "year": 2012, "categories": {"F-F50": {"pace": 396000000000, "rank": 31, "distance": 9, "time": 3665.7}}, "day": 16, "month": 5, "livingplace": "Muraz Collombey"}}, "location": "Aigle"}, "Tour du Pays de Vaud printanier #2 Yens": {"race": "Tour du Pays de Vaud printanier #2 Yens", "longitude": 6.7975224, "latitude": 46.6698891, "date": {"mer. 06.06.2012": {"weekday": "wednesday", "year": 2012, "categories": {"D-Sen3": {"pace": 428000000000, "rank": 17, "distance": 9, "time": 3900.0}}, "day": 6, "month": 6, "livingplace": "Yverdon les Bains"}}, "location": "Moudon"}, "Tour du Chablais #1 Montreux": {"race": "Tour du Chablais #1 Montreux", "longitude": 6.9916269, "latitude": 46.2957462, "date": {"mer. 11.04.2012": {"weekday": "wednesday", "year": 2012, "categories": {"F-F50": {"pace": 451000000000, "rank": 37, "distance": 8, "time": 3431.9}}, "day": 11, "month": 4, "livingplace": "Muraz Collombey"}}, "location": "Ollon VD"}, "Tour du Chablais #2 Yvorne": {"race": "Tour du Chablais #2 Yvorne", "longitude": 6.854975199999999, "latitude": 46.3835529, "date": {"mer. 10.04.2013": {"weekday": "wednesday", "year": 2013, "categories": {"F-F50": {"pace": 436000000000, "rank": 34, "distance": 8, "time": 3493.9}}, "day": 10, "month": 4, "livingplace": "Muraz Collombey"}}, "location": "Bouveret"}, "Tour du Chablais #6 Monthey": {"race": "Tour du Chablais #6 Monthey", "longitude": 6.970566, "latitude": 46.3190253, "date": {"mer. 08.05.2013": {"weekday": "wednesday", "year": 2013, "categories": {"F-F50": {"pace": 383000000000, "rank": 38, "distance": 9, "time": 3572.6}}, "day": 8, "month": 5, "livingplace": "Muraz Collombey"}}, "location": "Aigle"}, "Tour du Pays de Vaud printanier #1 Moudon": {"race": "Tour du Pays de Vaud printanier #1 Moudon", "longitude": 6.2347852, "latitude": 46.3832683, "date": {"mer. 04.06.2014": {"weekday": "wednesday", "year": 2014, "categories": {"D-Sen3": {"pace": 405000000000, "rank": 16, "distance": 8, "time": 3409.5}}, "day": 4, "month": 6, "livingplace": "Muraz Collombey"}, "mer. 29.05.2013": {"weekday": "wednesday", "year": 2013, "categories": {"D-Sen3": {"pace": 412000000000, "rank": 21, "distance": 8, "time": 3529.3}}, "day": 29, "month": 5, "livingplace": "Muraz Collombey"}}, "location": "Nyon"}, "Tour du Chablais #3 Bouveret": {"race": "Tour du Chablais #3 Bouveret", "longitude": 7.0223787, "latitude": 46.1782231, "date": {"mer. 17.04.2013": {"weekday": "wednesday", "year": 2013, "categories": {"F-F50": {"pace": 390000000000, "rank": 39, "distance": 10, "time": 3907.6}}, "day": 17, "month": 4, "livingplace": "Muraz Collombey"}}, "location": "Evionnaz"}, "Tour du Chablais #1 Roche": {"race": "Tour du Chablais #1 Roche", "longitude": 6.9916269, "latitude": 46.2957462, "date": {"mer. 03.04.2013": {"weekday": "wednesday", "year": 2013, "categories": {"F-F50": {"pace": 405000000000, "rank": 42, "distance": 9, "time": 3589.2}}, "day": 3, "month": 4, "livingplace": "Muraz Collombey"}}, "location": "Ollon VD"}, "Tour du Chablais #1 Martigny": {"race": "Tour du Chablais #1 Martigny", "longitude": 6.9916269, "latitude": 46.2957462, "date": {"mer. 23.04.2014": {"weekday": "wednesday", "year": 2014, "categories": {"F-F50": {"pace": 368000000000, "rank": 36, "distance": 9, "time": 3133.3}}, "day": 23, "month": 4, "livingplace": "Muraz Collombey"}}, "location": "Ollon VD"}, "Kerzerslauf": {"race": "Kerzerslauf", "longitude": 7.1954365, "latitude": 46.97488999999999, "date": {"sam. 15.03.2014": {"weekday": "saturday", "year": 2014, "categories": {"15-F55": {"pace": 419000000000, "rank": 110, "distance": 15, "time": 6287.1}}, "day": 15, "month": 3, "livingplace": "Muraz Collombey"}}, "location": "Kerzers"}, "Morat-Fribourg": {"race": "Morat-Fribourg", "longitude": 7.120184, "latitude": 46.92922110000001, "date": {"sam. 04.10.2014": {"weekday": "saturday", "year": 2014, "categories": {"17-W55": {"pace": 423000000000, "rank": 65, "distance": 17, "time": 7273.2}}, "day": 4, "month": 10, "livingplace": "Muraz Collombey"}}, "location": "Murten"}, "20km de Lausanne": {"race": "20km de Lausanne", "longitude": 6.6322734, "latitude": 46.5196535, "date": {"sam. 30.04.2011": {"weekday": "saturday", "year": 2011, "categories": {"10-F50": {"pace": 444000000000, "rank": 134, "distance": 10, "time": 4442.3}}, "day": 30, "month": 4, "livingplace": "Muraz Collombey"}, "sam. 25.04.2015": {"weekday": "saturday", "year": 2015, "categories": {"10-F55": {"pace": 362000000000, "rank": 52, "distance": 10, "time": 3628.5}}, "day": 25, "month": 4, "livingplace": "Yverdon"}, "sam. 28.04.2012": {"weekday": "saturday", "year": 2012, "categories": {"10-F50": {"pace": 428000000000, "rank": 131, "distance": 10, "time": 4288.5}}, "day": 28, "month": 4, "livingplace": "Muraz Collombey"}, "sam. 27.04.2013": {"weekday": "saturday", "year": 2013, "categories": {"10-F50": {"pace": 398000000000, "rank": 130, "distance": 10, "time": 3980.7}}, "day": 27, "month": 4, "livingplace": "Muraz Collombey"}}, "location": "Lausanne"}, "Tour du Pays de Vaud printanier #1 Chavornay": {"race": "Tour du Pays de Vaud printanier #1 Chavornay", "longitude": 6.2347852, "latitude": 46.3832683, "date": {"mer. 30.05.2012": {"weekday": "wednesday", "year": 2012, "categories": {"D-Sen3": {"pace": 429000000000, "rank": 16, "distance": 9, "time": 3843.3}}, "day": 30, "month": 5, "livingplace": "Yverdon les Bains"}}, "location": "Nyon"}, "Aletsch-Halbmarathon, Bettmeralp": {"race": "Aletsch-Halbmarathon, Bettmeralp", "date": {"dim. 29.06.2014": {"weekday": "sunday", "year": 2014, "categories": {"F55": {"pace": 539000000000, "rank": 40, "distance": 13, "time": 7169.3}}, "day": 29, "month": 6, "livingplace": "Muraz Collombey"}, "dim. 28.06.2015": {"weekday": "sunday", "year": 2015, "categories": {"F55": {"pace": 643000000000, "rank": 42, "distance": 21, "time": 13581.8}}, "day": 28, "month": 6, "livingplace": "Usy"}}, "location": "Bettmeralp"}, "Tour du Chablais #5 Morgins": {"race": "Tour du Chablais #5 Morgins", "longitude": 6.931504599999999, "latitude": 46.3603257, "date": {"mer. 01.05.2013": {"weekday": "wednesday", "year": 2013, "categories": {"F-F50": {"pace": 441000000000, "rank": 40, "distance": 8, "time": 3352.8}}, "day": 1, "month": 5, "livingplace": "Muraz Collombey"}}, "location": "Roche VD"}, "Tour du Chablais #4 St  Maurice": {"race": "Tour du Chablais #4 St  Maurice", "date": {"mer. 24.04.2013": {"weekday": "wednesday", "year": 2013, "categories": {"F-F50": {"pace": 394000000000, "rank": 41, "distance": 10, "time": 3946.7}}, "day": 24, "month": 4, "livingplace": "Muraz Collombey"}}, "location": "Les Mosses"}, "Tour du Pays de Vaud printanier #3 - Yens": {"race": "Tour du Pays de Vaud printanier #3 - Yens", "longitude": 6.5728678, "latitude": 46.7829756, "date": {"mer. 12.06.2013": {"weekday": "wednesday", "year": 2013, "categories": {"D-Sen3": {"pace": 412000000000, "rank": 21, "distance": 9, "time": 3749.7}}, "day": 12, "month": 6, "livingplace": "Muraz Collombey"}, "mer. 18.06.2014": {"weekday": "wednesday", "year": 2014, "categories": {"D-Sen3": {"pace": 391000000000, "rank": 14, "distance": 9, "time": 3560.4}}, "day": 18, "month": 6, "livingplace": "Muraz Collombey"}}, "location": "Champvent"}, "Tour du Pays de Vaud printanier #2 Yverdon-les-Bains": {"race": "Tour du Pays de Vaud printanier #2 Yverdon-les-Bains", "longitude": 6.7975224, "latitude": 46.6698891, "date": {"mer. 11.06.2014": {"weekday": "wednesday", "year": 2014, "categories": {"D-Sen3": {"pace": 429000000000, "rank": 15, "distance": 9, "time": 3905.3}}, "day": 11, "month": 6, "livingplace": "Muraz Collombey"}}, "location": "Moudon"}, "Tour du Chablais #3 Collombey-Muraz": {"race": "Tour du Chablais #3 Collombey-Muraz", "longitude": 7.0223787, "latitude": 46.1782231, "date": {"mer. 25.04.2012": {"weekday": "wednesday", "year": 2012, "categories": {"F-F50": {"pace": 436000000000, "rank": 36, "distance": 9, "time": 3918.0}}, "day": 25, "month": 4, "livingplace": "Muraz Collombey"}}, "location": "Evionnaz"}, "Tour du Pays de Vaud #3, Chavornay": {"race": "Tour du Pays de Vaud #3, Chavornay", "longitude": 6.641183, "latitude": 46.7784736, "date": {"mer. 27.08.2014": {"weekday": "wednesday", "year": 2014, "categories": {"D-Sen3": {"pace": 413000000000, "rank": 34, "distance": 9, "time": 3554.6}}, "day": 27, "month": 8, "livingplace": "Muraz Collombey"}}, "location": "Yverdon-les-Bains"}, "La Montheysanne, Monthey": {"race": "La Montheysanne, Monthey", "longitude": 6.9469598, "latitude": 46.2521873, "date": {"dim. 23.08.2015": {"weekday": "sunday", "year": 2015, "categories": {"5-DA3": {"pace": 426000000000, "rank": 29, "distance": 5, "time": 2131.0}}, "day": 23, "month": 8, "livingplace": "Muraz Collombey"}}, "location": "Monthey"}}, "name": "Cardeal Sonia", "birth": 1959}