{"sex": "M", "races": {"Int Greifenseelauf, Uster": {"race": "Int Greifenseelauf, Uster", "longitude": 8.717873899999999, "latitude": 47.3482747, "date": {"sam. 22.09.2007": {"weekday": "saturday", "year": 2007, "categories": {"H/M40": {"pace": 326000000000, "rank": 716, "distance": 21, "time": 6889.5}}, "day": 22, "month": 9, "livingplace": "Dagmersellen"}, "sam. 20.09.2008": {"weekday": "saturday", "year": 2008, "categories": {"H-M40": {"pace": 285000000000, "rank": 370, "distance": 21, "time": 6017.8}}, "day": 20, "month": 9, "livingplace": "Dagmersellen"}}, "location": "Uster"}, "Badener Limmat-Lauf, Baden": {"race": "Badener Limmat-Lauf, Baden", "longitude": 8.5303972, "latitude": 48.5699281, "date": {"sam. 29.03.2008": {"weekday": "saturday", "year": 2008, "categories": {"M40": {"pace": 308000000000, "rank": 151, "distance": 13, "time": 4071.3}}, "day": 29, "month": 3, "livingplace": "Manschetti"}}, "location": "Baden"}, "Rotseelauf, Ebikon": {"race": "Rotseelauf, Ebikon", "date": {"sam. 19.04.2008": {"weekday": "saturday", "year": 2008, "categories": {"M40": {"pace": 291000000000, "rank": 117, "distance": 10, "time": 2912.4}}, "day": 19, "month": 4, "livingplace": "Maschetti"}}, "location": "Ebikon"}, "Luzerner Stadtlauf": {"race": "Luzerner Stadtlauf", "longitude": 8.3093072, "latitude": 47.05016819999999, "date": {"sam. 26.04.2008": {"weekday": "saturday", "year": 2008, "categories": {"K/28": {"pace": 277000000000, "rank": 211, "distance": 6, "time": 1563.5}}, "day": 26, "month": 4, "livingplace": "Dagmersellen"}}, "location": "Luzern"}, "Lucerne Marathon, Luzern": {"race": "Lucerne Marathon, Luzern", "longitude": 8.3093072, "latitude": 47.05016819999999, "date": {"dim. 31.10.2010": {"weekday": "sunday", "year": 2010, "categories": {"H-M40": {"pace": 332000000000, "rank": 930, "distance": 21, "time": 7014.9}}, "day": 31, "month": 10, "livingplace": "Dagmersellen"}}, "location": "Luzern"}, "ASICS Bremgarter Reusslauf": {"race": "ASICS Bremgarter Reusslauf", "longitude": 8.3397905, "latitude": 47.34917739999999, "date": {"sam. 27.02.2010": {"weekday": "saturday", "year": 2010, "categories": {"M40": {"pace": 278000000000, "rank": 343, "distance": 11, "time": 3059.5}}, "day": 27, "month": 2, "livingplace": "Luzern"}, "sam. 23.02.2008": {"weekday": "saturday", "year": 2008, "categories": {"M40": {"pace": 282000000000, "rank": 411, "distance": 11, "time": 3103.5}}, "day": 23, "month": 2, "livingplace": "Manscetti"}}, "location": "Bremgarten AG"}, "Kerzerslauf": {"race": "Kerzerslauf", "longitude": 7.1954365, "latitude": 46.97488999999999, "date": {"sam. 15.03.2008": {"weekday": "saturday", "year": 2008, "categories": {"15/M40": {"pace": 304000000000, "rank": 429, "distance": 15, "time": 4569.2}}, "day": 15, "month": 3, "livingplace": "Dagmersellen"}}, "location": "Kerzers"}}, "name": "Carnevale Antonio", "birth": 1965}