{"sex": "M", "races": {"Course Titz\u00e9 de no\u00ebl Sion": {"race": "Course Titz\u00e9 de no\u00ebl Sion", "longitude": 7.360625999999999, "latitude": 46.2331221, "date": {"sam. 15.12.2001": {"weekday": "saturday", "year": 2001, "categories": {"52": {"pace": 202000000000, "rank": 7, "distance": 7, "time": 1484.8}}, "day": 15, "month": 12, "livingplace": "Sion"}}, "location": "Sion"}, "10km de Payerne": {"race": "10km de Payerne", "longitude": 6.9405663, "latitude": 46.8220266, "date": {"sam. 28.03.2009": {"weekday": "saturday", "year": 2009, "categories": {"M55": {"pace": 216000000000, "rank": 3, "distance": 10, "time": 2162.5}}, "day": 28, "month": 3, "livingplace": "Sion"}}, "location": "Payerne"}, "Tour du Chablais #6 Montreux": {"race": "Tour du Chablais #6 Montreux", "longitude": 6.970566, "latitude": 46.3190253, "date": {"mer. 16.05.2012": {"weekday": "wednesday", "year": 2012, "categories": {"M-M50": {"pace": 228000000000, "rank": 4, "distance": 9, "time": 2109.8}}, "day": 16, "month": 5, "livingplace": "Basse Nendaz"}}, "location": "Aigle"}, "Morat-Fribourg": {"race": "Morat-Fribourg", "longitude": 7.120184, "latitude": 46.92922110000001, "date": {"dim. 07.10.2001": {"weekday": "sunday", "year": 2001, "categories": {"M45": {"pace": 219000000000, "rank": 2, "distance": 17, "time": 3762.9}}, "day": 7, "month": 10, "livingplace": "Basse Nendaz"}, "dim. 06.10.2002": {"weekday": "sunday", "year": 2002, "categories": {"M45": {"pace": 220000000000, "rank": 4, "distance": 17, "time": 3781.4}}, "day": 6, "month": 10, "livingplace": "Basse Nendaz"}}, "location": "Murten"}, "Tour du Chablais #6 Aigle": {"race": "Tour du Chablais #6 Aigle", "longitude": 6.970566, "latitude": 46.3190253, "date": {"mer. 01.06.2011": {"weekday": "wednesday", "year": 2011, "categories": {"M-M50": {"pace": 217000000000, "rank": 3, "distance": 10, "time": 2215.1}}, "day": 1, "month": 6, "livingplace": "Basse Nendaz"}}, "location": "Aigle"}, "Tour du Chablais #4 Morgins": {"race": "Tour du Chablais #4 Morgins", "date": {"mer. 18.05.2011": {"weekday": "wednesday", "year": 2011, "categories": {"M-M50": {"pace": 239000000000, "rank": 3, "distance": 8, "time": 1996.4}}, "day": 18, "month": 5, "livingplace": "Basse Nendaz"}}, "location": "Les Mosses"}, "Tour du Chablais #6 Mouthey": {"race": "Tour du Chablais #6 Mouthey", "longitude": 6.970566, "latitude": 46.3190253, "date": {"mer. 12.05.2010": {"weekday": "wednesday", "year": 2010, "categories": {"M-M50": {"pace": 216000000000, "rank": 1, "distance": 9, "time": 1992.7}}, "day": 12, "month": 5, "livingplace": "Basse Nendaz"}}, "location": "Aigle"}, "Tour du Pays de Vaud etape 3 - Aubonne": {"race": "Tour du Pays de Vaud etape 3 - Aubonne", "longitude": 6.5728678, "latitude": 46.7829756, "date": {"mer. 27.08.2008": {"weekday": "wednesday", "year": 2008, "categories": {"HomSen3": {"pace": 242000000000, "rank": 4, "distance": 8, "time": 1888.3}}, "day": 27, "month": 8, "livingplace": "Basse Nendaz"}}, "location": "Champvent"}, "Tour du Chablais #5 Les Mosses": {"race": "Tour du Chablais #5 Les Mosses", "longitude": 6.931504599999999, "latitude": 46.3603257, "date": {"mer. 25.05.2011": {"weekday": "wednesday", "year": 2011, "categories": {"M-M50": {"pace": 239000000000, "rank": 3, "distance": 8, "time": 1919.8}}, "day": 25, "month": 5, "livingplace": "Basse Nendaz"}}, "location": "Roche VD"}, "Tour du Chablais #1 Lavey": {"race": "Tour du Chablais #1 Lavey", "longitude": 6.9916269, "latitude": 46.2957462, "date": {"mer. 27.04.2011": {"weekday": "wednesday", "year": 2011, "categories": {"M-M50": {"pace": 223000000000, "rank": 4, "distance": 9, "time": 2007.3}}, "day": 27, "month": 4, "livingplace": "Basse Nendaz"}}, "location": "Ollon VD"}, "Tour du Chablais #3 Le Bouveret": {"race": "Tour du Chablais #3 Le Bouveret", "longitude": 7.0223787, "latitude": 46.1782231, "date": {"mer. 11.05.2011": {"weekday": "wednesday", "year": 2011, "categories": {"M-M50": {"pace": 224000000000, "rank": 3, "distance": 10, "time": 2240.2}}, "day": 11, "month": 5, "livingplace": "Basse Nendaz"}}, "location": "Evionnaz"}, "Tour du Chablais #2 Rennaz": {"race": "Tour du Chablais #2 Rennaz", "longitude": 6.854975199999999, "latitude": 46.3835529, "date": {"mer. 04.05.2011": {"weekday": "wednesday", "year": 2011, "categories": {"M-M50": {"pace": 220000000000, "rank": 3, "distance": 9, "time": 2061.5}}, "day": 4, "month": 5, "livingplace": "Basse Nendaz"}}, "location": "Bouveret"}}, "name": "Carruzzo Jean-Pierre", "birth": 1954}