{"sex": "F", "races": {"Tour du Chablais #1 Montreux": {"race": "Tour du Chablais #1 Montreux", "longitude": 6.9916269, "latitude": 46.2957462, "date": {"mer. 11.04.2012": {"weekday": "wednesday", "year": 2012, "categories": {"F-F20": {"pace": 407000000000, "rank": 143, "distance": 8, "time": 3093.4}}, "day": 11, "month": 4, "livingplace": "Veytaux"}}, "location": "Ollon VD"}, "Tour du Chablais #2 Yvorne": {"race": "Tour du Chablais #2 Yvorne", "longitude": 6.854975199999999, "latitude": 46.3835529, "date": {"mer. 10.04.2013": {"weekday": "wednesday", "year": 2013, "categories": {"F-F20": {"pace": 398000000000, "rank": 114, "distance": 8, "time": 3186.3}}, "day": 10, "month": 4, "livingplace": "Veytaux"}}, "location": "Bouveret"}, "Tour du Chablais #6 Monthey": {"race": "Tour du Chablais #6 Monthey", "longitude": 6.970566, "latitude": 46.3190253, "date": {"mer. 08.05.2013": {"weekday": "wednesday", "year": 2013, "categories": {"F-F20": {"pace": 359000000000, "rank": 126, "distance": 9, "time": 3356.4}}, "day": 8, "month": 5, "livingplace": "Veytaux"}}, "location": "Aigle"}, "Tour du Chablais #2 Bex": {"race": "Tour du Chablais #2 Bex", "longitude": 6.854975199999999, "latitude": 46.3835529, "date": {"mer. 18.04.2012": {"weekday": "wednesday", "year": 2012, "categories": {"F-F20": {"pace": 386000000000, "rank": 135, "distance": 8, "time": 3094.5}}, "day": 18, "month": 4, "livingplace": "Veytaux"}}, "location": "Bouveret"}, "Tour du Chablais #3 Bouveret": {"race": "Tour du Chablais #3 Bouveret", "longitude": 7.0223787, "latitude": 46.1782231, "date": {"mer. 17.04.2013": {"weekday": "wednesday", "year": 2013, "categories": {"F-F20": {"pace": 359000000000, "rank": 107, "distance": 10, "time": 3595.7}}, "day": 17, "month": 4, "livingplace": "Veytaux"}}, "location": "Evionnaz"}, "Tour du Chablais #1 Roche": {"race": "Tour du Chablais #1 Roche", "longitude": 6.9916269, "latitude": 46.2957462, "date": {"mer. 03.04.2013": {"weekday": "wednesday", "year": 2013, "categories": {"F-F20": {"pace": 356000000000, "rank": 116, "distance": 9, "time": 3157.8}}, "day": 3, "month": 4, "livingplace": "Veytaux"}}, "location": "Ollon VD"}, "Tour du Chablais #3 Collombey-Muraz": {"race": "Tour du Chablais #3 Collombey-Muraz", "longitude": 7.0223787, "latitude": 46.1782231, "date": {"mer. 25.04.2012": {"weekday": "wednesday", "year": 2012, "categories": {"F-F20": {"pace": 363000000000, "rank": 112, "distance": 9, "time": 3263.0}}, "day": 25, "month": 4, "livingplace": "Veytaux"}}, "location": "Evionnaz"}, "Tour du Chablais #6 Montreux": {"race": "Tour du Chablais #6 Montreux", "longitude": 6.970566, "latitude": 46.3190253, "date": {"mer. 16.05.2012": {"weekday": "wednesday", "year": 2012, "categories": {"F-F20": {"pace": 354000000000, "rank": 117, "distance": 9, "time": 3275.4}}, "day": 16, "month": 5, "livingplace": "Veytaux"}}, "location": "Aigle"}, "Tour du Chablais #6 Aigle": {"race": "Tour du Chablais #6 Aigle", "longitude": 6.970566, "latitude": 46.3190253, "date": {"mer. 01.06.2011": {"weekday": "wednesday", "year": 2011, "categories": {"F-F20": {"pace": 392000000000, "rank": 141, "distance": 10, "time": 4003.8}}, "day": 1, "month": 6, "livingplace": "Veytaux"}}, "location": "Aigle"}, "Tour du Chablais #4 Champ\u00e9ry": {"race": "Tour du Chablais #4 Champ\u00e9ry", "date": {"mer. 02.05.2012": {"weekday": "wednesday", "year": 2012, "categories": {"F-F20": {"pace": 372000000000, "rank": 109, "distance": 8, "time": 3092.2}}, "day": 2, "month": 5, "livingplace": "Veytaux"}}, "location": "Les Mosses"}, "Tour du Chablais #5 Bex": {"race": "Tour du Chablais #5 Bex", "longitude": 6.931504599999999, "latitude": 46.3603257, "date": {"mer. 09.05.2012": {"weekday": "wednesday", "year": 2012, "categories": {"F-F20": {"pace": 363000000000, "rank": 100, "distance": 9, "time": 3218.8}}, "day": 9, "month": 5, "livingplace": "Veytaux"}}, "location": "Roche VD"}, "Tour du Chablais #5 Morgins": {"race": "Tour du Chablais #5 Morgins", "longitude": 6.931504599999999, "latitude": 46.3603257, "date": {"mer. 01.05.2013": {"weekday": "wednesday", "year": 2013, "categories": {"F-F20": {"pace": 375000000000, "rank": 86, "distance": 8, "time": 2856.0}}, "day": 1, "month": 5, "livingplace": "Veytaux"}}, "location": "Roche VD"}, "Tour du Chablais #4 St  Maurice": {"race": "Tour du Chablais #4 St  Maurice", "date": {"mer. 24.04.2013": {"weekday": "wednesday", "year": 2013, "categories": {"F-F20": {"pace": 364000000000, "rank": 103, "distance": 10, "time": 3646.5}}, "day": 24, "month": 4, "livingplace": "Veytaux"}}, "location": "Les Mosses"}, "Tour du Chablais #2 Rennaz": {"race": "Tour du Chablais #2 Rennaz", "longitude": 6.854975199999999, "latitude": 46.3835529, "date": {"mer. 04.05.2011": {"weekday": "wednesday", "year": 2011, "categories": {"F-F20": {"pace": 431000000000, "rank": 141, "distance": 9, "time": 4037.3}}, "day": 4, "month": 5, "livingplace": "Veytaux"}}, "location": "Bouveret"}}, "name": "Chalon Aline", "birth": 1988}