{"sex": "M", "races": {"Tour du Chablais #5 Leysin": {"race": "Tour du Chablais #5 Leysin", "longitude": 6.931504599999999, "latitude": 46.3603257, "date": {"mer. 05.05.2010": {"weekday": "wednesday", "year": 2010, "categories": {"M-M40": {"pace": 316000000000, "rank": 78, "distance": 8, "time": 2676.0}}, "day": 5, "month": 5, "livingplace": "Choex"}}, "location": "Roche VD"}, "Tour du Chablais #2 Bex": {"race": "Tour du Chablais #2 Bex", "longitude": 6.854975199999999, "latitude": 46.3835529, "date": {"mer. 18.04.2012": {"weekday": "wednesday", "year": 2012, "categories": {"M-M40": {"pace": 288000000000, "rank": 95, "distance": 8, "time": 2308.0}}, "day": 18, "month": 4, "livingplace": "Choex"}}, "location": "Bouveret"}, "Tour du Chablais #6 Montreux": {"race": "Tour du Chablais #6 Montreux", "longitude": 6.970566, "latitude": 46.3190253, "date": {"mer. 16.05.2012": {"weekday": "wednesday", "year": 2012, "categories": {"M-M40": {"pace": 270000000000, "rank": 81, "distance": 9, "time": 2504.2}}, "day": 16, "month": 5, "livingplace": "Choex"}}, "location": "Aigle"}, "Tour du Chablais #4 Morgins": {"race": "Tour du Chablais #4 Morgins", "date": {"mer. 18.05.2011": {"weekday": "wednesday", "year": 2011, "categories": {"M-M40": {"pace": 322000000000, "rank": 122, "distance": 8, "time": 2693.4}}, "day": 18, "month": 5, "livingplace": "Choex"}}, "location": "Les Mosses"}, "Lausanne Marathon": {"race": "Lausanne Marathon", "longitude": 6.6322734, "latitude": 46.5196535, "date": {"dim. 31.10.2010": {"weekday": "sunday", "year": 2010, "categories": {"42-H3": {"pace": 340000000000, "rank": 293, "distance": 42, "time": 14356.0}}, "day": 31, "month": 10, "livingplace": "Choex"}}, "location": "Lausanne"}, "Tour du Chablais #1 Montreux": {"race": "Tour du Chablais #1 Montreux", "longitude": 6.9916269, "latitude": 46.2957462, "date": {"mer. 11.04.2012": {"weekday": "wednesday", "year": 2012, "categories": {"M-M40": {"pace": 296000000000, "rank": 101, "distance": 8, "time": 2253.0}}, "day": 11, "month": 4, "livingplace": "Choex"}}, "location": "Ollon VD"}, "Tour du Chablais #5 Bex": {"race": "Tour du Chablais #5 Bex", "longitude": 6.931504599999999, "latitude": 46.3603257, "date": {"mer. 09.05.2012": {"weekday": "wednesday", "year": 2012, "categories": {"M-M40": {"pace": 284000000000, "rank": 85, "distance": 9, "time": 2523.2}}, "day": 9, "month": 5, "livingplace": "Choex"}}, "location": "Roche VD"}, "Tour du Chablais #3 Bex": {"race": "Tour du Chablais #3 Bex", "longitude": 7.0223787, "latitude": 46.1782231, "date": {"mer. 21.04.2010": {"weekday": "wednesday", "year": 2010, "categories": {"M-M40": {"pace": 290000000000, "rank": 103, "distance": 10, "time": 2908.4}}, "day": 21, "month": 4, "livingplace": "Choex"}}, "location": "Evionnaz"}, "Tour du Chablais #2 St-Gingolph": {"race": "Tour du Chablais #2 St-Gingolph", "longitude": 6.854975199999999, "latitude": 46.3835529, "date": {"mer. 14.04.2010": {"weekday": "wednesday", "year": 2010, "categories": {"M-M40": {"pace": 302000000000, "rank": 95, "distance": 8, "time": 2522.5}}, "day": 14, "month": 4, "livingplace": "Choex"}}, "location": "Bouveret"}, "Tour du Chablais #4 St  Maurice": {"race": "Tour du Chablais #4 St  Maurice", "date": {"mer. 24.04.2013": {"weekday": "wednesday", "year": 2013, "categories": {"M-M40": {"pace": 278000000000, "rank": 75, "distance": 10, "time": 2786.6}}, "day": 24, "month": 4, "livingplace": "Choex"}}, "location": "Les Mosses"}, "Tour du Chablais #4 Champ\u00e9ry": {"race": "Tour du Chablais #4 Champ\u00e9ry", "date": {"mer. 02.05.2012": {"weekday": "wednesday", "year": 2012, "categories": {"M-M40": {"pace": 287000000000, "rank": 86, "distance": 8, "time": 2385.9}}, "day": 2, "month": 5, "livingplace": "Choex"}}, "location": "Les Mosses"}, "Tour du Chablais #6 Monthey": {"race": "Tour du Chablais #6 Monthey", "longitude": 6.970566, "latitude": 46.3190253, "date": {"mer. 08.05.2013": {"weekday": "wednesday", "year": 2013, "categories": {"M-M40": {"pace": 276000000000, "rank": 82, "distance": 9, "time": 2581.2}}, "day": 8, "month": 5, "livingplace": "Choex"}}, "location": "Aigle"}, "Tour du Chablais #2 Yvorne": {"race": "Tour du Chablais #2 Yvorne", "longitude": 6.854975199999999, "latitude": 46.3835529, "date": {"mer. 10.04.2013": {"weekday": "wednesday", "year": 2013, "categories": {"M-M40": {"pace": 307000000000, "rank": 71, "distance": 8, "time": 2458.6}}, "day": 10, "month": 4, "livingplace": "Choex"}}, "location": "Bouveret"}, "Tour du Chablais #4 Yvorne": {"race": "Tour du Chablais #4 Yvorne", "date": {"mer. 28.04.2010": {"weekday": "wednesday", "year": 2010, "categories": {"M-M40": {"pace": 300000000000, "rank": 100, "distance": 8, "time": 2489.3}}, "day": 28, "month": 4, "livingplace": "Choex"}}, "location": "Les Mosses"}, "Tour du Chablais #3 Bouveret": {"race": "Tour du Chablais #3 Bouveret", "longitude": 7.0223787, "latitude": 46.1782231, "date": {"mer. 17.04.2013": {"weekday": "wednesday", "year": 2013, "categories": {"M-M40": {"pace": 280000000000, "rank": 82, "distance": 10, "time": 2804.3}}, "day": 17, "month": 4, "livingplace": "Choex"}}, "location": "Evionnaz"}, "Tour du Chablais #1 Roche": {"race": "Tour du Chablais #1 Roche", "longitude": 6.9916269, "latitude": 46.2957462, "date": {"mer. 03.04.2013": {"weekday": "wednesday", "year": 2013, "categories": {"M-M40": {"pace": 277000000000, "rank": 76, "distance": 9, "time": 2454.4}}, "day": 3, "month": 4, "livingplace": "Choex"}, "mer. 07.04.2010": {"weekday": "wednesday", "year": 2010, "categories": {"M-M40": {"pace": 281000000000, "rank": 109, "distance": 9, "time": 2517.0}}, "day": 7, "month": 4, "livingplace": "Choex"}}, "location": "Ollon VD"}, "Tour du Chablais #3 Collombey-Muraz": {"race": "Tour du Chablais #3 Collombey-Muraz", "longitude": 7.0223787, "latitude": 46.1782231, "date": {"mer. 25.04.2012": {"weekday": "wednesday", "year": 2012, "categories": {"M-M40": {"pace": 279000000000, "rank": 81, "distance": 9, "time": 2511.0}}, "day": 25, "month": 4, "livingplace": "Choex"}}, "location": "Evionnaz"}, "Morat-Fribourg": {"race": "Morat-Fribourg", "longitude": 7.120184, "latitude": 46.92922110000001, "date": {"sam. 04.10.2014": {"weekday": "saturday", "year": 2014, "categories": {"17-M50": {"pace": 316000000000, "rank": 245, "distance": 17, "time": 5428.7}}, "day": 4, "month": 10, "livingplace": "Choex"}, "sam. 03.10.2009": {"weekday": "saturday", "year": 2009, "categories": {"C-M45": {"pace": 318000000000, "rank": 388, "distance": 17, "time": 5474.0}}, "day": 3, "month": 10, "livingplace": "Choex"}, "sam. 01.10.2011": {"weekday": "saturday", "year": 2011, "categories": {"17-M45": {"pace": 322000000000, "rank": 425, "distance": 17, "time": 5532.3}}, "day": 1, "month": 10, "livingplace": "Choex"}, "sam. 02.10.2010": {"weekday": "saturday", "year": 2010, "categories": {"17-M45": {"pace": 309000000000, "rank": 301, "distance": 17, "time": 5307.2}}, "day": 2, "month": 10, "livingplace": "Choex"}, "sam. 06.10.2012": {"weekday": "saturday", "year": 2012, "categories": {"17-M45": {"pace": 307000000000, "rank": 325, "distance": 17, "time": 5367.7}}, "day": 6, "month": 10, "livingplace": "Choex"}}, "location": "Murten"}, "Tour du Chablais #6 Aigle": {"race": "Tour du Chablais #6 Aigle", "longitude": 6.970566, "latitude": 46.3190253, "date": {"mer. 01.06.2011": {"weekday": "wednesday", "year": 2011, "categories": {"M-M40": {"pace": 283000000000, "rank": 98, "distance": 10, "time": 2895.0}}, "day": 1, "month": 6, "livingplace": "Choex"}}, "location": "Aigle"}, "Tour du Chablais #6 Mouthey": {"race": "Tour du Chablais #6 Mouthey", "longitude": 6.970566, "latitude": 46.3190253, "date": {"mer. 12.05.2010": {"weekday": "wednesday", "year": 2010, "categories": {"M-M40": {"pace": 275000000000, "rank": 99, "distance": 9, "time": 2537.2}}, "day": 12, "month": 5, "livingplace": "Choex"}}, "location": "Aigle"}, "Tour du Chablais #5 Les Mosses": {"race": "Tour du Chablais #5 Les Mosses", "longitude": 6.931504599999999, "latitude": 46.3603257, "date": {"mer. 25.05.2011": {"weekday": "wednesday", "year": 2011, "categories": {"M-M40": {"pace": 325000000000, "rank": 96, "distance": 8, "time": 2600.8}}, "day": 25, "month": 5, "livingplace": "Choex"}}, "location": "Roche VD"}, "Tour du Chablais #1 Lavey": {"race": "Tour du Chablais #1 Lavey", "longitude": 6.9916269, "latitude": 46.2957462, "date": {"mer. 27.04.2011": {"weekday": "wednesday", "year": 2011, "categories": {"M-M40": {"pace": 300000000000, "rank": 109, "distance": 9, "time": 2706.9}}, "day": 27, "month": 4, "livingplace": "Choex"}}, "location": "Ollon VD"}, "Tour du Chablais #5 Morgins": {"race": "Tour du Chablais #5 Morgins", "longitude": 6.931504599999999, "latitude": 46.3603257, "date": {"mer. 01.05.2013": {"weekday": "wednesday", "year": 2013, "categories": {"M-M40": {"pace": 296000000000, "rank": 71, "distance": 8, "time": 2251.4}}, "day": 1, "month": 5, "livingplace": "Choex"}}, "location": "Roche VD"}, "Tour du Chablais #3 Le Bouveret": {"race": "Tour du Chablais #3 Le Bouveret", "longitude": 7.0223787, "latitude": 46.1782231, "date": {"mer. 11.05.2011": {"weekday": "wednesday", "year": 2011, "categories": {"M-M40": {"pace": 298000000000, "rank": 119, "distance": 10, "time": 2984.2}}, "day": 11, "month": 5, "livingplace": "Choex"}}, "location": "Evionnaz"}, "Tour du Chablais #1 Martigny": {"race": "Tour du Chablais #1 Martigny", "longitude": 6.9916269, "latitude": 46.2957462, "date": {"mer. 23.04.2014": {"weekday": "wednesday", "year": 2014, "categories": {"M-M50": {"pace": 283000000000, "rank": 43, "distance": 9, "time": 2413.1}}, "day": 23, "month": 4, "livingplace": "Choex"}}, "location": "Ollon VD"}}, "name": "Chambovey Jean-Philippe", "birth": 1964}