{"sex": "M", "races": {"Corrida Bulloise, Bulle": {"race": "Corrida Bulloise, Bulle", "longitude": 7.057726799999999, "latitude": 46.6154512, "date": {"sam. 15.11.2014": {"weekday": "saturday", "year": 2014, "categories": {"8-M60": {"pace": 328000000000, "rank": 29, "distance": 8, "time": 2674.4}}, "day": 15, "month": 11, "livingplace": "Puidoux"}, "sam. 21.11.2009": {"weekday": "saturday", "year": 2009, "categories": {"M50": {"pace": 303000000000, "rank": 74, "distance": 8, "time": 2470.3}}, "day": 21, "month": 11, "livingplace": "Puidoux"}}, "location": "Bulle"}, "Glacier 3000 Run, Gstaad": {"race": "Glacier 3000 Run, Gstaad", "longitude": 7.2865728, "latitude": 46.4717588, "date": {"sam. 09.08.2008": {"weekday": "saturday", "year": 2008, "categories": {"M50": {"pace": 609000000000, "rank": 59, "distance": 26, "time": 15835.2}}, "day": 9, "month": 8, "livingplace": "Puidoux"}}, "location": "Gstaad"}, "Tour du Chablais #4 Yvorne": {"race": "Tour du Chablais #4 Yvorne", "date": {"mer. 28.04.2010": {"weekday": "wednesday", "year": 2010, "categories": {"M-M50": {"pace": 341000000000, "rank": 56, "distance": 8, "time": 2824.4}}, "day": 28, "month": 4, "livingplace": "Puidoux"}}, "location": "Les Mosses"}, "Tour du Pays de Vaud #3 - Mezi\u00e8res": {"race": "Tour du Pays de Vaud #3 - Mezi\u00e8res", "longitude": 6.641183, "latitude": 46.7784736, "date": {"mer. 22.08.2012": {"weekday": "wednesday", "year": 2012, "categories": {"H-Sen4": {"pace": 358000000000, "rank": 24, "distance": 8, "time": 3007.6}}, "day": 22, "month": 8, "livingplace": "Puidoux"}}, "location": "Yverdon-les-Bains"}, "Tour du Pays de Vaud #2 - Mezi\u00e8res": {"race": "Tour du Pays de Vaud #2 - Mezi\u00e8res", "longitude": 6.7702883, "latitude": 46.5955273, "date": {"mer. 21.08.2013": {"weekday": "wednesday", "year": 2013, "categories": {"H-Sen4": {"pace": 356000000000, "rank": 24, "distance": 8, "time": 2888.4}}, "day": 21, "month": 8, "livingplace": "Puidoux"}}, "location": "M\u00e9zi\u00e8res VD"}, "Tour du pays de Vaud #1 \u2013 St  Prex": {"race": "Tour du pays de Vaud #1 \u2013 St  Prex", "longitude": 6.641183, "latitude": 46.7784736, "date": {"mer. 11.08.2010": {"weekday": "wednesday", "year": 2010, "categories": {"HSen3": {"pace": 341000000000, "rank": 71, "distance": 8, "time": 2867.0}}, "day": 11, "month": 8, "livingplace": "Puidoux"}}, "location": "Yverdon-les-Bains"}, "Les Traine-Savates, Cheseaux-sur-Lausanne": {"race": "Les Traine-Savates, Cheseaux-sur-Lausanne", "longitude": 6.6047712, "latitude": 46.585452, "date": {"sam. 10.04.2010": {"weekday": "saturday", "year": 2010, "categories": {"Hom V2": {"pace": 315000000000, "rank": 82, "distance": 10, "time": 3281.1}}, "day": 10, "month": 4, "livingplace": "Puidoux"}}, "location": "Cheseaux-sur-Lausanne"}}, "name": "Chapalay Jacques", "birth": 1952}