{"sex": "M", "races": {"Course de l'Escalade, Gen\u00e8ve": {"race": "Course de l'Escalade, Gen\u00e8ve", "longitude": 6.1431577, "latitude": 46.2043907, "date": {"sam. 04.12.2010": {"weekday": "saturday", "year": 2010, "categories": {"H-H1": {"pace": 237000000000, "rank": 192, "distance": 7, "time": 1720.5}}, "day": 4, "month": 12, "livingplace": "Puidoux"}, "sam. 07.12.2013": {"weekday": "saturday", "year": 2013, "categories": {"Elite-M": {"pace": 234000000000, "rank": 237, "distance": 7, "time": 1700.2}}, "day": 7, "month": 12, "livingplace": "Puidoux"}}, "location": "Gen\u00e8ve"}, "Tour du Chablais #3 Le Bouveret": {"race": "Tour du Chablais #3 Le Bouveret", "longitude": 7.0223787, "latitude": 46.1782231, "date": {"mer. 11.05.2011": {"weekday": "wednesday", "year": 2011, "categories": {"M-M20": {"pace": 243000000000, "rank": 58, "distance": 10, "time": 2434.2}}, "day": 11, "month": 5, "livingplace": "Puidoux"}}, "location": "Evionnaz"}, "Tour du Pays de Vaud #3 - Chavornay": {"race": "Tour du Pays de Vaud #3 - Chavornay", "longitude": 6.641183, "latitude": 46.7784736, "date": {"mer. 28.08.2013": {"weekday": "wednesday", "year": 2013, "categories": {"H-Hom": {"pace": 219000000000, "rank": 5, "distance": 9, "time": 1955.1}}, "day": 28, "month": 8, "livingplace": "Puidoux"}}, "location": "Yverdon-les-Bains"}, "BCN Tour La Chaux-de-Fonds": {"race": "BCN Tour La Chaux-de-Fonds", "longitude": 6.6324944, "latitude": 46.9262933, "date": {"mer. 23.05.2012": {"weekday": "wednesday", "year": 2012, "categories": {"HE": {"pace": 263000000000, "rank": 36, "distance": 11, "time": 2841.2}}, "day": 23, "month": 5, "livingplace": "Puidoux"}}, "location": "Couvet"}, "Tour du Chablais #2 Bex": {"race": "Tour du Chablais #2 Bex", "longitude": 6.854975199999999, "latitude": 46.3835529, "date": {"mer. 18.04.2012": {"weekday": "wednesday", "year": 2012, "categories": {"M-M20": {"pace": 256000000000, "rank": 69, "distance": 8, "time": 2048.7}}, "day": 18, "month": 4, "livingplace": "Puidoux"}}, "location": "Bouveret"}, "Tour du Pays de Vaud #4 - La Sarraz": {"race": "Tour du Pays de Vaud #4 - La Sarraz", "longitude": 6.5707689, "latitude": 46.7088129, "date": {"mer. 29.08.2012": {"weekday": "wednesday", "year": 2012, "categories": {"H-Hom": {"pace": 223000000000, "rank": 11, "distance": 9, "time": 1902.7}}, "day": 29, "month": 8, "livingplace": "Puidoux"}, "mer. 04.09.2013": {"weekday": "wednesday", "year": 2013, "categories": {"H-Hom": {"pace": 224000000000, "rank": 6, "distance": 9, "time": 1907.7}}, "day": 4, "month": 9, "livingplace": "Puidoux"}}, "location": "Chavornay"}, "Tour du Pays de Vaud printanier #3 - Yens": {"race": "Tour du Pays de Vaud printanier #3 - Yens", "longitude": 6.5728678, "latitude": 46.7829756, "date": {"mer. 12.06.2013": {"weekday": "wednesday", "year": 2013, "categories": {"H-Hom": {"pace": 230000000000, "rank": 5, "distance": 9, "time": 2095.0}}, "day": 12, "month": 6, "livingplace": "Puidoux"}, "mer. 18.06.2014": {"weekday": "wednesday", "year": 2014, "categories": {"H-Hom": {"pace": 217000000000, "rank": 4, "distance": 9, "time": 1978.0}}, "day": 18, "month": 6, "livingplace": "Puidoux"}}, "location": "Champvent"}, "Tour du Chablais #6 Montreux": {"race": "Tour du Chablais #6 Montreux", "longitude": 6.970566, "latitude": 46.3190253, "date": {"mer. 16.05.2012": {"weekday": "wednesday", "year": 2012, "categories": {"M-M20": {"pace": 238000000000, "rank": 46, "distance": 9, "time": 2206.5}}, "day": 16, "month": 5, "livingplace": "Puidoux"}}, "location": "Aigle"}, "Kerzerslauf": {"race": "Kerzerslauf", "longitude": 7.1954365, "latitude": 46.97488999999999, "date": {"sam. 15.03.2014": {"weekday": "saturday", "year": 2014, "categories": {"15-M20": {"pace": 227000000000, "rank": 69, "distance": 15, "time": 3411.6}}, "day": 15, "month": 3, "livingplace": "Puidoux"}}, "location": "Kerzers"}, "Tour du pays de Vaud #5 - Penthaz": {"race": "Tour du pays de Vaud #5 - Penthaz", "longitude": 6.539251200000001, "latitude": 46.5993131, "date": {"mer. 07.09.2011": {"weekday": "wednesday", "year": 2011, "categories": {"H-Hom": {"pace": 252000000000, "rank": 10, "distance": 8, "time": 2109.2}}, "day": 7, "month": 9, "livingplace": "Puidoux"}}, "location": "Penthaz"}, "Tour du Chablais #4 Morgins": {"race": "Tour du Chablais #4 Morgins", "date": {"mer. 18.05.2011": {"weekday": "wednesday", "year": 2011, "categories": {"M-M20": {"pace": 262000000000, "rank": 61, "distance": 8, "time": 2191.9}}, "day": 18, "month": 5, "livingplace": "Puidoux"}}, "location": "Les Mosses"}, "Tour du Pays de Vaud printanier #2 Yens": {"race": "Tour du Pays de Vaud printanier #2 Yens", "longitude": 6.7975224, "latitude": 46.6698891, "date": {"mer. 06.06.2012": {"weekday": "wednesday", "year": 2012, "categories": {"H-Hom": {"pace": 241000000000, "rank": 8, "distance": 9, "time": 2197.9}}, "day": 6, "month": 6, "livingplace": "Puidoux"}}, "location": "Moudon"}, "Tour du Chablais #1 Montreux": {"race": "Tour du Chablais #1 Montreux", "longitude": 6.9916269, "latitude": 46.2957462, "date": {"mer. 11.04.2012": {"weekday": "wednesday", "year": 2012, "categories": {"M-M20": {"pace": 270000000000, "rank": 84, "distance": 8, "time": 2056.2}}, "day": 11, "month": 4, "livingplace": "Puidoux"}}, "location": "Ollon VD"}, "20km de Lausanne": {"race": "20km de Lausanne", "longitude": 6.6322734, "latitude": 46.5196535, "date": {"sam. 30.04.2011": {"weekday": "saturday", "year": 2011, "categories": {"20-H20": {"pace": 277000000000, "rank": 138, "distance": 20, "time": 5544.6}}, "day": 30, "month": 4, "livingplace": "Puidoux"}, "sam. 25.04.2015": {"weekday": "saturday", "year": 2015, "categories": {"20-H20": {"pace": 216000000000, "rank": 11, "distance": 20, "time": 4326.7}}, "day": 25, "month": 4, "livingplace": "triviera"}, "sam. 28.04.2012": {"weekday": "saturday", "year": 2012, "categories": {"20-H20": {"pace": 282000000000, "rank": 137, "distance": 20, "time": 5642.3}}, "day": 28, "month": 4, "livingplace": "Puidoux"}, "sam. 27.04.2013": {"weekday": "saturday", "year": 2013, "categories": {"20-H20": {"pace": 240000000000, "rank": 46, "distance": 20, "time": 4809.4}}, "day": 27, "month": 4, "livingplace": "Puidoux"}, "sam. 26.04.2014": {"weekday": "saturday", "year": 2014, "categories": {"20-H20": {"pace": 226000000000, "rank": 11, "distance": 20, "time": 4524.9}}, "day": 26, "month": 4, "livingplace": "Puidoux"}}, "location": "Lausanne"}, "Tour du Chablais #5 Bex": {"race": "Tour du Chablais #5 Bex", "longitude": 6.931504599999999, "latitude": 46.3603257, "date": {"mer. 09.05.2012": {"weekday": "wednesday", "year": 2012, "categories": {"M-M20": {"pace": 238000000000, "rank": 45, "distance": 9, "time": 2114.0}}, "day": 9, "month": 5, "livingplace": "Puidoux"}}, "location": "Roche VD"}, "Tour du Pays de Vaud #3 - Mezi\u00e8res": {"race": "Tour du Pays de Vaud #3 - Mezi\u00e8res", "longitude": 6.641183, "latitude": 46.7784736, "date": {"mer. 22.08.2012": {"weekday": "wednesday", "year": 2012, "categories": {"H-Hom": {"pace": 253000000000, "rank": 8, "distance": 8, "time": 2129.9}}, "day": 22, "month": 8, "livingplace": "Puidoux"}}, "location": "Yverdon-les-Bains"}, "Tour du Pays de Vaud #2 - Mezi\u00e8res": {"race": "Tour du Pays de Vaud #2 - Mezi\u00e8res", "longitude": 6.7702883, "latitude": 46.5955273, "date": {"mer. 21.08.2013": {"weekday": "wednesday", "year": 2013, "categories": {"H-Hom": {"pace": 234000000000, "rank": 5, "distance": 8, "time": 1902.1}}, "day": 21, "month": 8, "livingplace": "Puidoux"}}, "location": "M\u00e9zi\u00e8res VD"}, "Course de l'Avent, Yverdon": {"race": "Course de l'Avent, Yverdon", "longitude": 7.161971899999999, "latitude": 46.8064773, "date": {"dim. 28.11.2010": {"weekday": "sunday", "year": 2010, "categories": {"E-H23": {"pace": 250000000000, "rank": 6, "distance": 8, "time": 1932.5}}, "day": 28, "month": 11, "livingplace": "Puidoux"}}, "location": "Fribourg"}, "Tour du Pays de Vaud printanier #2 Yverdon-les-Bains": {"race": "Tour du Pays de Vaud printanier #2 Yverdon-les-Bains", "longitude": 6.7975224, "latitude": 46.6698891, "date": {"mer. 05.06.2013": {"weekday": "wednesday", "year": 2013, "categories": {"H-Hom": {"pace": 237000000000, "rank": 6, "distance": 9, "time": 2156.8}}, "day": 5, "month": 6, "livingplace": "Puidoux"}, "mer. 11.06.2014": {"weekday": "wednesday", "year": 2014, "categories": {"H-Hom": {"pace": 241000000000, "rank": 3, "distance": 9, "time": 2196.0}}, "day": 11, "month": 6, "livingplace": "Puidoux"}}, "location": "Moudon"}, "Tour du Chablais #4 St  Maurice": {"race": "Tour du Chablais #4 St  Maurice", "date": {"mer. 24.04.2013": {"weekday": "wednesday", "year": 2013, "categories": {"M-M20": {"pace": 225000000000, "rank": 18, "distance": 10, "time": 2251.7}}, "day": 24, "month": 4, "livingplace": "Puidoux"}}, "location": "Les Mosses"}, "Tour du Chablais #2 Rennaz": {"race": "Tour du Chablais #2 Rennaz", "longitude": 6.854975199999999, "latitude": 46.3835529, "date": {"mer. 04.05.2011": {"weekday": "wednesday", "year": 2011, "categories": {"M-M20": {"pace": 247000000000, "rank": 65, "distance": 9, "time": 2309.5}}, "day": 4, "month": 5, "livingplace": "Puidoux"}}, "location": "Bouveret"}, "Tour du Chablais #4 Champ\u00e9ry": {"race": "Tour du Chablais #4 Champ\u00e9ry", "date": {"mer. 02.05.2012": {"weekday": "wednesday", "year": 2012, "categories": {"M-M20": {"pace": 245000000000, "rank": 51, "distance": 8, "time": 2036.7}}, "day": 2, "month": 5, "livingplace": "Puidoux"}}, "location": "Les Mosses"}, "Tour du Chablais #6 Monthey": {"race": "Tour du Chablais #6 Monthey", "longitude": 6.970566, "latitude": 46.3190253, "date": {"mer. 08.05.2013": {"weekday": "wednesday", "year": 2013, "categories": {"M-M20": {"pace": 224000000000, "rank": 22, "distance": 9, "time": 2090.8}}, "day": 8, "month": 5, "livingplace": "Puidoux"}}, "location": "Aigle"}, "Tour du Chablais #2 Yvorne": {"race": "Tour du Chablais #2 Yvorne", "longitude": 6.854975199999999, "latitude": 46.3835529, "date": {"mer. 10.04.2013": {"weekday": "wednesday", "year": 2013, "categories": {"M-M20": {"pace": 242000000000, "rank": 23, "distance": 8, "time": 1936.7}}, "day": 10, "month": 4, "livingplace": "Puidoux"}}, "location": "Bouveret"}, "Tour du Pays de Vaud printanier #1 Chavornay": {"race": "Tour du Pays de Vaud printanier #1 Chavornay", "longitude": 6.2347852, "latitude": 46.3832683, "date": {"mer. 30.05.2012": {"weekday": "wednesday", "year": 2012, "categories": {"H-Hom": {"pace": 243000000000, "rank": 4, "distance": 9, "time": 2179.8}}, "day": 30, "month": 5, "livingplace": "Puidoux"}}, "location": "Nyon"}, "Tour du Chablais #3 Bouveret": {"race": "Tour du Chablais #3 Bouveret", "longitude": 7.0223787, "latitude": 46.1782231, "date": {"mer. 17.04.2013": {"weekday": "wednesday", "year": 2013, "categories": {"M-M20": {"pace": 229000000000, "rank": 24, "distance": 10, "time": 2292.0}}, "day": 17, "month": 4, "livingplace": "Puidoux"}}, "location": "Evionnaz"}, "Tour du Chablais #1 Roche": {"race": "Tour du Chablais #1 Roche", "longitude": 6.9916269, "latitude": 46.2957462, "date": {"mer. 03.04.2013": {"weekday": "wednesday", "year": 2013, "categories": {"M-M20": {"pace": 223000000000, "rank": 24, "distance": 9, "time": 1984.1}}, "day": 3, "month": 4, "livingplace": "Puidoux"}}, "location": "Ollon VD"}, "Tour du Chablais #3 Collombey-Muraz": {"race": "Tour du Chablais #3 Collombey-Muraz", "longitude": 7.0223787, "latitude": 46.1782231, "date": {"mer. 25.04.2012": {"weekday": "wednesday", "year": 2012, "categories": {"M-M20": {"pace": 250000000000, "rank": 64, "distance": 9, "time": 2245.2}}, "day": 25, "month": 4, "livingplace": "Puidoux"}}, "location": "Evionnaz"}, "Tour du pays de Vaud #1 - Mezi\u00e8res": {"race": "Tour du pays de Vaud #1 - Mezi\u00e8res", "longitude": 6.641183, "latitude": 46.7784736, "date": {"mer. 10.08.2011": {"weekday": "wednesday", "year": 2011, "categories": {"H-Hom": {"pace": 236000000000, "rank": 17, "distance": 9, "time": 2009.3}}, "day": 10, "month": 8, "livingplace": "Puidoux"}}, "location": "Yverdon-les-Bains"}, "Morat-Fribourg": {"race": "Morat-Fribourg", "longitude": 7.120184, "latitude": 46.92922110000001, "date": {"sam. 03.10.2015": {"weekday": "saturday", "year": 2015, "categories": {"17-M20": {"pace": 229000000000, "rank": 44, "distance": 17, "time": 3933.8}}, "day": 3, "month": 10, "livingplace": "Puidoux"}, "sam. 01.10.2011": {"weekday": "saturday", "year": 2011, "categories": {"17-M20": {"pace": 262000000000, "rank": 305, "distance": 17, "time": 4509.1}}, "day": 1, "month": 10, "livingplace": "Puidoux"}, "sam. 02.10.2010": {"weekday": "saturday", "year": 2010, "categories": {"17-M20": {"pace": 288000000000, "rank": 650, "distance": 17, "time": 4959.3}}, "day": 2, "month": 10, "livingplace": "Puidoux"}, "sam. 05.10.2013": {"weekday": "saturday", "year": 2013, "categories": {"17-M20": {"pace": 238000000000, "rank": 114, "distance": 17, "time": 4161.2}}, "day": 5, "month": 10, "livingplace": "Puidoux"}, "sam. 06.10.2012": {"weekday": "saturday", "year": 2012, "categories": {"17-M20": {"pace": 242000000000, "rank": 99, "distance": 17, "time": 4226.9}}, "day": 6, "month": 10, "livingplace": "Puidoux"}}, "location": "Murten"}, "Tour du Chablais #6 Aigle": {"race": "Tour du Chablais #6 Aigle", "longitude": 6.970566, "latitude": 46.3190253, "date": {"mer. 01.06.2011": {"weekday": "wednesday", "year": 2011, "categories": {"M-M20": {"pace": 238000000000, "rank": 61, "distance": 10, "time": 2432.3}}, "day": 1, "month": 6, "livingplace": "Puidoux"}}, "location": "Aigle"}, "Les Traine-Savates, Cheseaux-sur-Lausanne": {"race": "Les Traine-Savates, Cheseaux-sur-Lausanne", "longitude": 6.6047712, "latitude": 46.585452, "date": {"sam. 13.04.2013": {"weekday": "saturday", "year": 2013, "categories": {"10-M20": {"pace": 231000000000, "rank": 23, "distance": 10, "time": 2385.2}}, "day": 13, "month": 4, "livingplace": "Puidoux"}, "sam. 14.04.2012": {"weekday": "saturday", "year": 2012, "categories": {"10-M20": {"pace": 258000000000, "rank": 85, "distance": 10, "time": 2687.7}}, "day": 14, "month": 4, "livingplace": "Puidoux"}, "sam. 09.04.2011": {"weekday": "saturday", "year": 2011, "categories": {"10-M20": {"pace": 283000000000, "rank": 155, "distance": 10, "time": 2943.2}}, "day": 9, "month": 4, "livingplace": "Puidoux"}, "sam. 12.04.2014": {"weekday": "saturday", "year": 2014, "categories": {"10-M20": {"pace": 217000000000, "rank": 10, "distance": 10, "time": 2241.0}}, "day": 12, "month": 4, "livingplace": "Puidoux"}}, "location": "Cheseaux-sur-Lausanne"}, "Tour du pays de Vaud #6 - St  Prex": {"race": "Tour du pays de Vaud #6 - St  Prex", "longitude": 6.458343500000001, "latitude": 46.4829113, "date": {"mer. 14.09.2011": {"weekday": "wednesday", "year": 2011, "categories": {"H-Hom": {"pace": 231000000000, "rank": 8, "distance": 9, "time": 1992.4}}, "day": 14, "month": 9, "livingplace": "Puidoux"}}, "location": "St-Prex"}, "Tour du Chablais #5 Les Mosses": {"race": "Tour du Chablais #5 Les Mosses", "longitude": 6.931504599999999, "latitude": 46.3603257, "date": {"mer. 25.05.2011": {"weekday": "wednesday", "year": 2011, "categories": {"M-M20": {"pace": 263000000000, "rank": 58, "distance": 8, "time": 2106.3}}, "day": 25, "month": 5, "livingplace": "Puidoux"}}, "location": "Roche VD"}, "Tour du Chablais #1 Lavey": {"race": "Tour du Chablais #1 Lavey", "longitude": 6.9916269, "latitude": 46.2957462, "date": {"mer. 27.04.2011": {"weekday": "wednesday", "year": 2011, "categories": {"M-M20": {"pace": 248000000000, "rank": 58, "distance": 9, "time": 2239.8}}, "day": 27, "month": 4, "livingplace": "Puidoux"}}, "location": "Ollon VD"}, "Tour du Chablais #5 Morgins": {"race": "Tour du Chablais #5 Morgins", "longitude": 6.931504599999999, "latitude": 46.3603257, "date": {"mer. 01.05.2013": {"weekday": "wednesday", "year": 2013, "categories": {"M-M20": {"pace": 240000000000, "rank": 27, "distance": 8, "time": 1824.4}}, "day": 1, "month": 5, "livingplace": "Puidoux"}}, "location": "Roche VD"}, "Lausanne Marathon": {"race": "Lausanne Marathon", "longitude": 6.6322734, "latitude": 46.5196535, "date": {"dim. 31.10.2010": {"weekday": "sunday", "year": 2010, "categories": {"42-H1": {"pace": 323000000000, "rank": 65, "distance": 42, "time": 13643.0}}, "day": 31, "month": 10, "livingplace": "Puidoux"}, "sam. 24.10.2015": {"weekday": "saturday", "year": 2015, "categories": {"42-H20": {"pace": 243000000000, "rank": 6, "distance": 42, "time": 10273.4}}, "day": 24, "month": 10, "livingplace": "Puidoux"}, "dim. 28.10.2012": {"weekday": "sunday", "year": 2012, "categories": {"42-H1": {"pace": 290000000000, "rank": 33, "distance": 42, "time": 12264.8}}, "day": 28, "month": 10, "livingplace": "Puidoux"}, "dim. 27.10.2013": {"weekday": "sunday", "year": 2013, "categories": {"21-H1": {"pace": 237000000000, "rank": 18, "distance": 21, "time": 5004.7}}, "day": 27, "month": 10, "livingplace": "Puidoux"}}, "location": "Lausanne"}, "Tour du pays de Vaud #1 - Penthaz": {"race": "Tour du pays de Vaud #1 - Penthaz", "longitude": 6.539251200000001, "latitude": 46.5993131, "date": {"mer. 14.08.2013": {"weekday": "wednesday", "year": 2013, "categories": {"H-Hom": {"pace": 224000000000, "rank": 6, "distance": 9, "time": 1914.9}}, "day": 14, "month": 8, "livingplace": "Puidoux"}, "mer. 08.08.2012": {"weekday": "wednesday", "year": 2012, "categories": {"H-Hom": {"pace": 235000000000, "rank": 13, "distance": 9, "time": 2006.3}}, "day": 8, "month": 8, "livingplace": "Puidoux"}}, "location": "Penthaz"}, "Tour du Chablais #1 Martigny": {"race": "Tour du Chablais #1 Martigny", "longitude": 6.9916269, "latitude": 46.2957462, "date": {"mer. 23.04.2014": {"weekday": "wednesday", "year": 2014, "categories": {"M-M20": {"pace": 209000000000, "rank": 12, "distance": 9, "time": 1780.7}}, "day": 23, "month": 4, "livingplace": "Puidoux"}}, "location": "Ollon VD"}, "Tour du Pays de Vaud printanier #1 Moudon": {"race": "Tour du Pays de Vaud printanier #1 Moudon", "longitude": 6.2347852, "latitude": 46.3832683, "date": {"mer. 04.06.2014": {"weekday": "wednesday", "year": 2014, "categories": {"H-Hom": {"pace": 231000000000, "rank": 6, "distance": 8, "time": 1948.6}}, "day": 4, "month": 6, "livingplace": "Puidoux"}}, "location": "Nyon"}, "Tour du Pays de Vaud #2 - Genolier": {"race": "Tour du Pays de Vaud #2 - Genolier", "longitude": 6.7702883, "latitude": 46.5955273, "date": {"mer. 15.08.2012": {"weekday": "wednesday", "year": 2012, "categories": {"H-Hom": {"pace": 231000000000, "rank": 14, "distance": 9, "time": 1970.5}}, "day": 15, "month": 8, "livingplace": "Puidoux"}, "mer. 17.08.2011": {"weekday": "wednesday", "year": 2011, "categories": {"H-Hom": {"pace": 236000000000, "rank": 10, "distance": 9, "time": 2014.2}}, "day": 17, "month": 8, "livingplace": "Puidoux"}}, "location": "M\u00e9zi\u00e8res VD"}}, "name": "Chevalley Marc", "birth": 1988}