{"sex": "M", "races": {"Tour du Chablais #4 St  Maurice": {"race": "Tour du Chablais #4 St  Maurice", "date": {"mer. 24.04.2013": {"weekday": "wednesday", "year": 2013, "categories": {"M-M20": {"pace": 266000000000, "rank": 94, "distance": 10, "time": 2669.9}}, "day": 24, "month": 4, "livingplace": "Clarens"}}, "location": "Les Mosses"}, "Tour du Chablais #2 Bex": {"race": "Tour du Chablais #2 Bex", "longitude": 6.854975199999999, "latitude": 46.3835529, "date": {"mer. 18.04.2012": {"weekday": "wednesday", "year": 2012, "categories": {"M-M20": {"pace": 271000000000, "rank": 101, "distance": 8, "time": 2168.4}}, "day": 18, "month": 4, "livingplace": "Clarens"}}, "location": "Bouveret"}, "Tour du Chablais #6 Montreux": {"race": "Tour du Chablais #6 Montreux", "longitude": 6.970566, "latitude": 46.3190253, "date": {"mer. 16.05.2012": {"weekday": "wednesday", "year": 2012, "categories": {"M-M20": {"pace": 251000000000, "rank": 73, "distance": 9, "time": 2326.7}}, "day": 16, "month": 5, "livingplace": "Clarens"}}, "location": "Aigle"}, "20km de Lausanne": {"race": "20km de Lausanne", "longitude": 6.6322734, "latitude": 46.5196535, "date": {"sam. 25.04.2009": {"weekday": "saturday", "year": 2009, "categories": {"10-H20": {"pace": 267000000000, "rank": 98, "distance": 10, "time": 2676.1}}, "day": 25, "month": 4, "livingplace": "Chailly Montreux"}, "sam. 28.04.2007": {"weekday": "saturday", "year": 2007, "categories": {"20H20": {"pace": 294000000000, "rank": 139, "distance": 20, "time": 5888.1}}, "day": 28, "month": 4, "livingplace": "La Tour de Peilz"}, "sam. 25.04.2015": {"weekday": "saturday", "year": 2015, "categories": {"10-H20": {"pace": 339000000000, "rank": 970, "distance": 10, "time": 3396.0}}, "day": 25, "month": 4, "livingplace": "Bouveret"}}, "location": "Lausanne"}, "Tour du Chablais #2 St-Gingolph": {"race": "Tour du Chablais #2 St-Gingolph", "longitude": 6.854975199999999, "latitude": 46.3835529, "date": {"mer. 14.04.2010": {"weekday": "wednesday", "year": 2010, "categories": {"M-M20": {"pace": 277000000000, "rank": 72, "distance": 8, "time": 2313.8}}, "day": 14, "month": 4, "livingplace": "Chailly Montreux"}}, "location": "Bouveret"}, "Tour du Chablais #1 Montreux": {"race": "Tour du Chablais #1 Montreux", "longitude": 6.9916269, "latitude": 46.2957462, "date": {"mer. 11.04.2012": {"weekday": "wednesday", "year": 2012, "categories": {"M-M20": {"pace": 301000000000, "rank": 141, "distance": 8, "time": 2288.2}}, "day": 11, "month": 4, "livingplace": "Clarens"}}, "location": "Ollon VD"}, "Tour du Chablais #4 Morgins": {"race": "Tour du Chablais #4 Morgins", "date": {"mer. 18.05.2011": {"weekday": "wednesday", "year": 2011, "categories": {"M-M20": {"pace": 259000000000, "rank": 53, "distance": 8, "time": 2168.2}}, "day": 18, "month": 5, "livingplace": "Clarens"}}, "location": "Les Mosses"}, "Tour du Chablais #5 Bex": {"race": "Tour du Chablais #5 Bex", "longitude": 6.931504599999999, "latitude": 46.3603257, "date": {"mer. 09.05.2012": {"weekday": "wednesday", "year": 2012, "categories": {"M-M20": {"pace": 249000000000, "rank": 59, "distance": 9, "time": 2207.7}}, "day": 9, "month": 5, "livingplace": "Clarens"}}, "location": "Roche VD"}, "Tour du Chablais #3 Bex": {"race": "Tour du Chablais #3 Bex", "longitude": 7.0223787, "latitude": 46.1782231, "date": {"mer. 21.04.2010": {"weekday": "wednesday", "year": 2010, "categories": {"M-M20": {"pace": 260000000000, "rank": 67, "distance": 10, "time": 2609.7}}, "day": 21, "month": 4, "livingplace": "Chailly Montreux"}}, "location": "Evionnaz"}, "Lausanne Marathon": {"race": "Lausanne Marathon", "longitude": 6.6322734, "latitude": 46.5196535, "date": {"dim. 26.10.2014": {"weekday": "sunday", "year": 2014, "categories": {"10-H20": {"pace": 266000000000, "rank": 191, "distance": 10, "time": 2661.3}}, "day": 26, "month": 10, "livingplace": "Bouveret"}}, "location": "Lausanne"}, "Tour du Chablais #2 Rennaz": {"race": "Tour du Chablais #2 Rennaz", "longitude": 6.854975199999999, "latitude": 46.3835529, "date": {"mer. 04.05.2011": {"weekday": "wednesday", "year": 2011, "categories": {"M-M20": {"pace": 246000000000, "rank": 63, "distance": 9, "time": 2307.3}}, "day": 4, "month": 5, "livingplace": "Clarens"}}, "location": "Bouveret"}, "Tour du Chablais #4 Champ\u00e9ry": {"race": "Tour du Chablais #4 Champ\u00e9ry", "date": {"mer. 02.05.2012": {"weekday": "wednesday", "year": 2012, "categories": {"M-M20": {"pace": 255000000000, "rank": 72, "distance": 8, "time": 2120.6}}, "day": 2, "month": 5, "livingplace": "Clarens"}}, "location": "Les Mosses"}, "Tour du Chablais #6 Monthey": {"race": "Tour du Chablais #6 Monthey", "longitude": 6.970566, "latitude": 46.3190253, "date": {"mer. 08.05.2013": {"weekday": "wednesday", "year": 2013, "categories": {"M-M20": {"pace": 284000000000, "rank": 138, "distance": 9, "time": 2650.4}}, "day": 8, "month": 5, "livingplace": "Clarens"}}, "location": "Aigle"}, "Tour du Chablais #2 Yvorne": {"race": "Tour du Chablais #2 Yvorne", "longitude": 6.854975199999999, "latitude": 46.3835529, "date": {"mer. 10.04.2013": {"weekday": "wednesday", "year": 2013, "categories": {"M-M20": {"pace": 286000000000, "rank": 97, "distance": 8, "time": 2289.9}}, "day": 10, "month": 4, "livingplace": "Clarens"}}, "location": "Bouveret"}, "Tour du Chablais #3 Bouveret": {"race": "Tour du Chablais #3 Bouveret", "longitude": 7.0223787, "latitude": 46.1782231, "date": {"mer. 17.04.2013": {"weekday": "wednesday", "year": 2013, "categories": {"M-M20": {"pace": 287000000000, "rank": 138, "distance": 10, "time": 2870.3}}, "day": 17, "month": 4, "livingplace": "Clarens"}}, "location": "Evionnaz"}, "Tour du Chablais #1 Roche": {"race": "Tour du Chablais #1 Roche", "longitude": 6.9916269, "latitude": 46.2957462, "date": {"mer. 03.04.2013": {"weekday": "wednesday", "year": 2013, "categories": {"M-M20": {"pace": 264000000000, "rank": 98, "distance": 9, "time": 2344.0}}, "day": 3, "month": 4, "livingplace": "Clarens"}}, "location": "Ollon VD"}, "Tour du Chablais #1 Martigny": {"race": "Tour du Chablais #1 Martigny", "longitude": 6.9916269, "latitude": 46.2957462, "date": {"mer. 23.04.2014": {"weekday": "wednesday", "year": 2014, "categories": {"M-M20": {"pace": 269000000000, "rank": 121, "distance": 9, "time": 2291.1}}, "day": 23, "month": 4, "livingplace": "Clarens"}}, "location": "Ollon VD"}, "Tour du Chablais #6 Aigle": {"race": "Tour du Chablais #6 Aigle", "longitude": 6.970566, "latitude": 46.3190253, "date": {"mer. 01.06.2011": {"weekday": "wednesday", "year": 2011, "categories": {"M-M20": {"pace": 247000000000, "rank": 79, "distance": 10, "time": 2523.1}}, "day": 1, "month": 6, "livingplace": "Clarens"}}, "location": "Aigle"}, "Tour du Chablais #1 Lavey": {"race": "Tour du Chablais #1 Lavey", "longitude": 6.9916269, "latitude": 46.2957462, "date": {"mer. 27.04.2011": {"weekday": "wednesday", "year": 2011, "categories": {"M-M20": {"pace": 254000000000, "rank": 79, "distance": 9, "time": 2290.3}}, "day": 27, "month": 4, "livingplace": "Clarens"}}, "location": "Ollon VD"}, "Tour du Chablais #5 Morgins": {"race": "Tour du Chablais #5 Morgins", "longitude": 6.931504599999999, "latitude": 46.3603257, "date": {"mer. 01.05.2013": {"weekday": "wednesday", "year": 2013, "categories": {"M-M20": {"pace": 280000000000, "rank": 96, "distance": 8, "time": 2128.7}}, "day": 1, "month": 5, "livingplace": "Clarens"}}, "location": "Roche VD"}, "Tour du Chablais #3 Le Bouveret": {"race": "Tour du Chablais #3 Le Bouveret", "longitude": 7.0223787, "latitude": 46.1782231, "date": {"mer. 11.05.2011": {"weekday": "wednesday", "year": 2011, "categories": {"M-M20": {"pace": 259000000000, "rank": 98, "distance": 10, "time": 2592.4}}, "day": 11, "month": 5, "livingplace": "Clarens"}}, "location": "Evionnaz"}, "Tour du Chablais #3 Collombey-Muraz": {"race": "Tour du Chablais #3 Collombey-Muraz", "longitude": 7.0223787, "latitude": 46.1782231, "date": {"mer. 25.04.2012": {"weekday": "wednesday", "year": 2012, "categories": {"M-M20": {"pace": 268000000000, "rank": 94, "distance": 9, "time": 2409.0}}, "day": 25, "month": 4, "livingplace": "Clarens"}}, "location": "Evionnaz"}}, "name": "Clos Sacha", "birth": 1986}