{"sex": "M", "races": {"10km Schweizer Meisterschaften Lyss": {"race": "10km Schweizer Meisterschaften Lyss", "longitude": 7.3077022, "latitude": 47.0746504, "date": {"sam. 31.03.2012": {"weekday": "saturday", "year": 2012, "categories": {"10-M70": {"pace": 283000000000, "rank": 5, "distance": 10, "time": 2834.8}}, "day": 31, "month": 3, "livingplace": "Leeds"}}, "location": "Lyss"}, "BCN Tour Ponts-de-Martel": {"race": "BCN Tour Ponts-de-Martel", "longitude": 6.9175754, "latitude": 47.0624261, "date": {"mer. 28.04.2010": {"weekday": "wednesday", "year": 2010, "categories": {"HV2": {"pace": 323000000000, "rank": 14, "distance": 11, "time": 3618.4}}, "day": 28, "month": 4, "livingplace": "Leeds"}}, "location": "Ch\u00e9zard-St-Martin"}, "Glacier 3000 Run, Gstaad": {"race": "Glacier 3000 Run, Gstaad", "longitude": 7.2865728, "latitude": 46.4717588, "date": {"sam. 09.08.2008": {"weekday": "saturday", "year": 2008, "categories": {"M60": {"pace": 539000000000, "rank": 6, "distance": 26, "time": 14018.6}}, "day": 9, "month": 8, "livingplace": "Leeds"}}, "location": "Gstaad"}, "Tour du Pays de Vaud #3 - Mezi\u00e8res": {"race": "Tour du Pays de Vaud #3 - Mezi\u00e8res", "longitude": 6.641183, "latitude": 46.7784736, "date": {"mer. 22.08.2012": {"weekday": "wednesday", "year": 2012, "categories": {"H-Sen5": {"pace": 409000000000, "rank": 5, "distance": 8, "time": 3441.1}}, "day": 22, "month": 8, "livingplace": "Leeds"}}, "location": "Yverdon-les-Bains"}, "Tour du Pays de Vaud #2 - Genolier": {"race": "Tour du Pays de Vaud #2 - Genolier", "longitude": 6.7702883, "latitude": 46.5955273, "date": {"mer. 15.08.2012": {"weekday": "wednesday", "year": 2012, "categories": {"H-Sen5": {"pace": 415000000000, "rank": 8, "distance": 9, "time": 3533.1}}, "day": 15, "month": 8, "livingplace": "Leeds"}}, "location": "M\u00e9zi\u00e8res VD"}, "GP Fricktal, Eiken": {"race": "GP Fricktal, Eiken", "date": {"sam. 07.04.2012": {"weekday": "saturday", "year": 2012, "categories": {"M70": {"pace": 286000000000, "rank": 3, "distance": 16, "time": 4611.3}}, "day": 7, "month": 4, "livingplace": "Schweiz"}}, "location": "Eiken"}, "Tour du Pays de Vaud etape 5 - La Sarraz": {"race": "Tour du Pays de Vaud etape 5 - La Sarraz", "longitude": 6.539251200000001, "latitude": 46.5993131, "date": {"mer. 09.09.2009": {"weekday": "wednesday", "year": 2009, "categories": {"HS4": {"pace": 286000000000, "rank": 8, "distance": 9, "time": 2408.6}}, "day": 9, "month": 9, "livingplace": "Leeds"}}, "location": "Penthaz"}, "BCN Tour Colombier": {"race": "BCN Tour Colombier", "longitude": 6.8589727, "latitude": 46.9668714, "date": {"mer. 21.04.2010": {"weekday": "wednesday", "year": 2010, "categories": {"HV2": {"pace": 327000000000, "rank": 11, "distance": 10, "time": 3270.7}}, "day": 21, "month": 4, "livingplace": "Leeds"}}, "location": "Colombier NE"}, "BCN Tour Auvernier": {"race": "BCN Tour Auvernier", "longitude": 6.8589727, "latitude": 46.9668714, "date": {"mer. 20.04.2011": {"weekday": "wednesday", "year": 2011, "categories": {"HV2": {"pace": 356000000000, "rank": 16, "distance": 11, "time": 3853.9}}, "day": 20, "month": 4, "livingplace": "Leeds"}}, "location": "Colombier NE"}, "Bl\u00fcemlisalp-Lauf, Reichenbach": {"race": "Bl\u00fcemlisalp-Lauf, Reichenbach", "longitude": 7.6940529, "latitude": 46.6254387, "date": {"dim. 26.05.2013": {"weekday": "sunday", "year": 2013, "categories": {"M60": {"pace": 398000000000, "rank": 15, "distance": 14, "time": 5580.0}}, "day": 26, "month": 5, "livingplace": "Leeds"}}, "location": "Reichenbach im Kandertal"}}, "name": "Coles Malcolm", "birth": 1940}