{"sex": "M", "races": {"Int Greifenseelauf, Uster": {"race": "Int Greifenseelauf, Uster", "longitude": 8.717873899999999, "latitude": 47.3482747, "date": {"sam. 22.09.2007": {"weekday": "saturday", "year": 2007, "categories": {"H/M35": {"pace": 238000000000, "rank": 26, "distance": 21, "time": 5028.3}}, "day": 22, "month": 9, "livingplace": "Urdorf"}, "sam. 16.09.2006": {"weekday": "saturday", "year": 2006, "categories": {"H/M30": {"pace": 247000000000, "rank": 40, "distance": 21, "time": 5213.2}}, "day": 16, "month": 9, "livingplace": "Urdorf"}}, "location": "Uster"}, "Dietiker Neujahrslauf, Dietikon": {"race": "Dietiker Neujahrslauf, Dietikon", "longitude": 8.39977, "latitude": 47.4053885, "date": {"sam. 10.01.2015": {"weekday": "saturday", "year": 2015, "categories": {"C": {"pace": 224000000000, "rank": 17, "distance": 12, "time": 2714.3}}, "day": 10, "month": 1, "livingplace": "Bergdietikon"}}, "location": "Dietikon"}, "Augusta Raurica Lauf, Augst BL": {"race": "Augusta Raurica Lauf, Augst BL", "date": {"dim. 09.11.2014": {"weekday": "sunday", "year": 2014, "categories": {"12-M40": {"pace": 229000000000, "rank": 8, "distance": 12, "time": 2755.3}}, "day": 9, "month": 11, "livingplace": "Bergdietikon"}}, "location": "Augst BL"}, "Basel City Marathon": {"race": "Basel City Marathon", "longitude": 7.5885761, "latitude": 47.5595986, "date": {"dim. 03.09.2006": {"weekday": "sunday", "year": 2006, "categories": {"H-M30": {"pace": 282000000000, "rank": 59, "distance": 21, "time": 5961.7}}, "day": 3, "month": 9, "livingplace": "Urdorf"}}, "location": "Basel"}, "Schlosslauf Rapperswil-Jona": {"race": "Schlosslauf Rapperswil-Jona", "longitude": 8.818437399999999, "latitude": 47.2266239, "date": {"dim. 19.10.2014": {"weekday": "sunday", "year": 2014, "categories": {"10-M3": {"pace": 229000000000, "rank": 4, "distance": 10, "time": 2297.5}}, "day": 19, "month": 10, "livingplace": "Bergdietikon"}}, "location": "Rapperswil SG"}, "Thuner Stadtlauf, Thun": {"race": "Thuner Stadtlauf, Thun", "longitude": 7.6279881, "latitude": 46.7579868, "date": {"dim. 26.08.2007": {"weekday": "sunday", "year": 2007, "categories": {"10/M30": {"pace": 220000000000, "rank": 14, "distance": 10, "time": 2205.1}}, "day": 26, "month": 8, "livingplace": "Urdorf"}}, "location": "Thun"}, "Winterthur Marathon": {"race": "Winterthur Marathon", "longitude": -75.6037351, "latitude": 39.8088766, "date": {"dim. 20.05.2007": {"weekday": "sunday", "year": 2007, "categories": {"HM35": {"pace": 255000000000, "rank": 27, "distance": 21, "time": 5369.1}}, "day": 20, "month": 5, "livingplace": "Urdorf"}}, "location": "Winterthur"}, "Z\u00fcrcher Silvesterlauf, Z\u00fcrich": {"race": "Z\u00fcrcher Silvesterlauf, Z\u00fcrich", "longitude": 8.541694, "latitude": 47.3768866, "date": {"dim. 14.12.2014": {"weekday": "sunday", "year": 2014, "categories": {"10-M40": {"pace": 218000000000, "rank": 15, "distance": 10, "time": 2181.4}}, "day": 14, "month": 12, "livingplace": "Bergdietikon"}}, "location": "Z\u00fcrich"}}, "name": "Concepito Oreste", "birth": 1972}