{"sex": "F", "races": {"Stralugano, Lugano": {"race": "Stralugano, Lugano", "longitude": 8.951051999999999, "latitude": 46.0036778, "date": {"dim. 30.09.2012": {"weekday": "sunday", "year": 2012, "categories": {"30-W45": {"pace": 298000000000, "rank": 9, "distance": 30, "time": 8963.2}}, "day": 30, "month": 9, "livingplace": "Chatel St Denis"}, "dim. 28.09.2014": {"weekday": "sunday", "year": 2014, "categories": {"10-W40": {"pace": 245000000000, "rank": 6, "distance": 10, "time": 2459.5}}, "day": 28, "month": 9, "livingplace": "Viganello"}}, "location": "Lugano"}, "Maratona Ticino, Tenero": {"race": "Maratona Ticino, Tenero", "date": {"dim. 10.11.2013": {"weekday": "sunday", "year": 2013, "categories": {"H-W35": {"pace": 279000000000, "rank": 16, "distance": 21, "time": 5887.3}}, "day": 10, "month": 11, "livingplace": "Viganello"}}, "location": "Tenero"}, "Course de l'Avent, Fribourg": {"race": "Course de l'Avent, Fribourg", "longitude": 7.161971899999999, "latitude": 46.8064773, "date": {"dim. 25.11.2012": {"weekday": "sunday", "year": 2012, "categories": {"P-F40": {"pace": 288000000000, "rank": 2, "distance": 6, "time": 1644.6}}, "day": 25, "month": 11, "livingplace": "Chatel St Denis"}}, "location": "Fribourg"}, "10km, Payerne": {"race": "10km, Payerne", "longitude": 6.9405663, "latitude": 46.8220266, "date": {"sam. 10.03.2012": {"weekday": "saturday", "year": 2012, "categories": {"W40": {"pace": 269000000000, "rank": 11, "distance": 10, "time": 2694.0}}, "day": 10, "month": 3, "livingplace": "Chatel St Denis"}}, "location": "Payerne"}, "Course de l'Avent, Yverdon": {"race": "Course de l'Avent, Yverdon", "longitude": 7.161971899999999, "latitude": 46.8064773, "date": {"dim. 27.11.2011": {"weekday": "sunday", "year": 2011, "categories": {"E-F4": {"pace": 256000000000, "rank": 3, "distance": 8, "time": 1979.1}}, "day": 27, "month": 11, "livingplace": "Chatel St Denis"}}, "location": "Fribourg"}, "Morat-Fribourg": {"race": "Morat-Fribourg", "longitude": 7.120184, "latitude": 46.92922110000001, "date": {"sam. 01.10.2011": {"weekday": "saturday", "year": 2011, "categories": {"17-W40": {"pace": 305000000000, "rank": 38, "distance": 17, "time": 5242.2}}, "day": 1, "month": 10, "livingplace": "Chatel St Denis"}, "sam. 06.10.2012": {"weekday": "saturday", "year": 2012, "categories": {"17-W45": {"pace": 284000000000, "rank": 8, "distance": 17, "time": 4958.7}}, "day": 6, "month": 10, "livingplace": "Chatel St Denis"}}, "location": "Murten"}, "Les Traine-Savates, Cheseaux-sur-Lausanne": {"race": "Les Traine-Savates, Cheseaux-sur-Lausanne", "longitude": 6.6047712, "latitude": 46.585452, "date": {"sam. 14.04.2012": {"weekday": "saturday", "year": 2012, "categories": {"10-W40": {"pace": 262000000000, "rank": 7, "distance": 10, "time": 2732.2}}, "day": 14, "month": 4, "livingplace": "Chatel St Denis"}}, "location": "Cheseaux-sur-Lausanne"}, "20km de Lausanne": {"race": "20km de Lausanne", "longitude": 6.6322734, "latitude": 46.5196535, "date": {"sam. 28.04.2012": {"weekday": "saturday", "year": 2012, "categories": {"20-F45": {"pace": 272000000000, "rank": 3, "distance": 20, "time": 5443.7}}, "day": 28, "month": 4, "livingplace": "Chatel St Denis"}, "sam. 27.04.2013": {"weekday": "saturday", "year": 2013, "categories": {"20-F45": {"pace": 270000000000, "rank": 5, "distance": 20, "time": 5400.8}}, "day": 27, "month": 4, "livingplace": "Chatel St Denis"}}, "location": "Lausanne"}}, "name": "Conforto Galli Roberta", "birth": 1967}