{"sex": "M", "races": {"Tour du Chablais #5 Les Mosses": {"race": "Tour du Chablais #5 Les Mosses", "longitude": 6.931504599999999, "latitude": 46.3603257, "date": {"mer. 25.05.2011": {"weekday": "wednesday", "year": 2011, "categories": {"M-M20": {"pace": 267000000000, "rank": 69, "distance": 8, "time": 2140.8}}, "day": 25, "month": 5, "livingplace": "St Maurice"}}, "location": "Roche VD"}, "Tour du Chablais #1 Lavey": {"race": "Tour du Chablais #1 Lavey", "longitude": 6.9916269, "latitude": 46.2957462, "date": {"mer. 27.04.2011": {"weekday": "wednesday", "year": 2011, "categories": {"M-M20": {"pace": 261000000000, "rank": 91, "distance": 9, "time": 2351.3}}, "day": 27, "month": 4, "livingplace": "St Maurice"}}, "location": "Ollon VD"}, "Tour du Chablais #5 Morgins": {"race": "Tour du Chablais #5 Morgins", "longitude": 6.931504599999999, "latitude": 46.3603257, "date": {"mer. 01.05.2013": {"weekday": "wednesday", "year": 2013, "categories": {"M-M20": {"pace": 267000000000, "rank": 71, "distance": 8, "time": 2036.4}}, "day": 1, "month": 5, "livingplace": "Collonges"}}, "location": "Roche VD"}, "Tour du Chablais #6 Montreux": {"race": "Tour du Chablais #6 Montreux", "longitude": 6.970566, "latitude": 46.3190253, "date": {"mer. 16.05.2012": {"weekday": "wednesday", "year": 2012, "categories": {"M-M20": {"pace": 260000000000, "rank": 100, "distance": 9, "time": 2413.8}}, "day": 16, "month": 5, "livingplace": "St Maurice"}}, "location": "Aigle"}, "Tour du Chablais #3 Le Bouveret": {"race": "Tour du Chablais #3 Le Bouveret", "longitude": 7.0223787, "latitude": 46.1782231, "date": {"mer. 11.05.2011": {"weekday": "wednesday", "year": 2011, "categories": {"M-M20": {"pace": 263000000000, "rank": 114, "distance": 10, "time": 2630.7}}, "day": 11, "month": 5, "livingplace": "St Maurice"}}, "location": "Evionnaz"}, "Tour du Chablais #2 Rennaz": {"race": "Tour du Chablais #2 Rennaz", "longitude": 6.854975199999999, "latitude": 46.3835529, "date": {"mer. 04.05.2011": {"weekday": "wednesday", "year": 2011, "categories": {"M-M20": {"pace": 317000000000, "rank": 215, "distance": 9, "time": 2968.3}}, "day": 4, "month": 5, "livingplace": "St Maurice"}}, "location": "Bouveret"}, "Morat-Fribourg": {"race": "Morat-Fribourg", "longitude": 7.120184, "latitude": 46.92922110000001, "date": {"sam. 02.10.2010": {"weekday": "saturday", "year": 2010, "categories": {"17-M20": {"pace": 284000000000, "rank": 551, "distance": 17, "time": 4883.4}}, "day": 2, "month": 10, "livingplace": "St Maurice"}}, "location": "Murten"}, "Tour du Chablais #6 Aigle": {"race": "Tour du Chablais #6 Aigle", "longitude": 6.970566, "latitude": 46.3190253, "date": {"mer. 01.06.2011": {"weekday": "wednesday", "year": 2011, "categories": {"M-M20": {"pace": 238000000000, "rank": 62, "distance": 10, "time": 2432.6}}, "day": 1, "month": 6, "livingplace": "St Maurice"}}, "location": "Aigle"}, "Tour du Chablais #4 Morgins": {"race": "Tour du Chablais #4 Morgins", "date": {"mer. 18.05.2011": {"weekday": "wednesday", "year": 2011, "categories": {"M-M20": {"pace": 271000000000, "rank": 85, "distance": 8, "time": 2270.4}}, "day": 18, "month": 5, "livingplace": "St Maurice"}}, "location": "Les Mosses"}, "Tour du Chablais #6 Mouthey": {"race": "Tour du Chablais #6 Mouthey", "longitude": 6.970566, "latitude": 46.3190253, "date": {"mer. 12.05.2010": {"weekday": "wednesday", "year": 2010, "categories": {"M-M20": {"pace": 356000000000, "rank": 223, "distance": 9, "time": 3278.8}}, "day": 12, "month": 5, "livingplace": "St Maurice"}}, "location": "Aigle"}}, "name": "Coquoz Mikael", "birth": 1987}