{"sex": "M", "races": {"Tour du Chablais #1 Montreux": {"race": "Tour du Chablais #1 Montreux", "longitude": 6.9916269, "latitude": 46.2957462, "date": {"mer. 11.04.2012": {"weekday": "wednesday", "year": 2012, "categories": {"M-M20": {"pace": 333000000000, "rank": 189, "distance": 8, "time": 2535.6}}, "day": 11, "month": 4, "livingplace": "Vionnaz"}}, "location": "Ollon VD"}, "Tour du Chablais #5 Les Mosses": {"race": "Tour du Chablais #5 Les Mosses", "longitude": 6.931504599999999, "latitude": 46.3603257, "date": {"mer. 25.05.2011": {"weekday": "wednesday", "year": 2011, "categories": {"M-M20": {"pace": 311000000000, "rank": 153, "distance": 8, "time": 2492.1}}, "day": 25, "month": 5, "livingplace": "Vionnaz"}}, "location": "Roche VD"}, "Tour du Chablais #1 Lavey": {"race": "Tour du Chablais #1 Lavey", "longitude": 6.9916269, "latitude": 46.2957462, "date": {"mer. 27.04.2011": {"weekday": "wednesday", "year": 2011, "categories": {"M-M20": {"pace": 297000000000, "rank": 163, "distance": 9, "time": 2673.1}}, "day": 27, "month": 4, "livingplace": "Vionnaz"}}, "location": "Ollon VD"}, "Tour du Chablais #2 Bex": {"race": "Tour du Chablais #2 Bex", "longitude": 6.854975199999999, "latitude": 46.3835529, "date": {"mer. 18.04.2012": {"weekday": "wednesday", "year": 2012, "categories": {"M-M20": {"pace": 309000000000, "rank": 170, "distance": 8, "time": 2475.9}}, "day": 18, "month": 4, "livingplace": "Vionnaz"}}, "location": "Bouveret"}, "Tour du Chablais #3 Le Bouveret": {"race": "Tour du Chablais #3 Le Bouveret", "longitude": 7.0223787, "latitude": 46.1782231, "date": {"mer. 11.05.2011": {"weekday": "wednesday", "year": 2011, "categories": {"M-M20": {"pace": 289000000000, "rank": 175, "distance": 10, "time": 2894.2}}, "day": 11, "month": 5, "livingplace": "Vionnaz"}}, "location": "Evionnaz"}, "Tour du Chablais #3 Collombey-Muraz": {"race": "Tour du Chablais #3 Collombey-Muraz", "longitude": 7.0223787, "latitude": 46.1782231, "date": {"mer. 25.04.2012": {"weekday": "wednesday", "year": 2012, "categories": {"M-M20": {"pace": 305000000000, "rank": 157, "distance": 9, "time": 2742.4}}, "day": 25, "month": 4, "livingplace": "Vionnaz"}}, "location": "Evionnaz"}, "Tour du Chablais #6 Montreux": {"race": "Tour du Chablais #6 Montreux", "longitude": 6.970566, "latitude": 46.3190253, "date": {"mer. 16.05.2012": {"weekday": "wednesday", "year": 2012, "categories": {"M-M20": {"pace": 297000000000, "rank": 182, "distance": 9, "time": 2751.1}}, "day": 16, "month": 5, "livingplace": "Vionnaz"}}, "location": "Aigle"}, "Tour du Chablais #6 Aigle": {"race": "Tour du Chablais #6 Aigle", "longitude": 6.970566, "latitude": 46.3190253, "date": {"mer. 01.06.2011": {"weekday": "wednesday", "year": 2011, "categories": {"M-M20": {"pace": 270000000000, "rank": 128, "distance": 10, "time": 2755.5}}, "day": 1, "month": 6, "livingplace": "Vionnaz"}}, "location": "Aigle"}, "Tour du Chablais #4 Morgins": {"race": "Tour du Chablais #4 Morgins", "date": {"mer. 18.05.2011": {"weekday": "wednesday", "year": 2011, "categories": {"M-M20": {"pace": 297000000000, "rank": 132, "distance": 8, "time": 2487.4}}, "day": 18, "month": 5, "livingplace": "Vionnaz"}}, "location": "Les Mosses"}, "Tour du Chablais #2 Rennaz": {"race": "Tour du Chablais #2 Rennaz", "longitude": 6.854975199999999, "latitude": 46.3835529, "date": {"mer. 04.05.2011": {"weekday": "wednesday", "year": 2011, "categories": {"M-M20": {"pace": 291000000000, "rank": 165, "distance": 9, "time": 2730.0}}, "day": 4, "month": 5, "livingplace": "Vionnaz"}}, "location": "Bouveret"}}, "name": "Coquoz Christian", "birth": 1973}