{"sex": "M", "races": {"Course de l'Escalade, Gen\u00e8ve": {"race": "Course de l'Escalade, Gen\u00e8ve", "longitude": 6.1431577, "latitude": 46.2043907, "date": {"sam. 05.12.2015": {"weekday": "saturday", "year": 2015, "categories": {"Esc-Hom2": {"pace": 231000000000, "rank": 78, "distance": 7, "time": 1696.1}}, "day": 5, "month": 12, "livingplace": "Lausanne"}}, "location": "Gen\u00e8ve"}, "Tour du Pays de Vaud printanier #3 - Yens": {"race": "Tour du Pays de Vaud printanier #3 - Yens", "longitude": 6.5728678, "latitude": 46.7829756, "date": {"mer. 18.06.2014": {"weekday": "wednesday", "year": 2014, "categories": {"H-Sen1": {"pace": 251000000000, "rank": 31, "distance": 9, "time": 2288.9}}, "day": 18, "month": 6, "livingplace": "Lausanne"}}, "location": "Champvent"}, "Course p\u00e9destre Thyon-Dixence, Thyon": {"race": "Course p\u00e9destre Thyon-Dixence, Thyon", "date": {"dim. 04.08.2013": {"weekday": "sunday", "year": 2013, "categories": {"HomElite": {"pace": 417000000000, "rank": 71, "distance": 16, "time": 6829.8}}, "day": 4, "month": 8, "livingplace": "Lausanne"}}, "location": "Thyon-Les Collons"}, "Tour du Pays de Vaud #4 - La Sarraz": {"race": "Tour du Pays de Vaud #4 - La Sarraz", "longitude": 6.5707689, "latitude": 46.7088129, "date": {"mer. 04.09.2013": {"weekday": "wednesday", "year": 2013, "categories": {"H-Sen1": {"pace": 251000000000, "rank": 23, "distance": 9, "time": 2136.4}}, "day": 4, "month": 9, "livingplace": "Lausanne"}}, "location": "Chavornay"}, "Kerzerslauf": {"race": "Kerzerslauf", "longitude": 7.1954365, "latitude": 46.97488999999999, "date": {"sam. 21.03.2015": {"weekday": "saturday", "year": 2015, "categories": {"15-M20": {"pace": 268000000000, "rank": 226, "distance": 15, "time": 4020.9}}, "day": 21, "month": 3, "livingplace": "Lausanne"}}, "location": "Kerzers"}, "Tour du pays de Vaud #1 - Mezi\u00e8res": {"race": "Tour du pays de Vaud #1 - Mezi\u00e8res", "longitude": 6.641183, "latitude": 46.7784736, "date": {"mer. 10.08.2011": {"weekday": "wednesday", "year": 2011, "categories": {"H-Sen1": {"pace": 294000000000, "rank": 92, "distance": 9, "time": 2506.1}}, "day": 10, "month": 8, "livingplace": "Lausanne"}}, "location": "Yverdon-les-Bains"}, "Humani'Trail, Les Diablerets": {"race": "Humani'Trail, Les Diablerets", "longitude": 7.158055999999999, "latitude": 46.351389, "date": {"sam. 21.09.2013": {"weekday": "saturday", "year": 2013, "categories": {"50-HS": {"pace": 735000000000, "rank": 21, "distance": 50, "time": 36753.6}}, "day": 21, "month": 9, "livingplace": "Lausanne"}}, "location": "Les Diablerets"}, "Montreux - Les Rochers de Naye": {"race": "Montreux - Les Rochers de Naye", "longitude": 6.9106799, "latitude": 46.4312213, "date": {"dim. 07.07.2013": {"weekday": "sunday", "year": 2013, "categories": {"M-HElite": {"pace": 523000000000, "rank": 153, "distance": 19, "time": 9838.6}}, "day": 7, "month": 7, "livingplace": "Lausanne"}}, "location": "Montreux"}, "20km de Lausanne": {"race": "20km de Lausanne", "longitude": 6.6322734, "latitude": 46.5196535, "date": {"sam. 25.04.2015": {"weekday": "saturday", "year": 2015, "categories": {"10-H30": {"pace": 226000000000, "rank": 13, "distance": 10, "time": 2264.3}}, "day": 25, "month": 4, "livingplace": "Se bouger pour sa sante 1"}, "sam. 27.04.2013": {"weekday": "saturday", "year": 2013, "categories": {"20-H30": {"pace": 257000000000, "rank": 137, "distance": 20, "time": 5142.4}}, "day": 27, "month": 4, "livingplace": "Lausanne"}, "sam. 26.04.2014": {"weekday": "saturday", "year": 2014, "categories": {"20-H30": {"pace": 271000000000, "rank": 208, "distance": 20, "time": 5421.6}}, "day": 26, "month": 4, "livingplace": "Lausanne"}}, "location": "Lausanne"}, "Lausanne Marathon": {"race": "Lausanne Marathon", "longitude": 6.6322734, "latitude": 46.5196535, "date": {"dim. 26.10.2014": {"weekday": "sunday", "year": 2014, "categories": {"10-H30": {"pace": 232000000000, "rank": 46, "distance": 10, "time": 2323.8}}, "day": 26, "month": 10, "livingplace": "Lausanne"}, "sam. 24.10.2015": {"weekday": "saturday", "year": 2015, "categories": {"10-H30": {"pace": 223000000000, "rank": 39, "distance": 10, "time": 2233.0}}, "day": 24, "month": 10, "livingplace": "Lausanne"}, "dim. 28.10.2012": {"weekday": "sunday", "year": 2012, "categories": {"21-H2": {"pace": 427000000000, "rank": 905, "distance": 21, "time": 9021.8}}, "day": 28, "month": 10, "livingplace": "Lausanne"}, "dim. 27.10.2013": {"weekday": "sunday", "year": 2013, "categories": {"21-H2": {"pace": 278000000000, "rank": 200, "distance": 21, "time": 5886.2}}, "day": 27, "month": 10, "livingplace": "Lausanne"}}, "location": "Lausanne"}, "Tour du pays de Vaud #6 - St  Prex": {"race": "Tour du pays de Vaud #6 - St  Prex", "longitude": 6.458343500000001, "latitude": 46.4829113, "date": {"mer. 14.09.2011": {"weekday": "wednesday", "year": 2011, "categories": {"H-Sen1": {"pace": 288000000000, "rank": 106, "distance": 9, "time": 2484.0}}, "day": 14, "month": 9, "livingplace": "Lausanne"}}, "location": "St-Prex"}, "Tour du Pays de Vaud #4, La Sarraz": {"race": "Tour du Pays de Vaud #4, La Sarraz", "longitude": 6.5707689, "latitude": 46.7088129, "date": {"mer. 03.09.2014": {"weekday": "wednesday", "year": 2014, "categories": {"H-Sen1": {"pace": 242000000000, "rank": 22, "distance": 9, "time": 2060.5}}, "day": 3, "month": 9, "livingplace": "Lausanne"}}, "location": "Chavornay"}, "Tour du Pays de Vaud #2, Mezi\u00e8res": {"race": "Tour du Pays de Vaud #2, Mezi\u00e8res", "longitude": 6.7702883, "latitude": 46.5955273, "date": {"mer. 20.08.2014": {"weekday": "wednesday", "year": 2014, "categories": {"H-Sen1": {"pace": 267000000000, "rank": 24, "distance": 8, "time": 2164.4}}, "day": 20, "month": 8, "livingplace": "Lausanne"}}, "location": "M\u00e9zi\u00e8res VD"}, "Les Traine-Savates, Cheseaux-sur-Lausanne": {"race": "Les Traine-Savates, Cheseaux-sur-Lausanne", "longitude": 6.6047712, "latitude": 46.585452, "date": {"sam. 14.04.2012": {"weekday": "saturday", "year": 2012, "categories": {"10-M20": {"pace": 296000000000, "rank": 179, "distance": 10, "time": 3080.0}}, "day": 14, "month": 4, "livingplace": "Lausanne"}}, "location": "Cheseaux-sur-Lausanne"}, "Tour du Pays de Vaud #3, Chavornay": {"race": "Tour du Pays de Vaud #3, Chavornay", "longitude": 6.641183, "latitude": 46.7784736, "date": {"mer. 27.08.2014": {"weekday": "wednesday", "year": 2014, "categories": {"H-Sen1": {"pace": 255000000000, "rank": 19, "distance": 9, "time": 2197.3}}, "day": 27, "month": 8, "livingplace": "Lausanne"}}, "location": "Yverdon-les-Bains"}}, "name": "Corre Tanguy", "birth": 1981}