{"sex": "F", "races": {"Tour du pays de Vaud #6 - St  Prex": {"race": "Tour du pays de Vaud #6 - St  Prex", "longitude": 6.458343500000001, "latitude": 46.4829113, "date": {"mer. 14.09.2011": {"weekday": "wednesday", "year": 2011, "categories": {"D-Sen1": {"pace": 340000000000, "rank": 60, "distance": 9, "time": 2927.8}}, "day": 14, "month": 9, "livingplace": "Lausanne"}}, "location": "St-Prex"}, "Aletsch-Halbmarathon, Bettmeralp": {"race": "Aletsch-Halbmarathon, Bettmeralp", "date": {"dim. 24.06.2012": {"weekday": "sunday", "year": 2012, "categories": {"F30": {"pace": 542000000000, "rank": 119, "distance": 21, "time": 11496.1}}, "day": 24, "month": 6, "livingplace": "Lausanne"}}, "location": "Bettmeralp"}, "Tour du Pays de Vaud #3, Chavornay": {"race": "Tour du Pays de Vaud #3, Chavornay", "longitude": 6.641183, "latitude": 46.7784736, "date": {"mer. 27.08.2014": {"weekday": "wednesday", "year": 2014, "categories": {"D-Sen1": {"pace": 329000000000, "rank": 24, "distance": 9, "time": 2831.0}}, "day": 27, "month": 8, "livingplace": "Arveyes"}}, "location": "Yverdon-les-Bains"}, "Tour du Pays de Vaud #1, Penthaz": {"race": "Tour du Pays de Vaud #1, Penthaz", "longitude": 6.539251200000001, "latitude": 46.5993131, "date": {"mer. 13.08.2014": {"weekday": "wednesday", "year": 2014, "categories": {"D-Sen1": {"pace": 333000000000, "rank": 34, "distance": 9, "time": 2847.2}}, "day": 13, "month": 8, "livingplace": "Arveyes"}}, "location": "Penthaz"}, "20km de Lausanne": {"race": "20km de Lausanne", "longitude": 6.6322734, "latitude": 46.5196535, "date": {"sam. 28.04.2012": {"weekday": "saturday", "year": 2012, "categories": {"20-F30": {"pace": 329000000000, "rank": 88, "distance": 20, "time": 6585.7}}, "day": 28, "month": 4, "livingplace": "Lausanne"}}, "location": "Lausanne"}, "Tour du Pays de Vaud #4 - La Sarraz": {"race": "Tour du Pays de Vaud #4 - La Sarraz", "longitude": 6.5707689, "latitude": 46.7088129, "date": {"mer. 04.09.2013": {"weekday": "wednesday", "year": 2013, "categories": {"D-Sen1": {"pace": 365000000000, "rank": 55, "distance": 9, "time": 3103.5}}, "day": 4, "month": 9, "livingplace": "Lausanne"}}, "location": "Chavornay"}, "Tour du Pays de Vaud printanier #3 - Yens": {"race": "Tour du Pays de Vaud printanier #3 - Yens", "longitude": 6.5728678, "latitude": 46.7829756, "date": {"mer. 12.06.2013": {"weekday": "wednesday", "year": 2013, "categories": {"D-Sen1": {"pace": 333000000000, "rank": 22, "distance": 9, "time": 3034.7}}, "day": 12, "month": 6, "livingplace": "Lausanne"}}, "location": "Champvent"}, "Tour du Pays de Vaud #4, La Sarraz": {"race": "Tour du Pays de Vaud #4, La Sarraz", "longitude": 6.5707689, "latitude": 46.7088129, "date": {"mer. 03.09.2014": {"weekday": "wednesday", "year": 2014, "categories": {"D-Sen1": {"pace": 314000000000, "rank": 31, "distance": 9, "time": 2675.4}}, "day": 3, "month": 9, "livingplace": "Arveyes"}}, "location": "Chavornay"}, "Tour du Pays de Vaud #2, Mezi\u00e8res": {"race": "Tour du Pays de Vaud #2, Mezi\u00e8res", "longitude": 6.7702883, "latitude": 46.5955273, "date": {"mer. 20.08.2014": {"weekday": "wednesday", "year": 2014, "categories": {"D-Sen1": {"pace": 352000000000, "rank": 25, "distance": 8, "time": 2858.7}}, "day": 20, "month": 8, "livingplace": "Arveyes"}}, "location": "M\u00e9zi\u00e8res VD"}, "Tour du Pays de Vaud printanier #2 Yverdon-les-Bains": {"race": "Tour du Pays de Vaud printanier #2 Yverdon-les-Bains", "longitude": 6.7975224, "latitude": 46.6698891, "date": {"mer. 05.06.2013": {"weekday": "wednesday", "year": 2013, "categories": {"D-Sen1": {"pace": 401000000000, "rank": 47, "distance": 9, "time": 3655.1}}, "day": 5, "month": 6, "livingplace": "Lausanne"}}, "location": "Moudon"}, "Tour du Pays de Vaud printanier #1 Moudon": {"race": "Tour du Pays de Vaud printanier #1 Moudon", "longitude": 6.2347852, "latitude": 46.3832683, "date": {"mer. 29.05.2013": {"weekday": "wednesday", "year": 2013, "categories": {"D-Sen1": {"pace": 381000000000, "rank": 28, "distance": 8, "time": 3265.8}}, "day": 29, "month": 5, "livingplace": "Lausanne"}}, "location": "Nyon"}}, "name": "Croft Lillie", "birth": 1979}