{"sex": "M", "races": {"Tour du Chablais #4 Champ\u00e9ry": {"race": "Tour du Chablais #4 Champ\u00e9ry", "date": {"mer. 02.05.2012": {"weekday": "wednesday", "year": 2012, "categories": {"M-M40": {"pace": 302000000000, "rank": 106, "distance": 8, "time": 2508.0}}, "day": 2, "month": 5, "livingplace": "Saviese"}}, "location": "Les Mosses"}, "Tour du Chablais #4 Yvorne": {"race": "Tour du Chablais #4 Yvorne", "date": {"mer. 28.04.2010": {"weekday": "wednesday", "year": 2010, "categories": {"M-M20": {"pace": 347000000000, "rank": 184, "distance": 8, "time": 2877.1}}, "day": 28, "month": 4, "livingplace": "Saviese"}}, "location": "Les Mosses"}, "Tour du Chablais #1 Roche": {"race": "Tour du Chablais #1 Roche", "longitude": 6.9916269, "latitude": 46.2957462, "date": {"mer. 07.04.2010": {"weekday": "wednesday", "year": 2010, "categories": {"M-M20": {"pace": 312000000000, "rank": 188, "distance": 9, "time": 2799.3}}, "day": 7, "month": 4, "livingplace": "Saviese"}}, "location": "Ollon VD"}, "Tour du Chablais #1 Martigny": {"race": "Tour du Chablais #1 Martigny", "longitude": 6.9916269, "latitude": 46.2957462, "date": {"mer. 23.04.2014": {"weekday": "wednesday", "year": 2014, "categories": {"M-M40": {"pace": 307000000000, "rank": 113, "distance": 9, "time": 2615.4}}, "day": 23, "month": 4, "livingplace": "Saviese"}}, "location": "Ollon VD"}, "Tour du Chablais #2 Bex": {"race": "Tour du Chablais #2 Bex", "longitude": 6.854975199999999, "latitude": 46.3835529, "date": {"mer. 18.04.2012": {"weekday": "wednesday", "year": 2012, "categories": {"M-M40": {"pace": 313000000000, "rank": 130, "distance": 8, "time": 2508.1}}, "day": 18, "month": 4, "livingplace": "Saviese"}}, "location": "Bouveret"}, "Tour du Chablais #2 St-Gingolph": {"race": "Tour du Chablais #2 St-Gingolph", "longitude": 6.854975199999999, "latitude": 46.3835529, "date": {"mer. 14.04.2010": {"weekday": "wednesday", "year": 2010, "categories": {"M-M20": {"pace": 339000000000, "rank": 153, "distance": 8, "time": 2833.9}}, "day": 14, "month": 4, "livingplace": "Saviese"}}, "location": "Bouveret"}, "Tour du Chablais #5 Leysin": {"race": "Tour du Chablais #5 Leysin", "longitude": 6.931504599999999, "latitude": 46.3603257, "date": {"mer. 05.05.2010": {"weekday": "wednesday", "year": 2010, "categories": {"M-M20": {"pace": 336000000000, "rank": 131, "distance": 8, "time": 2844.0}}, "day": 5, "month": 5, "livingplace": "Saviese"}}, "location": "Roche VD"}, "Tour du Chablais #5 Bex": {"race": "Tour du Chablais #5 Bex", "longitude": 6.931504599999999, "latitude": 46.3603257, "date": {"mer. 09.05.2012": {"weekday": "wednesday", "year": 2012, "categories": {"M-M40": {"pace": 295000000000, "rank": 98, "distance": 9, "time": 2616.1}}, "day": 9, "month": 5, "livingplace": "Saviese"}}, "location": "Roche VD"}, "Tour du Chablais #3 Bex": {"race": "Tour du Chablais #3 Bex", "longitude": 7.0223787, "latitude": 46.1782231, "date": {"mer. 21.04.2010": {"weekday": "wednesday", "year": 2010, "categories": {"M-M20": {"pace": 317000000000, "rank": 175, "distance": 10, "time": 3172.5}}, "day": 21, "month": 4, "livingplace": "Saviese"}}, "location": "Evionnaz"}, "Lausanne Marathon": {"race": "Lausanne Marathon", "longitude": 6.6322734, "latitude": 46.5196535, "date": {"dim. 28.10.2012": {"weekday": "sunday", "year": 2012, "categories": {"21-H3": {"pace": 336000000000, "rank": 644, "distance": 21, "time": 7098.2}}, "day": 28, "month": 10, "livingplace": "Saviese"}}, "location": "Lausanne"}, "Tour du Chablais #6 Mouthey": {"race": "Tour du Chablais #6 Mouthey", "longitude": 6.970566, "latitude": 46.3190253, "date": {"mer. 12.05.2010": {"weekday": "wednesday", "year": 2010, "categories": {"M-M20": {"pace": 310000000000, "rank": 206, "distance": 9, "time": 2858.8}}, "day": 12, "month": 5, "livingplace": "Saviese"}}, "location": "Aigle"}, "Tour du Chablais #3 Collombey-Muraz": {"race": "Tour du Chablais #3 Collombey-Muraz", "longitude": 7.0223787, "latitude": 46.1782231, "date": {"mer. 25.04.2012": {"weekday": "wednesday", "year": 2012, "categories": {"M-M40": {"pace": 306000000000, "rank": 115, "distance": 9, "time": 2756.3}}, "day": 25, "month": 4, "livingplace": "Saviese"}}, "location": "Evionnaz"}}, "name": "Dalfollo Sylvain", "birth": 1971}