{"sex": "F", "races": {"Tour du Chablais #5 Leysin": {"race": "Tour du Chablais #5 Leysin", "longitude": 6.931504599999999, "latitude": 46.3603257, "date": {"mer. 05.05.2010": {"weekday": "wednesday", "year": 2010, "categories": {"F-F50": {"pace": 361000000000, "rank": 15, "distance": 8, "time": 3054.3}}, "day": 5, "month": 5, "livingplace": "Publier"}}, "location": "Roche VD"}, "Tour du Chablais #6 Monthey": {"race": "Tour du Chablais #6 Monthey", "longitude": 6.970566, "latitude": 46.3190253, "date": {"mer. 08.05.2013": {"weekday": "wednesday", "year": 2013, "categories": {"F-F50": {"pace": 334000000000, "rank": 22, "distance": 9, "time": 3117.1}}, "day": 8, "month": 5, "livingplace": "Publier"}}, "location": "Aigle"}, "Tour du Chablais #2 Yvorne": {"race": "Tour du Chablais #2 Yvorne", "longitude": 6.854975199999999, "latitude": 46.3835529, "date": {"mer. 10.04.2013": {"weekday": "wednesday", "year": 2013, "categories": {"F-F50": {"pace": 377000000000, "rank": 18, "distance": 8, "time": 3016.8}}, "day": 10, "month": 4, "livingplace": "Publier"}}, "location": "Bouveret"}, "Tour du Chablais #4 Yvorne": {"race": "Tour du Chablais #4 Yvorne", "date": {"mer. 28.04.2010": {"weekday": "wednesday", "year": 2010, "categories": {"F-F50": {"pace": 350000000000, "rank": 14, "distance": 8, "time": 2901.6}}, "day": 28, "month": 4, "livingplace": "Publier"}}, "location": "Les Mosses"}, "Tour du Chablais #3 Bouveret": {"race": "Tour du Chablais #3 Bouveret", "longitude": 7.0223787, "latitude": 46.1782231, "date": {"mer. 17.04.2013": {"weekday": "wednesday", "year": 2013, "categories": {"F-F50": {"pace": 349000000000, "rank": 27, "distance": 10, "time": 3499.4}}, "day": 17, "month": 4, "livingplace": "Publier"}}, "location": "Evionnaz"}, "Tour du Chablais #6 Aigle": {"race": "Tour du Chablais #6 Aigle", "longitude": 6.970566, "latitude": 46.3190253, "date": {"mer. 01.06.2011": {"weekday": "wednesday", "year": 2011, "categories": {"F-F50": {"pace": 320000000000, "rank": 14, "distance": 10, "time": 3272.8}}, "day": 1, "month": 6, "livingplace": "Publier"}}, "location": "Aigle"}, "Tour du Chablais #4 Morgins": {"race": "Tour du Chablais #4 Morgins", "date": {"mer. 18.05.2011": {"weekday": "wednesday", "year": 2011, "categories": {"F-F50": {"pace": 361000000000, "rank": 14, "distance": 8, "time": 3022.2}}, "day": 18, "month": 5, "livingplace": "Publier"}}, "location": "Les Mosses"}, "Tour du Chablais #2 St-Gingolph": {"race": "Tour du Chablais #2 St-Gingolph", "longitude": 6.854975199999999, "latitude": 46.3835529, "date": {"mer. 14.04.2010": {"weekday": "wednesday", "year": 2010, "categories": {"F-F50": {"pace": 351000000000, "rank": 9, "distance": 8, "time": 2932.9}}, "day": 14, "month": 4, "livingplace": "Publier"}}, "location": "Bouveret"}, "Tour du Chablais #3 Bex": {"race": "Tour du Chablais #3 Bex", "longitude": 7.0223787, "latitude": 46.1782231, "date": {"mer. 21.04.2010": {"weekday": "wednesday", "year": 2010, "categories": {"F-F50": {"pace": 326000000000, "rank": 14, "distance": 10, "time": 3261.6}}, "day": 21, "month": 4, "livingplace": "Publier"}}, "location": "Evionnaz"}, "Tour du Chablais #5 Les Mosses": {"race": "Tour du Chablais #5 Les Mosses", "longitude": 6.931504599999999, "latitude": 46.3603257, "date": {"mer. 25.05.2011": {"weekday": "wednesday", "year": 2011, "categories": {"F-F50": {"pace": 381000000000, "rank": 20, "distance": 8, "time": 3054.9}}, "day": 25, "month": 5, "livingplace": "Publier"}}, "location": "Roche VD"}, "Tour du Chablais #5 Morgins": {"race": "Tour du Chablais #5 Morgins", "longitude": 6.931504599999999, "latitude": 46.3603257, "date": {"mer. 01.05.2013": {"weekday": "wednesday", "year": 2013, "categories": {"F-F50": {"pace": 358000000000, "rank": 19, "distance": 8, "time": 2726.8}}, "day": 1, "month": 5, "livingplace": "Publier"}}, "location": "Roche VD"}, "Tour du Chablais #3 Le Bouveret": {"race": "Tour du Chablais #3 Le Bouveret", "longitude": 7.0223787, "latitude": 46.1782231, "date": {"mer. 11.05.2011": {"weekday": "wednesday", "year": 2011, "categories": {"F-F50": {"pace": 335000000000, "rank": 16, "distance": 10, "time": 3353.7}}, "day": 11, "month": 5, "livingplace": "Publier"}}, "location": "Evionnaz"}, "Lausanne Marathon": {"race": "Lausanne Marathon", "longitude": 6.6322734, "latitude": 46.5196535, "date": {"sam. 24.10.2015": {"weekday": "saturday", "year": 2015, "categories": {"42-D50": {"pace": 420000000000, "rank": 30, "distance": 42, "time": 17751.1}}, "day": 24, "month": 10, "livingplace": "Publier"}}, "location": "Lausanne"}, "Tour du Chablais #2 Rennaz": {"race": "Tour du Chablais #2 Rennaz", "longitude": 6.854975199999999, "latitude": 46.3835529, "date": {"mer. 04.05.2011": {"weekday": "wednesday", "year": 2011, "categories": {"F-F50": {"pace": 325000000000, "rank": 11, "distance": 9, "time": 3040.8}}, "day": 4, "month": 5, "livingplace": "Publier"}}, "location": "Bouveret"}}, "name": "Damevin Muri\u00e8le", "birth": 1956}