{"sex": "M", "races": {"Corrida Bulloise, Bulle": {"race": "Corrida Bulloise, Bulle", "longitude": 7.057726799999999, "latitude": 46.6154512, "date": {"sam. 21.11.2015": {"weekday": "saturday", "year": 2015, "categories": {"8-M20": {"pace": 226000000000, "rank": 28, "distance": 8, "time": 1848.3}}, "day": 21, "month": 11, "livingplace": "Orpund"}}, "location": "Bulle"}, "Herbstlauf Burgdorf": {"race": "Herbstlauf Burgdorf", "longitude": -115.9129022, "latitude": 45.277123, "date": {"sam. 23.10.2010": {"weekday": "saturday", "year": 2010, "categories": {"V": {"pace": 225000000000, "rank": 1, "distance": 5, "time": 1127.4}}, "day": 23, "month": 10, "livingplace": "Orpund"}}, "location": "Burgdorf"}, "Basler Stadtlauf": {"race": "Basler Stadtlauf", "longitude": 7.5885761, "latitude": 47.5595986, "date": {"sam. 28.11.2015": {"weekday": "saturday", "year": 2015, "categories": {"M35": {"pace": 208000000000, "rank": 12, "distance": 6, "time": 1144.2}}, "day": 28, "month": 11, "livingplace": "Orpund"}}, "location": "Basel"}, "Schlosslauf Rapperswil-Jona": {"race": "Schlosslauf Rapperswil-Jona", "longitude": 8.818437399999999, "latitude": 47.2266239, "date": {"dim. 19.10.2014": {"weekday": "sunday", "year": 2014, "categories": {"5-Men": {"pace": 220000000000, "rank": 8, "distance": 5, "time": 1190.2}}, "day": 19, "month": 10, "livingplace": "Orpund"}}, "location": "Rapperswil SG"}, "Bieler Lauftage, Biel Bienne": {"race": "Bieler Lauftage, Biel Bienne", "longitude": 7.2467909, "latitude": 47.1367785, "date": {"ven. 12.06.2009": {"weekday": "friday", "year": 2009, "categories": {"H/M30": {"pace": 257000000000, "rank": 5, "distance": 21, "time": 5442.5}}, "day": 12, "month": 6, "livingplace": "Orpund"}}, "location": "Biel/Bienne"}, "Hallwilerseelauf, Beinwil am See": {"race": "Hallwilerseelauf, Beinwil am See", "date": {"sam. 11.10.2014": {"weekday": "saturday", "year": 2014, "categories": {"10-Mann": {"pace": 210000000000, "rank": 8, "distance": 10, "time": 2101.0}}, "day": 11, "month": 10, "livingplace": "Orpund"}}, "location": "Beinwil am See"}, "ASICS Bremgarter Reusslauf": {"race": "ASICS Bremgarter Reusslauf", "longitude": 8.3397905, "latitude": 47.34917739999999, "date": {"sam. 28.02.2015": {"weekday": "saturday", "year": 2015, "categories": {"11-M30": {"pace": 229000000000, "rank": 52, "distance": 11, "time": 2523.1}}, "day": 28, "month": 2, "livingplace": "Orpund"}}, "location": "Bremgarten AG"}, "Lucerne Marathon, Luzern": {"race": "Lucerne Marathon, Luzern", "longitude": 8.3093072, "latitude": 47.05016819999999, "date": {"dim. 31.10.2010": {"weekday": "sunday", "year": 2010, "categories": {"H-M30": {"pace": 230000000000, "rank": 38, "distance": 21, "time": 4872.0}}, "day": 31, "month": 10, "livingplace": "Orpund"}, "dim. 30.10.2011": {"weekday": "sunday", "year": 2011, "categories": {"H-M30": {"pace": 228000000000, "rank": 26, "distance": 21, "time": 4829.1}}, "day": 30, "month": 10, "livingplace": "Orpund"}}, "location": "Luzern"}, "Morat-Fribourg": {"race": "Morat-Fribourg", "longitude": 7.120184, "latitude": 46.92922110000001, "date": {"sam. 04.10.2014": {"weekday": "saturday", "year": 2014, "categories": {"17-M20": {"pace": 245000000000, "rank": 138, "distance": 17, "time": 4218.2}}, "day": 4, "month": 10, "livingplace": "Orpund"}}, "location": "Murten"}, "20km de Lausanne": {"race": "20km de Lausanne", "longitude": 6.6322734, "latitude": 46.5196535, "date": {"sam. 24.04.2010": {"weekday": "saturday", "year": 2010, "categories": {"10-H30": {"pace": 218000000000, "rank": 10, "distance": 10, "time": 2188.3}}, "day": 24, "month": 4, "livingplace": "Orpund"}, "sam. 25.04.2009": {"weekday": "saturday", "year": 2009, "categories": {"10-H30": {"pace": 224000000000, "rank": 19, "distance": 10, "time": 2248.6}}, "day": 25, "month": 4, "livingplace": "Orpund"}}, "location": "Lausanne"}, "Willisauer Lauf, Willisau": {"race": "Willisauer Lauf, Willisau", "date": {"sam. 20.09.2014": {"weekday": "saturday", "year": 2014, "categories": {"H-M30": {"pace": 224000000000, "rank": 6, "distance": 12, "time": 2698.5}}, "day": 20, "month": 9, "livingplace": "Orpund"}}, "location": "Willisau"}, "Frauenfelder": {"race": "Frauenfelder", "date": {"dim. 16.11.2014": {"weekday": "sunday", "year": 2014, "categories": {"HM-M30": {"pace": 227000000000, "rank": 14, "distance": 21, "time": 4794.6}}, "day": 16, "month": 11, "livingplace": "Orpund"}}, "location": "Frauenfeld"}, "SwissCityMarathon - Lucerne, Luzern": {"race": "SwissCityMarathon - Lucerne, Luzern", "longitude": 8.3093072, "latitude": 47.05016819999999, "date": {"dim. 26.10.2014": {"weekday": "sunday", "year": 2014, "categories": {"H-M30": {"pace": 232000000000, "rank": 32, "distance": 21, "time": 4899.5}}, "day": 26, "month": 10, "livingplace": "Orpund"}}, "location": "Luzern"}, "Int  Bieler Cross, Biel-Bienne": {"race": "Int  Bieler Cross, Biel-Bienne", "longitude": 7.2467909, "latitude": 47.1367785, "date": {"dim. 09.11.2014": {"weekday": "sunday", "year": 2014, "categories": {"M30": {"pace": 222000000000, "rank": 5, "distance": 8, "time": 1783.2}}, "day": 9, "month": 11, "livingplace": "Orpund"}}, "location": "Biel/Bienne"}}, "name": "De Cristofano Salvatore", "birth": 1977}