{"sex": "M", "races": {"Tour du Chablais #3 Bex": {"race": "Tour du Chablais #3 Bex", "longitude": 7.0223787, "latitude": 46.1782231, "date": {"mer. 21.04.2010": {"weekday": "wednesday", "year": 2010, "categories": {"M-M20": {"pace": 323000000000, "rank": 180, "distance": 10, "time": 3231.7}}, "day": 21, "month": 4, "livingplace": "Muraz Collombey"}}, "location": "Evionnaz"}, "Tour du Chablais #1 Montreux": {"race": "Tour du Chablais #1 Montreux", "longitude": 6.9916269, "latitude": 46.2957462, "date": {"mer. 11.04.2012": {"weekday": "wednesday", "year": 2012, "categories": {"M-M20": {"pace": 345000000000, "rank": 203, "distance": 8, "time": 2622.5}}, "day": 11, "month": 4, "livingplace": "Muraz Collombey"}}, "location": "Ollon VD"}, "Tour du Chablais #3 Bouveret": {"race": "Tour du Chablais #3 Bouveret", "longitude": 7.0223787, "latitude": 46.1782231, "date": {"mer. 17.04.2013": {"weekday": "wednesday", "year": 2013, "categories": {"M-M20": {"pace": 304000000000, "rank": 162, "distance": 10, "time": 3045.1}}, "day": 17, "month": 4, "livingplace": "Muraz Collombey"}}, "location": "Evionnaz"}, "Tour du Chablais #1 Lavey": {"race": "Tour du Chablais #1 Lavey", "longitude": 6.9916269, "latitude": 46.2957462, "date": {"mer. 27.04.2011": {"weekday": "wednesday", "year": 2011, "categories": {"M-M20": {"pace": 324000000000, "rank": 220, "distance": 9, "time": 2921.9}}, "day": 27, "month": 4, "livingplace": "Muraz Collombey"}}, "location": "Ollon VD"}, "Tour du Chablais #6 Monthey": {"race": "Tour du Chablais #6 Monthey", "longitude": 6.970566, "latitude": 46.3190253, "date": {"mer. 08.05.2013": {"weekday": "wednesday", "year": 2013, "categories": {"M-M20": {"pace": 293000000000, "rank": 156, "distance": 9, "time": 2740.2}}, "day": 8, "month": 5, "livingplace": "Muraz Collombey"}}, "location": "Aigle"}, "Tour du Chablais #4 Champ\u00e9ry": {"race": "Tour du Chablais #4 Champ\u00e9ry", "date": {"mer. 02.05.2012": {"weekday": "wednesday", "year": 2012, "categories": {"M-M20": {"pace": 328000000000, "rank": 193, "distance": 8, "time": 2724.9}}, "day": 2, "month": 5, "livingplace": "Muraz Collombey"}}, "location": "Les Mosses"}, "Tour du Chablais #5 Morgins": {"race": "Tour du Chablais #5 Morgins", "longitude": 6.931504599999999, "latitude": 46.3603257, "date": {"mer. 01.05.2013": {"weekday": "wednesday", "year": 2013, "categories": {"M-M20": {"pace": 313000000000, "rank": 154, "distance": 8, "time": 2383.5}}, "day": 1, "month": 5, "livingplace": "Muraz Collombey"}}, "location": "Roche VD"}, "Tour du Chablais #1 Roche": {"race": "Tour du Chablais #1 Roche", "longitude": 6.9916269, "latitude": 46.2957462, "date": {"mer. 03.04.2013": {"weekday": "wednesday", "year": 2013, "categories": {"M-M20": {"pace": 295000000000, "rank": 160, "distance": 9, "time": 2621.0}}, "day": 3, "month": 4, "livingplace": "Muraz Collombey"}, "mer. 07.04.2010": {"weekday": "wednesday", "year": 2010, "categories": {"M-M20": {"pace": 310000000000, "rank": 184, "distance": 9, "time": 2777.1}}, "day": 7, "month": 4, "livingplace": "Muraz Collombey"}}, "location": "Ollon VD"}, "Tour du Chablais #4 St  Maurice": {"race": "Tour du Chablais #4 St  Maurice", "date": {"mer. 24.04.2013": {"weekday": "wednesday", "year": 2013, "categories": {"M-M20": {"pace": 292000000000, "rank": 148, "distance": 10, "time": 2929.6}}, "day": 24, "month": 4, "livingplace": "Muraz Collombey"}}, "location": "Les Mosses"}, "Tour du Chablais #2 Yvorne": {"race": "Tour du Chablais #2 Yvorne", "longitude": 6.854975199999999, "latitude": 46.3835529, "date": {"mer. 10.04.2013": {"weekday": "wednesday", "year": 2013, "categories": {"M-M20": {"pace": 329000000000, "rank": 184, "distance": 8, "time": 2634.3}}, "day": 10, "month": 4, "livingplace": "Muraz Collombey"}}, "location": "Bouveret"}, "Tour du Chablais #6 Mouthey": {"race": "Tour du Chablais #6 Mouthey", "longitude": 6.970566, "latitude": 46.3190253, "date": {"mer. 12.05.2010": {"weekday": "wednesday", "year": 2010, "categories": {"M-M20": {"pace": 289000000000, "rank": 169, "distance": 9, "time": 2665.5}}, "day": 12, "month": 5, "livingplace": "Muraz Collombey"}}, "location": "Aigle"}}, "name": "De Gol Philippe", "birth": 1986}