{"sex": "F", "races": {"Corrida Bulloise, Bulle": {"race": "Corrida Bulloise, Bulle", "longitude": 7.057726799999999, "latitude": 46.6154512, "date": {"sam. 19.11.2011": {"weekday": "saturday", "year": 2011, "categories": {"F40": {"pace": 310000000000, "rank": 56, "distance": 6, "time": 1909.8}}, "day": 19, "month": 11, "livingplace": "Blonay"}}, "location": "Bulle"}, "Tour du Chablais #4 Champ\u00e9ry": {"race": "Tour du Chablais #4 Champ\u00e9ry", "date": {"mer. 02.05.2012": {"weekday": "wednesday", "year": 2012, "categories": {"F-F40": {"pace": 297000000000, "rank": 16, "distance": 8, "time": 2466.5}}, "day": 2, "month": 5, "livingplace": "Blonay"}}, "location": "Les Mosses"}, "Tour du Chablais #6 Monthey": {"race": "Tour du Chablais #6 Monthey", "longitude": 6.970566, "latitude": 46.3190253, "date": {"mer. 08.05.2013": {"weekday": "wednesday", "year": 2013, "categories": {"F-F40": {"pace": 300000000000, "rank": 27, "distance": 9, "time": 2803.2}}, "day": 8, "month": 5, "livingplace": "Blonay"}}, "location": "Aigle"}, "Tour du Chablais #2 Yvorne": {"race": "Tour du Chablais #2 Yvorne", "longitude": 6.854975199999999, "latitude": 46.3835529, "date": {"mer. 10.04.2013": {"weekday": "wednesday", "year": 2013, "categories": {"F-F40": {"pace": 333000000000, "rank": 18, "distance": 8, "time": 2668.2}}, "day": 10, "month": 4, "livingplace": "Blonay"}}, "location": "Bouveret"}, "Tour du Chablais #2 Bex": {"race": "Tour du Chablais #2 Bex", "longitude": 6.854975199999999, "latitude": 46.3835529, "date": {"mer. 18.04.2012": {"weekday": "wednesday", "year": 2012, "categories": {"F-F40": {"pace": 306000000000, "rank": 18, "distance": 8, "time": 2449.4}}, "day": 18, "month": 4, "livingplace": "Blonay"}}, "location": "Bouveret"}, "Hallwilerseelauf, Beinwil am See": {"race": "Hallwilerseelauf, Beinwil am See", "date": {"sam. 15.10.2011": {"weekday": "saturday", "year": 2011, "categories": {"10-Frau": {"pace": 296000000000, "rank": 104, "distance": 10, "time": 2962.4}}, "day": 15, "month": 10, "livingplace": "Blonay"}}, "location": "Beinwil am See"}, "Tour du Chablais #1 Roche": {"race": "Tour du Chablais #1 Roche", "longitude": 6.9916269, "latitude": 46.2957462, "date": {"mer. 03.04.2013": {"weekday": "wednesday", "year": 2013, "categories": {"F-F40": {"pace": 294000000000, "rank": 19, "distance": 9, "time": 2610.0}}, "day": 3, "month": 4, "livingplace": "Blonay"}}, "location": "Ollon VD"}, "ASICS Bremgarter Reusslauf": {"race": "ASICS Bremgarter Reusslauf", "longitude": 8.3397905, "latitude": 47.34917739999999, "date": {"sam. 26.02.2011": {"weekday": "saturday", "year": 2011, "categories": {"F40": {"pace": 340000000000, "rank": 209, "distance": 11, "time": 3748.9}}, "day": 26, "month": 2, "livingplace": "Blonay"}}, "location": "Bremgarten AG"}, "Tour du Chablais #6 Montreux": {"race": "Tour du Chablais #6 Montreux", "longitude": 6.970566, "latitude": 46.3190253, "date": {"mer. 16.05.2012": {"weekday": "wednesday", "year": 2012, "categories": {"F-F40": {"pace": 289000000000, "rank": 15, "distance": 9, "time": 2677.2}}, "day": 16, "month": 5, "livingplace": "Blonay"}}, "location": "Aigle"}, "Tour du Chablais #6 Aigle": {"race": "Tour du Chablais #6 Aigle", "longitude": 6.970566, "latitude": 46.3190253, "date": {"mer. 01.06.2011": {"weekday": "wednesday", "year": 2011, "categories": {"F-F40": {"pace": 295000000000, "rank": 24, "distance": 10, "time": 3018.5}}, "day": 1, "month": 6, "livingplace": "Blonay"}}, "location": "Aigle"}, "Tour du Chablais #4 Morgins": {"race": "Tour du Chablais #4 Morgins", "date": {"mer. 18.05.2011": {"weekday": "wednesday", "year": 2011, "categories": {"F-F40": {"pace": 320000000000, "rank": 24, "distance": 8, "time": 2676.2}}, "day": 18, "month": 5, "livingplace": "Blonay"}}, "location": "Les Mosses"}, "Tour du Chablais #3 Bouveret": {"race": "Tour du Chablais #3 Bouveret", "longitude": 7.0223787, "latitude": 46.1782231, "date": {"mer. 17.04.2013": {"weekday": "wednesday", "year": 2013, "categories": {"F-F40": {"pace": 306000000000, "rank": 21, "distance": 10, "time": 3061.1}}, "day": 17, "month": 4, "livingplace": "Blonay"}}, "location": "Evionnaz"}, "Tour du Chablais #5 Les Mosses": {"race": "Tour du Chablais #5 Les Mosses", "longitude": 6.931504599999999, "latitude": 46.3603257, "date": {"mer. 25.05.2011": {"weekday": "wednesday", "year": 2011, "categories": {"F-F40": {"pace": 333000000000, "rank": 25, "distance": 8, "time": 2671.6}}, "day": 25, "month": 5, "livingplace": "Blonay"}}, "location": "Roche VD"}, "Tour du Chablais #5 Bex": {"race": "Tour du Chablais #5 Bex", "longitude": 6.931504599999999, "latitude": 46.3603257, "date": {"mer. 09.05.2012": {"weekday": "wednesday", "year": 2012, "categories": {"F-F40": {"pace": 295000000000, "rank": 15, "distance": 9, "time": 2617.0}}, "day": 9, "month": 5, "livingplace": "Blonay"}}, "location": "Roche VD"}, "Tour du Chablais #5 Morgins": {"race": "Tour du Chablais #5 Morgins", "longitude": 6.931504599999999, "latitude": 46.3603257, "date": {"mer. 01.05.2013": {"weekday": "wednesday", "year": 2013, "categories": {"F-F40": {"pace": 316000000000, "rank": 20, "distance": 8, "time": 2406.2}}, "day": 1, "month": 5, "livingplace": "Blonay"}}, "location": "Roche VD"}, "Tour du Chablais #3 Le Bouveret": {"race": "Tour du Chablais #3 Le Bouveret", "longitude": 7.0223787, "latitude": 46.1782231, "date": {"mer. 11.05.2011": {"weekday": "wednesday", "year": 2011, "categories": {"F-F40": {"pace": 306000000000, "rank": 23, "distance": 10, "time": 3068.2}}, "day": 11, "month": 5, "livingplace": "Blonay"}}, "location": "Evionnaz"}, "Tour du Chablais #1 Martigny": {"race": "Tour du Chablais #1 Martigny", "longitude": 6.9916269, "latitude": 46.2957462, "date": {"mer. 23.04.2014": {"weekday": "wednesday", "year": 2014, "categories": {"F-F50": {"pace": 320000000000, "rank": 13, "distance": 9, "time": 2725.8}}, "day": 23, "month": 4, "livingplace": "Blonay"}}, "location": "Ollon VD"}, "Tour du Chablais #3 Collombey-Muraz": {"race": "Tour du Chablais #3 Collombey-Muraz", "longitude": 7.0223787, "latitude": 46.1782231, "date": {"mer. 25.04.2012": {"weekday": "wednesday", "year": 2012, "categories": {"F-F40": {"pace": 292000000000, "rank": 16, "distance": 9, "time": 2630.9}}, "day": 25, "month": 4, "livingplace": "Blonay"}}, "location": "Evionnaz"}, "Tour du Chablais #4 St  Maurice": {"race": "Tour du Chablais #4 St  Maurice", "date": {"mer. 24.04.2013": {"weekday": "wednesday", "year": 2013, "categories": {"F-F40": {"pace": 304000000000, "rank": 21, "distance": 10, "time": 3049.8}}, "day": 24, "month": 4, "livingplace": "Blonay"}}, "location": "Les Mosses"}, "Tour du Chablais #2 Rennaz": {"race": "Tour du Chablais #2 Rennaz", "longitude": 6.854975199999999, "latitude": 46.3835529, "date": {"mer. 04.05.2011": {"weekday": "wednesday", "year": 2011, "categories": {"F-F40": {"pace": 305000000000, "rank": 24, "distance": 9, "time": 2859.8}}, "day": 4, "month": 5, "livingplace": "Blonay"}}, "location": "Bouveret"}}, "name": "Deladoey-Joye Mary-Claire", "birth": 1964}