{"sex": "M", "races": {"Tour du Chablais #5 Leysin": {"race": "Tour du Chablais #5 Leysin", "longitude": 6.931504599999999, "latitude": 46.3603257, "date": {"mer. 05.05.2010": {"weekday": "wednesday", "year": 2010, "categories": {"M-M20": {"pace": 296000000000, "rank": 85, "distance": 8, "time": 2503.6}}, "day": 5, "month": 5, "livingplace": "Haute Nendaz"}}, "location": "Roche VD"}, "Tour du Chablais #4 Yvorne": {"race": "Tour du Chablais #4 Yvorne", "date": {"mer. 28.04.2010": {"weekday": "wednesday", "year": 2010, "categories": {"M-M20": {"pace": 285000000000, "rank": 95, "distance": 8, "time": 2361.5}}, "day": 28, "month": 4, "livingplace": "Haute Nendaz"}}, "location": "Les Mosses"}, "Tour du Chablais #3 Bex": {"race": "Tour du Chablais #3 Bex", "longitude": 7.0223787, "latitude": 46.1782231, "date": {"mer. 21.04.2010": {"weekday": "wednesday", "year": 2010, "categories": {"M-M20": {"pace": 265000000000, "rank": 75, "distance": 10, "time": 2652.1}}, "day": 21, "month": 4, "livingplace": "Haute Nendaz"}}, "location": "Evionnaz"}, "Tour du Chablais #1 Roche": {"race": "Tour du Chablais #1 Roche", "longitude": 6.9916269, "latitude": 46.2957462, "date": {"mer. 07.04.2010": {"weekday": "wednesday", "year": 2010, "categories": {"M-M20": {"pace": 267000000000, "rank": 107, "distance": 9, "time": 2391.0}}, "day": 7, "month": 4, "livingplace": "Haute Nendaz"}}, "location": "Ollon VD"}, "Tour du Chablais #2 St-Gingolph": {"race": "Tour du Chablais #2 St-Gingolph", "longitude": 6.854975199999999, "latitude": 46.3835529, "date": {"mer. 14.04.2010": {"weekday": "wednesday", "year": 2010, "categories": {"M-M20": {"pace": 287000000000, "rank": 82, "distance": 8, "time": 2399.9}}, "day": 14, "month": 4, "livingplace": "Haute Nendaz"}}, "location": "Bouveret"}, "Tour du Chablais #6 Mouthey": {"race": "Tour du Chablais #6 Mouthey", "longitude": 6.970566, "latitude": 46.3190253, "date": {"mer. 12.05.2010": {"weekday": "wednesday", "year": 2010, "categories": {"M-M20": {"pace": 257000000000, "rank": 98, "distance": 9, "time": 2366.9}}, "day": 12, "month": 5, "livingplace": "Haute Nendaz"}}, "location": "Aigle"}}, "name": "Delhez Arnaud", "birth": 1985}