{"sex": "M", "races": {"BCN Tour #4 Fleurier": {"race": "BCN Tour #4 Fleurier", "longitude": 6.832783800000001, "latitude": 47.1034892, "date": {"mer. 15.05.2013": {"weekday": "wednesday", "year": 2013, "categories": {"HS2": {"pace": 280000000000, "rank": 70, "distance": 9, "time": 2422.4}}, "day": 15, "month": 5, "livingplace": "Neuchatel"}}, "location": "La Chaux-de-Fonds"}, "BCN Tour #3 Dombresson": {"race": "BCN Tour #3 Dombresson", "longitude": 6.733554799999999, "latitude": 46.999113, "date": {"mer. 08.05.2013": {"weekday": "wednesday", "year": 2013, "categories": {"HS2": {"pace": 266000000000, "rank": 76, "distance": 10, "time": 2642.2}}, "day": 8, "month": 5, "livingplace": "Neuchatel"}}, "location": "Les Ponts-de-Martel"}, "BCN Tour #1 Corcelles": {"race": "BCN Tour #1 Corcelles", "longitude": 6.8589727, "latitude": 46.9668714, "date": {"mer. 24.04.2013": {"weekday": "wednesday", "year": 2013, "categories": {"HS2": {"pace": 277000000000, "rank": 86, "distance": 10, "time": 2722.0}}, "day": 24, "month": 4, "livingplace": "Neuchatel"}}, "location": "Colombier NE"}, "BCN Tour La Chaux-de-Fonds": {"race": "BCN Tour La Chaux-de-Fonds", "longitude": 6.6324944, "latitude": 46.9262933, "date": {"mer. 23.05.2012": {"weekday": "wednesday", "year": 2012, "categories": {"HS2": {"pace": 293000000000, "rank": 105, "distance": 11, "time": 3164.7}}, "day": 23, "month": 5, "livingplace": "Neuchatel"}}, "location": "Couvet"}, "La Trotteuse-Tissot, La Chaux-de-Fonds": {"race": "La Trotteuse-Tissot, La Chaux-de-Fonds", "longitude": 6.832783800000001, "latitude": 47.1034892, "date": {"sam. 13.12.2014": {"weekday": "saturday", "year": 2014, "categories": {"GC-H40": {"pace": 270000000000, "rank": 67, "distance": 8, "time": 2161.0}}, "day": 13, "month": 12, "livingplace": "Les Zouzous"}}, "location": "La Chaux-de-Fonds"}, "Morat-Fribourg": {"race": "Morat-Fribourg", "longitude": 7.120184, "latitude": 46.92922110000001, "date": {"sam. 04.10.2014": {"weekday": "saturday", "year": 2014, "categories": {"17-M45": {"pace": 298000000000, "rank": 232, "distance": 17, "time": 5123.3}}, "day": 4, "month": 10, "livingplace": "Neuchatel"}}, "location": "Murten"}, "Kerzerslauf": {"race": "Kerzerslauf", "longitude": 7.1954365, "latitude": 46.97488999999999, "date": {"sam. 15.03.2014": {"weekday": "saturday", "year": 2014, "categories": {"15-M45": {"pace": 266000000000, "rank": 150, "distance": 15, "time": 3997.2}}, "day": 15, "month": 3, "livingplace": "Neuchatel"}, "sam. 21.03.2015": {"weekday": "saturday", "year": 2015, "categories": {"15-M45": {"pace": 271000000000, "rank": 161, "distance": 15, "time": 4072.5}}, "day": 21, "month": 3, "livingplace": "Neuchatel"}}, "location": "Kerzers"}, "BCN Tour Couvet": {"race": "BCN Tour Couvet", "longitude": 6.9175754, "latitude": 47.0624261, "date": {"mer. 02.05.2012": {"weekday": "wednesday", "year": 2012, "categories": {"HS2": {"pace": 296000000000, "rank": 103, "distance": 11, "time": 3302.0}}, "day": 2, "month": 5, "livingplace": "Neuchatel"}}, "location": "Ch\u00e9zard-St-Martin"}, "BCN Tour #2 La Chaux-de-Fonds": {"race": "BCN Tour #2 La Chaux-de-Fonds", "longitude": 6.9175754, "latitude": 47.0624261, "date": {"mer. 01.05.2013": {"weekday": "wednesday", "year": 2013, "categories": {"HS2": {"pace": 272000000000, "rank": 92, "distance": 11, "time": 2917.4}}, "day": 1, "month": 5, "livingplace": "Neuchatel"}}, "location": "Ch\u00e9zard-St-Martin"}, "BCN Tour Cornaux": {"race": "BCN Tour Cornaux", "longitude": 6.8589727, "latitude": 46.9668714, "date": {"mer. 25.04.2012": {"weekday": "wednesday", "year": 2012, "categories": {"HS2": {"pace": 315000000000, "rank": 88, "distance": 11, "time": 3467.8}}, "day": 25, "month": 4, "livingplace": "Neuchatel"}}, "location": "Colombier NE"}, "BCN Tour #5 Colombier": {"race": "BCN Tour #5 Colombier", "longitude": 6.6324944, "latitude": 46.9262933, "date": {"mer. 22.05.2013": {"weekday": "wednesday", "year": 2013, "categories": {"HS2": {"pace": 266000000000, "rank": 111, "distance": 11, "time": 2802.8}}, "day": 22, "month": 5, "livingplace": "Neuchatel"}}, "location": "Couvet"}, "BCN Tour Neuch\u00e2tel": {"race": "BCN Tour Neuch\u00e2tel", "longitude": 6.9292732, "latitude": 46.9899874, "date": {"mer. 30.05.2012": {"weekday": "wednesday", "year": 2012, "categories": {"HS2": {"pace": 301000000000, "rank": 97, "distance": 11, "time": 3371.2}}, "day": 30, "month": 5, "livingplace": "Neuchatel"}}, "location": "Neuch\u00e2tel"}, "BCN Tour #6 Neuch\u00e2tel": {"race": "BCN Tour #6 Neuch\u00e2tel", "longitude": 6.9292732, "latitude": 46.9899874, "date": {"mer. 29.05.2013": {"weekday": "wednesday", "year": 2013, "categories": {"HS2": {"pace": 286000000000, "rank": 85, "distance": 11, "time": 3154.7}}, "day": 29, "month": 5, "livingplace": "Neuchatel"}}, "location": "Neuch\u00e2tel"}, "BCN Tour Les Ponts-de-Martel": {"race": "BCN Tour Les Ponts-de-Martel", "longitude": 6.733554799999999, "latitude": 46.999113, "date": {"mer. 09.05.2012": {"weekday": "wednesday", "year": 2012, "categories": {"HS2": {"pace": 296000000000, "rank": 109, "distance": 10, "time": 3058.7}}, "day": 9, "month": 5, "livingplace": "Neuchatel"}}, "location": "Les Ponts-de-Martel"}, "BCN Tour Colombier": {"race": "BCN Tour Colombier", "longitude": 6.832783800000001, "latitude": 47.1034892, "date": {"mer. 16.05.2012": {"weekday": "wednesday", "year": 2012, "categories": {"HS2": {"pace": 287000000000, "rank": 108, "distance": 11, "time": 3104.3}}, "day": 16, "month": 5, "livingplace": "Neuchatel"}}, "location": "La Chaux-de-Fonds"}, "Aletsch-Halbmarathon, Bettmeralp": {"race": "Aletsch-Halbmarathon, Bettmeralp", "date": {"dim. 28.06.2015": {"weekday": "sunday", "year": 2015, "categories": {"M45": {"pace": 508000000000, "rank": 166, "distance": 21, "time": 10722.7}}, "day": 28, "month": 6, "livingplace": "Neuchatel"}}, "location": "Bettmeralp"}}, "name": "Deneux Didier", "birth": 1966}