{"sex": "F", "races": {"Tour du Chablais #2 Rennaz": {"race": "Tour du Chablais #2 Rennaz", "longitude": 6.854975199999999, "latitude": 46.3835529, "date": {"mer. 04.05.2011": {"weekday": "wednesday", "year": 2011, "categories": {"F-F20": {"pace": 276000000000, "rank": 9, "distance": 9, "time": 2589.3}}, "day": 4, "month": 5, "livingplace": "Chardonne"}}, "location": "Bouveret"}, "Tour du Chablais #1 Montreux": {"race": "Tour du Chablais #1 Montreux", "longitude": 6.9916269, "latitude": 46.2957462, "date": {"mer. 11.04.2012": {"weekday": "wednesday", "year": 2012, "categories": {"F-F20": {"pace": 296000000000, "rank": 20, "distance": 8, "time": 2256.0}}, "day": 11, "month": 4, "livingplace": "La Tour de Peilz"}}, "location": "Ollon VD"}, "Tour du Chablais #4 Morgins": {"race": "Tour du Chablais #4 Morgins", "date": {"mer. 18.05.2011": {"weekday": "wednesday", "year": 2011, "categories": {"F-F20": {"pace": 287000000000, "rank": 12, "distance": 8, "time": 2396.9}}, "day": 18, "month": 5, "livingplace": "Chardonne"}}, "location": "Les Mosses"}, "Tour du Chablais #2 Bex": {"race": "Tour du Chablais #2 Bex", "longitude": 6.854975199999999, "latitude": 46.3835529, "date": {"mer. 18.04.2012": {"weekday": "wednesday", "year": 2012, "categories": {"F-F20": {"pace": 289000000000, "rank": 24, "distance": 8, "time": 2319.3}}, "day": 18, "month": 4, "livingplace": "La Tour de Peilz"}}, "location": "Bouveret"}, "Tour du Pays de Vaud etape 1 - Le Mont sur Lausanne": {"race": "Tour du Pays de Vaud etape 1 - Le Mont sur Lausanne", "longitude": 6.641183, "latitude": 46.7784736, "date": {"mer. 13.08.2008": {"weekday": "wednesday", "year": 2008, "categories": {"DamSen1": {"pace": 287000000000, "rank": 10, "distance": 8, "time": 2412.5}}, "day": 13, "month": 8, "livingplace": "Chardonne"}}, "location": "Yverdon-les-Bains"}, "Tour du Chablais #3 Bouveret": {"race": "Tour du Chablais #3 Bouveret", "longitude": 7.0223787, "latitude": 46.1782231, "date": {"mer. 17.04.2013": {"weekday": "wednesday", "year": 2013, "categories": {"F-F20": {"pace": 292000000000, "rank": 27, "distance": 10, "time": 2924.8}}, "day": 17, "month": 4, "livingplace": "Semsales"}}, "location": "Evionnaz"}, "Tour du Chablais #6 Aigle": {"race": "Tour du Chablais #6 Aigle", "longitude": 6.970566, "latitude": 46.3190253, "date": {"mer. 01.06.2011": {"weekday": "wednesday", "year": 2011, "categories": {"F-F20": {"pace": 265000000000, "rank": 16, "distance": 10, "time": 2711.5}}, "day": 1, "month": 6, "livingplace": "Chardonne"}}, "location": "Aigle"}, "20km de Lausanne": {"race": "20km de Lausanne", "longitude": 6.6322734, "latitude": 46.5196535, "date": {"sam. 24.04.2010": {"weekday": "saturday", "year": 2010, "categories": {"10-F30": {"pace": 314000000000, "rank": 72, "distance": 10, "time": 3146.0}}, "day": 24, "month": 4, "livingplace": "Cham"}, "sam. 25.04.2009": {"weekday": "saturday", "year": 2009, "categories": {"10-F30": {"pace": 296000000000, "rank": 41, "distance": 10, "time": 2963.7}}, "day": 25, "month": 4, "livingplace": "Cham"}, "sam. 30.04.2011": {"weekday": "saturday", "year": 2011, "categories": {"10-F30": {"pace": 277000000000, "rank": 19, "distance": 10, "time": 2777.1}}, "day": 30, "month": 4, "livingplace": "Cham"}}, "location": "Lausanne"}, "Tour du Chablais #6 Mouthey": {"race": "Tour du Chablais #6 Mouthey", "longitude": 6.970566, "latitude": 46.3190253, "date": {"mer. 12.05.2010": {"weekday": "wednesday", "year": 2010, "categories": {"F-F20": {"pace": 284000000000, "rank": 23, "distance": 9, "time": 2618.5}}, "day": 12, "month": 5, "livingplace": "Chardonne"}}, "location": "Aigle"}, "Tour du Pays de Vaud etape 5 - La Sarraz": {"race": "Tour du Pays de Vaud etape 5 - La Sarraz", "longitude": 6.539251200000001, "latitude": 46.5993131, "date": {"mer. 10.09.2008": {"weekday": "wednesday", "year": 2008, "categories": {"DamSen1": {"pace": 280000000000, "rank": 12, "distance": 9, "time": 2415.5}}, "day": 10, "month": 9, "livingplace": "Chardonne"}}, "location": "Penthaz"}, "Tour du Pays de Vaud etape 3 - Aubonne": {"race": "Tour du Pays de Vaud etape 3 - Aubonne", "longitude": 6.5728678, "latitude": 46.7829756, "date": {"mer. 27.08.2008": {"weekday": "wednesday", "year": 2008, "categories": {"DamSen1": {"pace": 312000000000, "rank": 10, "distance": 8, "time": 2433.7}}, "day": 27, "month": 8, "livingplace": "Chardonne"}}, "location": "Champvent"}, "Tour du Chablais #1 Lavey": {"race": "Tour du Chablais #1 Lavey", "longitude": 6.9916269, "latitude": 46.2957462, "date": {"mer. 27.04.2011": {"weekday": "wednesday", "year": 2011, "categories": {"F-F20": {"pace": 275000000000, "rank": 12, "distance": 9, "time": 2480.1}}, "day": 27, "month": 4, "livingplace": "Chardonne"}}, "location": "Ollon VD"}, "Les Traine-Savates, Cheseaux-sur-Lausanne": {"race": "Les Traine-Savates, Cheseaux-sur-Lausanne", "longitude": 6.6047712, "latitude": 46.585452, "date": {"sam. 09.04.2011": {"weekday": "saturday", "year": 2011, "categories": {"10-W20": {"pace": 289000000000, "rank": 24, "distance": 10, "time": 3015.9}}, "day": 9, "month": 4, "livingplace": "Chardonne"}}, "location": "Cheseaux-sur-Lausanne"}, "Tour du Pays de Vaud #3 - Mezi\u00e8res": {"race": "Tour du Pays de Vaud #3 - Mezi\u00e8res", "longitude": 6.641183, "latitude": 46.7784736, "date": {"mer. 22.08.2012": {"weekday": "wednesday", "year": 2012, "categories": {"D-Sen1": {"pace": 322000000000, "rank": 14, "distance": 8, "time": 2711.9}}, "day": 22, "month": 8, "livingplace": "La Tour de Peilz"}}, "location": "Yverdon-les-Bains"}, "Tour du pays de Vaud #1 - Penthaz": {"race": "Tour du pays de Vaud #1 - Penthaz", "longitude": 6.539251200000001, "latitude": 46.5993131, "date": {"mer. 08.08.2012": {"weekday": "wednesday", "year": 2012, "categories": {"D-Sen1": {"pace": 305000000000, "rank": 24, "distance": 9, "time": 2605.9}}, "day": 8, "month": 8, "livingplace": "La Tour de Peilz"}}, "location": "Penthaz"}, "Tour du pays de Vaud #5 - Penthaz": {"race": "Tour du pays de Vaud #5 - Penthaz", "longitude": 6.539251200000001, "latitude": 46.5993131, "date": {"mer. 07.09.2011": {"weekday": "wednesday", "year": 2011, "categories": {"D-Sen1": {"pace": 306000000000, "rank": 9, "distance": 8, "time": 2556.7}}, "day": 7, "month": 9, "livingplace": "La Tour de Peilz"}}, "location": "Penthaz"}, "Tour du Pays de Vaud etape 2 - Genolier": {"race": "Tour du Pays de Vaud etape 2 - Genolier", "longitude": 6.7702883, "latitude": 46.5955273, "date": {"mer. 20.08.2008": {"weekday": "wednesday", "year": 2008, "categories": {"DamSen1": {"pace": 283000000000, "rank": 9, "distance": 8, "time": 2353.3}}, "day": 20, "month": 8, "livingplace": "Chardonne"}}, "location": "M\u00e9zi\u00e8res VD"}, "Tour du Pays de Vaud #2 - Genolier": {"race": "Tour du Pays de Vaud #2 - Genolier", "longitude": 6.7702883, "latitude": 46.5955273, "date": {"mer. 15.08.2012": {"weekday": "wednesday", "year": 2012, "categories": {"D-Sen1": {"pace": 298000000000, "rank": 17, "distance": 9, "time": 2540.1}}, "day": 15, "month": 8, "livingplace": "La Tour de Peilz"}, "mer. 17.08.2011": {"weekday": "wednesday", "year": 2011, "categories": {"D-Sen1": {"pace": 284000000000, "rank": 10, "distance": 9, "time": 2416.4}}, "day": 17, "month": 8, "livingplace": "La Tour de Peilz"}}, "location": "M\u00e9zi\u00e8res VD"}}, "name": "Denoix Sonia", "birth": 1977}