{"sex": "M", "races": {"Tour du Chablais #6 Montreux": {"race": "Tour du Chablais #6 Montreux", "longitude": 6.970566, "latitude": 46.3190253, "date": {"mer. 16.05.2012": {"weekday": "wednesday", "year": 2012, "categories": {"M-M20": {"pace": 349000000000, "rank": 225, "distance": 9, "time": 3228.7}}, "day": 16, "month": 5, "livingplace": "St Maurice"}}, "location": "Aigle"}, "Tour du Chablais #2 Yvorne": {"race": "Tour du Chablais #2 Yvorne", "longitude": 6.854975199999999, "latitude": 46.3835529, "date": {"mer. 10.04.2013": {"weekday": "wednesday", "year": 2013, "categories": {"M-M20": {"pace": 381000000000, "rank": 229, "distance": 8, "time": 3054.1}}, "day": 10, "month": 4, "livingplace": "St Maurice"}}, "location": "Bouveret"}, "Tour du Chablais #6 Monthey": {"race": "Tour du Chablais #6 Monthey", "longitude": 6.970566, "latitude": 46.3190253, "date": {"mer. 08.05.2013": {"weekday": "wednesday", "year": 2013, "categories": {"M-M20": {"pace": 317000000000, "rank": 193, "distance": 9, "time": 2962.4}}, "day": 8, "month": 5, "livingplace": "St Maurice"}}, "location": "Aigle"}, "Tour du Chablais #3 Bouveret": {"race": "Tour du Chablais #3 Bouveret", "longitude": 7.0223787, "latitude": 46.1782231, "date": {"mer. 17.04.2013": {"weekday": "wednesday", "year": 2013, "categories": {"M-M20": {"pace": 343000000000, "rank": 202, "distance": 10, "time": 3433.7}}, "day": 17, "month": 4, "livingplace": "St Maurice"}}, "location": "Evionnaz"}, "Tour du Chablais #1 Roche": {"race": "Tour du Chablais #1 Roche", "longitude": 6.9916269, "latitude": 46.2957462, "date": {"mer. 03.04.2013": {"weekday": "wednesday", "year": 2013, "categories": {"M-M20": {"pace": 345000000000, "rank": 214, "distance": 9, "time": 3063.4}}, "day": 3, "month": 4, "livingplace": "St Maurice"}}, "location": "Ollon VD"}, "Tour du Chablais #3 Collombey-Muraz": {"race": "Tour du Chablais #3 Collombey-Muraz", "longitude": 7.0223787, "latitude": 46.1782231, "date": {"mer. 25.04.2012": {"weekday": "wednesday", "year": 2012, "categories": {"M-M20": {"pace": 352000000000, "rank": 199, "distance": 9, "time": 3165.8}}, "day": 25, "month": 4, "livingplace": "St Maurice"}}, "location": "Evionnaz"}, "Morat-Fribourg": {"race": "Morat-Fribourg", "longitude": 7.120184, "latitude": 46.92922110000001, "date": {"sam. 04.10.2014": {"weekday": "saturday", "year": 2014, "categories": {"17-M20": {"pace": 368000000000, "rank": 2011, "distance": 17, "time": 6324.5}}, "day": 4, "month": 10, "livingplace": "St Maurice"}, "sam. 05.10.2013": {"weekday": "saturday", "year": 2013, "categories": {"17-M20": {"pace": 395000000000, "rank": 2300, "distance": 17, "time": 6905.2}}, "day": 5, "month": 10, "livingplace": "St Maurice"}}, "location": "Murten"}, "20km de Lausanne": {"race": "20km de Lausanne", "longitude": 6.6322734, "latitude": 46.5196535, "date": {"sam. 27.04.2013": {"weekday": "saturday", "year": 2013, "categories": {"10-H30": {"pace": 343000000000, "rank": 966, "distance": 10, "time": 3431.1}}, "day": 27, "month": 4, "livingplace": "St Maurice"}, "sam. 26.04.2014": {"weekday": "saturday", "year": 2014, "categories": {"10-H30": {"pace": 321000000000, "rank": 665, "distance": 10, "time": 3218.6}}, "day": 26, "month": 4, "livingplace": "St Maurice"}}, "location": "Lausanne"}, "Tour du Chablais #1 Lavey": {"race": "Tour du Chablais #1 Lavey", "longitude": 6.9916269, "latitude": 46.2957462, "date": {"mer. 27.04.2011": {"weekday": "wednesday", "year": 2011, "categories": {"M-M20": {"pace": 376000000000, "rank": 245, "distance": 9, "time": 3392.3}}, "day": 27, "month": 4, "livingplace": "St Maurice"}}, "location": "Ollon VD"}, "Tour du Chablais #4 St  Maurice": {"race": "Tour du Chablais #4 St  Maurice", "date": {"mer. 24.04.2013": {"weekday": "wednesday", "year": 2013, "categories": {"M-M20": {"pace": 342000000000, "rank": 213, "distance": 10, "time": 3421.4}}, "day": 24, "month": 4, "livingplace": "St Maurice"}}, "location": "Les Mosses"}, "Tour du Pays de Vaud #2, Mezi\u00e8res": {"race": "Tour du Pays de Vaud #2, Mezi\u00e8res", "longitude": 6.7702883, "latitude": 46.5955273, "date": {"mer. 20.08.2014": {"weekday": "wednesday", "year": 2014, "categories": {"H-Sen1": {"pace": 394000000000, "rank": 132, "distance": 8, "time": 3195.4}}, "day": 20, "month": 8, "livingplace": "St Maurice"}}, "location": "M\u00e9zi\u00e8res VD"}, "Tour du Chablais #2 Rennaz": {"race": "Tour du Chablais #2 Rennaz", "longitude": 6.854975199999999, "latitude": 46.3835529, "date": {"mer. 04.05.2011": {"weekday": "wednesday", "year": 2011, "categories": {"M-M20": {"pace": 367000000000, "rank": 242, "distance": 9, "time": 3432.3}}, "day": 4, "month": 5, "livingplace": "St Maurice"}}, "location": "Bouveret"}}, "name": "Derivaz S\u00e9bastien", "birth": 1975}