{"sex": "M", "races": {"Course de l'Escalade, Gen\u00e8ve": {"race": "Course de l'Escalade, Gen\u00e8ve", "longitude": 6.1431577, "latitude": 46.2043907, "date": {"sam. 03.12.2011": {"weekday": "saturday", "year": 2011, "categories": {"H-H2": {"pace": 278000000000, "rank": 542, "distance": 7, "time": 2020.2}}, "day": 3, "month": 12, "livingplace": "Epesses"}}, "location": "Gen\u00e8ve"}, "Tour du Pays de Vaud etape 2 - Genolier": {"race": "Tour du Pays de Vaud etape 2 - Genolier", "longitude": 6.7702883, "latitude": 46.5955273, "date": {"mer. 20.08.2008": {"weekday": "wednesday", "year": 2008, "categories": {"Hom": {"pace": 250000000000, "rank": 19, "distance": 8, "time": 2076.2}}, "day": 20, "month": 8, "livingplace": "Epesses"}}, "location": "M\u00e9zi\u00e8res VD"}, "Tour du Pays de Vaud printanier #3 - Yens": {"race": "Tour du Pays de Vaud printanier #3 - Yens", "longitude": 6.5728678, "latitude": 46.7829756, "date": {"mer. 18.06.2014": {"weekday": "wednesday", "year": 2014, "categories": {"H-Sen1": {"pace": 248000000000, "rank": 22, "distance": 9, "time": 2265.8}}, "day": 18, "month": 6, "livingplace": "Savigny"}}, "location": "Champvent"}, "Tour du Pays de Vaud etape 1 - Le Mont sur Lausanne": {"race": "Tour du Pays de Vaud etape 1 - Le Mont sur Lausanne", "longitude": 6.641183, "latitude": 46.7784736, "date": {"mer. 13.08.2008": {"weekday": "wednesday", "year": 2008, "categories": {"Hom": {"pace": 252000000000, "rank": 14, "distance": 8, "time": 2125.0}}, "day": 13, "month": 8, "livingplace": "Epesses"}}, "location": "Yverdon-les-Bains"}, "Morat-Fribourg": {"race": "Morat-Fribourg", "longitude": 7.120184, "latitude": 46.92922110000001, "date": {"sam. 03.10.2009": {"weekday": "saturday", "year": 2009, "categories": {"C-M20": {"pace": 277000000000, "rank": 494, "distance": 17, "time": 4764.9}}, "day": 3, "month": 10, "livingplace": "Epesses"}}, "location": "Murten"}, "Montreux - Les Rochers de Naye": {"race": "Montreux - Les Rochers de Naye", "longitude": 6.9106799, "latitude": 46.4312213, "date": {"dim. 05.07.2015": {"weekday": "sunday", "year": 2015, "categories": {"M-HElite": {"pace": 403000000000, "rank": 43, "distance": 19, "time": 7578.6}}, "day": 5, "month": 7, "livingplace": "Savigny"}}, "location": "Montreux"}, "20km de Lausanne": {"race": "20km de Lausanne", "longitude": 6.6322734, "latitude": 46.5196535, "date": {"sam. 25.04.2015": {"weekday": "saturday", "year": 2015, "categories": {"20-H30": {"pace": 241000000000, "rank": 67, "distance": 20, "time": 4835.9}}, "day": 25, "month": 4, "livingplace": "Savigny"}}, "location": "Lausanne"}, "Lausanne Marathon": {"race": "Lausanne Marathon", "longitude": 6.6322734, "latitude": 46.5196535, "date": {"dim. 26.10.2014": {"weekday": "sunday", "year": 2014, "categories": {"10-H30": {"pace": 229000000000, "rank": 40, "distance": 10, "time": 2293.7}}, "day": 26, "month": 10, "livingplace": "Savigny"}}, "location": "Lausanne"}, "Engadiner Sommerlauf, Samedan": {"race": "Engadiner Sommerlauf, Samedan", "date": {"dim. 23.08.2009": {"weekday": "sunday", "year": 2009, "categories": {"S/HK": {"pace": 289000000000, "rank": 15, "distance": 27, "time": 7820.8}}, "day": 23, "month": 8, "livingplace": "Epesses"}}, "location": "Bever"}, "Tour du Pays de Vaud etape 3 - Aubonne": {"race": "Tour du Pays de Vaud etape 3 - Aubonne", "longitude": 6.5728678, "latitude": 46.7829756, "date": {"mer. 27.08.2008": {"weekday": "wednesday", "year": 2008, "categories": {"Hom": {"pace": 272000000000, "rank": 20, "distance": 8, "time": 2128.5}}, "day": 27, "month": 8, "livingplace": "Epesses"}}, "location": "Champvent"}, "Tour du Pays de Vaud #1, Penthaz": {"race": "Tour du Pays de Vaud #1, Penthaz", "longitude": 6.539251200000001, "latitude": 46.5993131, "date": {"mer. 13.08.2014": {"weekday": "wednesday", "year": 2014, "categories": {"H-Sen1": {"pace": 243000000000, "rank": 26, "distance": 9, "time": 2079.3}}, "day": 13, "month": 8, "livingplace": "Savigny"}}, "location": "Penthaz"}, "Tour du Pays de Vaud printanier #1 Moudon": {"race": "Tour du Pays de Vaud printanier #1 Moudon", "longitude": 6.2347852, "latitude": 46.3832683, "date": {"mer. 04.06.2014": {"weekday": "wednesday", "year": 2014, "categories": {"H-Sen1": {"pace": 258000000000, "rank": 30, "distance": 8, "time": 2174.4}}, "day": 4, "month": 6, "livingplace": "Savigny"}}, "location": "Nyon"}, "Sierre-Zinal, Sierre": {"race": "Sierre-Zinal, Sierre", "longitude": 7.533536199999999, "latitude": 46.29413110000001, "date": {"dim. 10.08.2014": {"weekday": "sunday", "year": 2014, "categories": {"ElitesHo": {"pace": 451000000000, "rank": 216, "distance": 31, "time": 13998.8}}, "day": 10, "month": 8, "livingplace": "Savigny"}}, "location": "Sierre"}, "Tour du Pays de Vaud etape 5 - La Sarraz": {"race": "Tour du Pays de Vaud etape 5 - La Sarraz", "longitude": 6.539251200000001, "latitude": 46.5993131, "date": {"mer. 09.09.2009": {"weekday": "wednesday", "year": 2009, "categories": {"Hom": {"pace": 248000000000, "rank": 23, "distance": 9, "time": 2087.8}}, "day": 9, "month": 9, "livingplace": "Epesses"}, "mer. 10.09.2008": {"weekday": "wednesday", "year": 2008, "categories": {"Hom": {"pace": 240000000000, "rank": 14, "distance": 9, "time": 2064.5}}, "day": 10, "month": 9, "livingplace": "Epesses"}}, "location": "Penthaz"}, "Tour du Pays de Vaud #2, Mezi\u00e8res": {"race": "Tour du Pays de Vaud #2, Mezi\u00e8res", "longitude": 6.7702883, "latitude": 46.5955273, "date": {"mer. 20.08.2014": {"weekday": "wednesday", "year": 2014, "categories": {"H-Sen1": {"pace": 264000000000, "rank": 21, "distance": 8, "time": 2145.8}}, "day": 20, "month": 8, "livingplace": "Savigny"}}, "location": "M\u00e9zi\u00e8res VD"}, "Tour du Pays de Vaud printanier #2 Yverdon-les-Bains": {"race": "Tour du Pays de Vaud printanier #2 Yverdon-les-Bains", "longitude": 6.7975224, "latitude": 46.6698891, "date": {"mer. 11.06.2014": {"weekday": "wednesday", "year": 2014, "categories": {"H-Sen1": {"pace": 272000000000, "rank": 19, "distance": 9, "time": 2483.2}}, "day": 11, "month": 6, "livingplace": "Savigny"}}, "location": "Moudon"}, "Tour du Pays de Vaud #4, La Sarraz": {"race": "Tour du Pays de Vaud #4, La Sarraz", "longitude": 6.5707689, "latitude": 46.7088129, "date": {"mer. 03.09.2014": {"weekday": "wednesday", "year": 2014, "categories": {"H-Sen1": {"pace": 239000000000, "rank": 17, "distance": 9, "time": 2036.9}}, "day": 3, "month": 9, "livingplace": "Savigny"}}, "location": "Chavornay"}, "Tour du Pays de Vaud #3, Chavornay": {"race": "Tour du Pays de Vaud #3, Chavornay", "longitude": 6.641183, "latitude": 46.7784736, "date": {"mer. 27.08.2014": {"weekday": "wednesday", "year": 2014, "categories": {"H-Sen1": {"pace": 249000000000, "rank": 14, "distance": 9, "time": 2145.4}}, "day": 27, "month": 8, "livingplace": "Savigny"}}, "location": "Yverdon-les-Bains"}}, "name": "Desarzens Gregory", "birth": 1981}