{"sex": "M", "races": {"Tour du Chablais #3 Bouveret": {"race": "Tour du Chablais #3 Bouveret", "longitude": 7.0223787, "latitude": 46.1782231, "date": {"mer. 17.04.2013": {"weekday": "wednesday", "year": 2013, "categories": {"M-M50": {"pace": 290000000000, "rank": 42, "distance": 10, "time": 2903.4}}, "day": 17, "month": 4, "livingplace": "Massongex"}}, "location": "Evionnaz"}, "SwissCityMarathon - Lucerne, Luzern": {"race": "SwissCityMarathon - Lucerne, Luzern", "longitude": 8.3093072, "latitude": 47.05016819999999, "date": {"dim. 26.10.2014": {"weekday": "sunday", "year": 2014, "categories": {"M-M50": {"pace": 348000000000, "rank": 154, "distance": 42, "time": 14724.3}}, "day": 26, "month": 10, "livingplace": "Massongex"}}, "location": "Luzern"}, "Tour du Chablais #5 Morgins": {"race": "Tour du Chablais #5 Morgins", "longitude": 6.931504599999999, "latitude": 46.3603257, "date": {"mer. 01.05.2013": {"weekday": "wednesday", "year": 2013, "categories": {"M-M50": {"pace": 306000000000, "rank": 34, "distance": 8, "time": 2329.5}}, "day": 1, "month": 5, "livingplace": "Massongex"}}, "location": "Roche VD"}, "Tour du Chablais #1 Roche": {"race": "Tour du Chablais #1 Roche", "longitude": 6.9916269, "latitude": 46.2957462, "date": {"mer. 03.04.2013": {"weekday": "wednesday", "year": 2013, "categories": {"M-M50": {"pace": 297000000000, "rank": 60, "distance": 9, "time": 2640.2}}, "day": 3, "month": 4, "livingplace": "Massongex"}}, "location": "Ollon VD"}, "Tour du Chablais #1 Martigny": {"race": "Tour du Chablais #1 Martigny", "longitude": 6.9916269, "latitude": 46.2957462, "date": {"mer. 23.04.2014": {"weekday": "wednesday", "year": 2014, "categories": {"M-M50": {"pace": 271000000000, "rank": 37, "distance": 9, "time": 2304.0}}, "day": 23, "month": 4, "livingplace": "Massongex"}}, "location": "Ollon VD"}, "Morat-Fribourg": {"race": "Morat-Fribourg", "longitude": 7.120184, "latitude": 46.92922110000001, "date": {"sam. 04.10.2014": {"weekday": "saturday", "year": 2014, "categories": {"17-M50": {"pace": 303000000000, "rank": 164, "distance": 17, "time": 5208.3}}, "day": 4, "month": 10, "livingplace": "Massongex"}, "sam. 05.10.2013": {"weekday": "saturday", "year": 2013, "categories": {"17-M50": {"pace": 330000000000, "rank": 346, "distance": 17, "time": 5761.6}}, "day": 5, "month": 10, "livingplace": "Massongex"}}, "location": "Murten"}, "Tour du Chablais #4 St  Maurice": {"race": "Tour du Chablais #4 St  Maurice", "date": {"mer. 24.04.2013": {"weekday": "wednesday", "year": 2013, "categories": {"M-M50": {"pace": 296000000000, "rank": 44, "distance": 10, "time": 2962.7}}, "day": 24, "month": 4, "livingplace": "Massongex"}}, "location": "Les Mosses"}, "20km de Lausanne": {"race": "20km de Lausanne", "longitude": 6.6322734, "latitude": 46.5196535, "date": {"sam. 25.04.2015": {"weekday": "saturday", "year": 2015, "categories": {"10-H50": {"pace": 359000000000, "rank": 303, "distance": 10, "time": 3597.2}}, "day": 25, "month": 4, "livingplace": "Famille Devanthery"}, "sam. 26.04.2014": {"weekday": "saturday", "year": 2014, "categories": {"20-H50": {"pace": 279000000000, "rank": 60, "distance": 20, "time": 5589.0}}, "day": 26, "month": 4, "livingplace": "Monthey"}}, "location": "Lausanne"}}, "name": "Devanth\u00e9ry Pierre-Emile", "birth": 1962}