{"sex": "M", "races": {"Tour du Chablais #4 Champ\u00e9ry": {"race": "Tour du Chablais #4 Champ\u00e9ry", "date": {"mer. 02.05.2012": {"weekday": "wednesday", "year": 2012, "categories": {"M-M50": {"pace": 273000000000, "rank": 28, "distance": 8, "time": 2269.4}}, "day": 2, "month": 5, "livingplace": "Troistorrents"}}, "location": "Les Mosses"}, "Tour du Chablais #2 Bex": {"race": "Tour du Chablais #2 Bex", "longitude": 6.854975199999999, "latitude": 46.3835529, "date": {"mer. 18.04.2012": {"weekday": "wednesday", "year": 2012, "categories": {"M-M50": {"pace": 271000000000, "rank": 28, "distance": 8, "time": 2169.5}}, "day": 18, "month": 4, "livingplace": "Troistorrents"}}, "location": "Bouveret"}, "Tour du Chablais #6 Montreux": {"race": "Tour du Chablais #6 Montreux", "longitude": 6.970566, "latitude": 46.3190253, "date": {"mer. 16.05.2012": {"weekday": "wednesday", "year": 2012, "categories": {"M-M50": {"pace": 274000000000, "rank": 45, "distance": 9, "time": 2538.4}}, "day": 16, "month": 5, "livingplace": "Troistorrents"}}, "location": "Aigle"}, "Tour du Chablais #3 Collombey-Muraz": {"race": "Tour du Chablais #3 Collombey-Muraz", "longitude": 7.0223787, "latitude": 46.1782231, "date": {"mer. 25.04.2012": {"weekday": "wednesday", "year": 2012, "categories": {"M-M50": {"pace": 262000000000, "rank": 23, "distance": 9, "time": 2360.8}}, "day": 25, "month": 4, "livingplace": "Troistorrents"}}, "location": "Evionnaz"}, "Morat-Fribourg": {"race": "Morat-Fribourg", "longitude": 7.120184, "latitude": 46.92922110000001, "date": {"dim. 05.10.2003": {"weekday": "sunday", "year": 2003, "categories": {"M40": {"pace": 276000000000, "rank": 230, "distance": 17, "time": 4747.7}}, "day": 5, "month": 10, "livingplace": "Troistorrents"}, "sam. 01.10.2011": {"weekday": "saturday", "year": 2011, "categories": {"17-M50": {"pace": 287000000000, "rank": 113, "distance": 17, "time": 4938.0}}, "day": 1, "month": 10, "livingplace": "Troistorrents"}, "sam. 05.10.2013": {"weekday": "saturday", "year": 2013, "categories": {"17-M50": {"pace": 308000000000, "rank": 243, "distance": 17, "time": 5378.2}}, "day": 5, "month": 10, "livingplace": "Troistorrents"}, "sam. 06.10.2012": {"weekday": "saturday", "year": 2012, "categories": {"17-M50": {"pace": 297000000000, "rank": 165, "distance": 17, "time": 5193.9}}, "day": 6, "month": 10, "livingplace": "Troistorrents"}}, "location": "Murten"}, "Tour du Chablais #6 Aigle": {"race": "Tour du Chablais #6 Aigle", "longitude": 6.970566, "latitude": 46.3190253, "date": {"mer. 01.06.2011": {"weekday": "wednesday", "year": 2011, "categories": {"M-M50": {"pace": 260000000000, "rank": 25, "distance": 10, "time": 2654.0}}, "day": 1, "month": 6, "livingplace": "Troistorrents"}}, "location": "Aigle"}, "Tour du Chablais #4 Morgins": {"race": "Tour du Chablais #4 Morgins", "date": {"mer. 18.05.2011": {"weekday": "wednesday", "year": 2011, "categories": {"M-M50": {"pace": 281000000000, "rank": 21, "distance": 8, "time": 2346.4}}, "day": 18, "month": 5, "livingplace": "Troistorrents"}}, "location": "Les Mosses"}, "Tour du Chablais #1 Montreux": {"race": "Tour du Chablais #1 Montreux", "longitude": 6.9916269, "latitude": 46.2957462, "date": {"mer. 11.04.2012": {"weekday": "wednesday", "year": 2012, "categories": {"M-M50": {"pace": 277000000000, "rank": 25, "distance": 8, "time": 2107.0}}, "day": 11, "month": 4, "livingplace": "Troistorrents"}}, "location": "Ollon VD"}, "Tour du Chablais #5 Les Mosses": {"race": "Tour du Chablais #5 Les Mosses", "longitude": 6.931504599999999, "latitude": 46.3603257, "date": {"mer. 25.05.2011": {"weekday": "wednesday", "year": 2011, "categories": {"M-M50": {"pace": 288000000000, "rank": 20, "distance": 8, "time": 2304.6}}, "day": 25, "month": 5, "livingplace": "Troistorrents"}}, "location": "Roche VD"}, "Tour du Chablais #1 Lavey": {"race": "Tour du Chablais #1 Lavey", "longitude": 6.9916269, "latitude": 46.2957462, "date": {"mer. 27.04.2011": {"weekday": "wednesday", "year": 2011, "categories": {"M-M50": {"pace": 264000000000, "rank": 27, "distance": 9, "time": 2377.3}}, "day": 27, "month": 4, "livingplace": "Troistorrents"}}, "location": "Ollon VD"}, "Tour du Chablais #3 Le Bouveret": {"race": "Tour du Chablais #3 Le Bouveret", "longitude": 7.0223787, "latitude": 46.1782231, "date": {"mer. 11.05.2011": {"weekday": "wednesday", "year": 2011, "categories": {"M-M50": {"pace": 268000000000, "rank": 29, "distance": 10, "time": 2683.9}}, "day": 11, "month": 5, "livingplace": "Troistorrents"}}, "location": "Evionnaz"}, "Tour du Chablais #2 Rennaz": {"race": "Tour du Chablais #2 Rennaz", "longitude": 6.854975199999999, "latitude": 46.3835529, "date": {"mer. 04.05.2011": {"weekday": "wednesday", "year": 2011, "categories": {"M-M50": {"pace": 267000000000, "rank": 33, "distance": 9, "time": 2498.5}}, "day": 4, "month": 5, "livingplace": "Troistorrents"}}, "location": "Bouveret"}}, "name": "Di Tria Fran\u00e7ois", "birth": 1961}