{"sex": "M", "races": {"Tour du Chablais #2 Yvorne": {"race": "Tour du Chablais #2 Yvorne", "longitude": 6.854975199999999, "latitude": 46.3835529, "date": {"mer. 10.04.2013": {"weekday": "wednesday", "year": 2013, "categories": {"M-M20": {"pace": 250000000000, "rank": 39, "distance": 8, "time": 2007.4}}, "day": 10, "month": 4, "livingplace": "Monthey"}}, "location": "Bouveret"}, "Tour du Chablais #6 Monthey": {"race": "Tour du Chablais #6 Monthey", "longitude": 6.970566, "latitude": 46.3190253, "date": {"mer. 08.05.2013": {"weekday": "wednesday", "year": 2013, "categories": {"M-M20": {"pace": 231000000000, "rank": 38, "distance": 9, "time": 2163.6}}, "day": 8, "month": 5, "livingplace": "Monthey"}}, "location": "Aigle"}, "Tour du Chablais #4 Yvorne": {"race": "Tour du Chablais #4 Yvorne", "date": {"mer. 28.04.2010": {"weekday": "wednesday", "year": 2010, "categories": {"M-M20": {"pace": 234000000000, "rank": 14, "distance": 8, "time": 1937.6}}, "day": 28, "month": 4, "livingplace": "Monthey"}}, "location": "Les Mosses"}, "Tour du Chablais #3 Bouveret": {"race": "Tour du Chablais #3 Bouveret", "longitude": 7.0223787, "latitude": 46.1782231, "date": {"mer. 17.04.2013": {"weekday": "wednesday", "year": 2013, "categories": {"M-M20": {"pace": 239000000000, "rank": 45, "distance": 10, "time": 2396.8}}, "day": 17, "month": 4, "livingplace": "Monthey"}}, "location": "Evionnaz"}, "Tour du Chablais #1 Roche": {"race": "Tour du Chablais #1 Roche", "longitude": 6.9916269, "latitude": 46.2957462, "date": {"mer. 03.04.2013": {"weekday": "wednesday", "year": 2013, "categories": {"M-M20": {"pace": 236000000000, "rank": 44, "distance": 9, "time": 2091.2}}, "day": 3, "month": 4, "livingplace": "Monthey"}, "mer. 07.04.2010": {"weekday": "wednesday", "year": 2010, "categories": {"M-M20": {"pace": 225000000000, "rank": 27, "distance": 9, "time": 2022.2}}, "day": 7, "month": 4, "livingplace": "Monthey"}}, "location": "Ollon VD"}, "Tour du Chablais #1 Martigny": {"race": "Tour du Chablais #1 Martigny", "longitude": 6.9916269, "latitude": 46.2957462, "date": {"mer. 23.04.2014": {"weekday": "wednesday", "year": 2014, "categories": {"M-M20": {"pace": 228000000000, "rank": 35, "distance": 9, "time": 1938.1}}, "day": 23, "month": 4, "livingplace": "Monthey"}}, "location": "Ollon VD"}, "Morat-Fribourg": {"race": "Morat-Fribourg", "longitude": 7.120184, "latitude": 46.92922110000001, "date": {"sam. 03.10.2009": {"weekday": "saturday", "year": 2009, "categories": {"C-M20": {"pace": 259000000000, "rank": 235, "distance": 17, "time": 4463.6}}, "day": 3, "month": 10, "livingplace": "Monthey"}, "sam. 06.10.2007": {"weekday": "saturday", "year": 2007, "categories": {"C/M20": {"pace": 256000000000, "rank": 231, "distance": 17, "time": 4397.7}}, "day": 6, "month": 10, "livingplace": "Monthey"}, "sam. 02.10.2010": {"weekday": "saturday", "year": 2010, "categories": {"17-M20": {"pace": 247000000000, "rank": 105, "distance": 17, "time": 4248.2}}, "day": 2, "month": 10, "livingplace": "Monthey"}}, "location": "Murten"}, "Montreux - Les Rochers de Naye": {"race": "Montreux - Les Rochers de Naye", "longitude": 6.9106799, "latitude": 46.4312213, "date": {"dim. 25.06.2006": {"weekday": "sunday", "year": 2006, "categories": {"Sen": {"pace": 414000000000, "rank": 38, "distance": 19, "time": 7787.9}}, "day": 25, "month": 6, "livingplace": "Monthey"}}, "location": "Montreux"}, "Tour du Chablais #6 Mouthey": {"race": "Tour du Chablais #6 Mouthey", "longitude": 6.970566, "latitude": 46.3190253, "date": {"mer. 12.05.2010": {"weekday": "wednesday", "year": 2010, "categories": {"M-M20": {"pace": 306000000000, "rank": 199, "distance": 9, "time": 2821.4}}, "day": 12, "month": 5, "livingplace": "Monthey"}}, "location": "Aigle"}, "Tour du Chablais #3 Bex": {"race": "Tour du Chablais #3 Bex", "longitude": 7.0223787, "latitude": 46.1782231, "date": {"mer. 21.04.2010": {"weekday": "wednesday", "year": 2010, "categories": {"M-M20": {"pace": 233000000000, "rank": 26, "distance": 10, "time": 2332.5}}, "day": 21, "month": 4, "livingplace": "Monthey"}}, "location": "Evionnaz"}, "Tour du Chablais #5 Morgins": {"race": "Tour du Chablais #5 Morgins", "longitude": 6.931504599999999, "latitude": 46.3603257, "date": {"mer. 01.05.2013": {"weekday": "wednesday", "year": 2013, "categories": {"M-M20": {"pace": 245000000000, "rank": 39, "distance": 8, "time": 1862.8}}, "day": 1, "month": 5, "livingplace": "Monthey"}}, "location": "Roche VD"}, "Tour du Chablais #4 St  Maurice": {"race": "Tour du Chablais #4 St  Maurice", "date": {"mer. 24.04.2013": {"weekday": "wednesday", "year": 2013, "categories": {"M-M20": {"pace": 237000000000, "rank": 44, "distance": 10, "time": 2375.4}}, "day": 24, "month": 4, "livingplace": "Monthey"}}, "location": "Les Mosses"}, "Tour du Chablais #2 St-Gingolph": {"race": "Tour du Chablais #2 St-Gingolph", "longitude": 6.854975199999999, "latitude": 46.3835529, "date": {"mer. 14.04.2010": {"weekday": "wednesday", "year": 2010, "categories": {"M-M20": {"pace": 240000000000, "rank": 20, "distance": 8, "time": 2004.8}}, "day": 14, "month": 4, "livingplace": "Monthey"}}, "location": "Bouveret"}, "Lausanne Marathon": {"race": "Lausanne Marathon", "longitude": 6.6322734, "latitude": 46.5196535, "date": {"dim. 31.10.2010": {"weekday": "sunday", "year": 2010, "categories": {"10-H2": {"pace": 227000000000, "rank": 36, "distance": 10, "time": 2274.8}}, "day": 31, "month": 10, "livingplace": "Monthey"}}, "location": "Lausanne"}}, "name": "Donnet L\u00e9onard", "birth": 1975}