{"sex": "M", "races": {"Course de l'Escalade, Gen\u00e8ve": {"race": "Course de l'Escalade, Gen\u00e8ve", "longitude": 6.1431577, "latitude": 46.2043907, "date": {"sam. 07.12.2013": {"weekday": "saturday", "year": 2013, "categories": {"Esc-Hom2": {"pace": 245000000000, "rank": 154, "distance": 7, "time": 1781.4}}, "day": 7, "month": 12, "livingplace": "Morges"}}, "location": "Gen\u00e8ve"}, "Tour du Pays de Vaud #2, Mezi\u00e8res": {"race": "Tour du Pays de Vaud #2, Mezi\u00e8res", "longitude": 6.7702883, "latitude": 46.5955273, "date": {"mer. 20.08.2014": {"weekday": "wednesday", "year": 2014, "categories": {"H-Sen1": {"pace": 295000000000, "rank": 60, "distance": 8, "time": 2395.9}}, "day": 20, "month": 8, "livingplace": "Morges"}}, "location": "M\u00e9zi\u00e8res VD"}, "Tour du Pays de Vaud #5 - La Sarraz": {"race": "Tour du Pays de Vaud #5 - La Sarraz", "longitude": 6.539251200000001, "latitude": 46.5993131, "date": {"mer. 08.09.2010": {"weekday": "wednesday", "year": 2010, "categories": {"HSen1": {"pace": 273000000000, "rank": 47, "distance": 9, "time": 2491.8}}, "day": 8, "month": 9, "livingplace": "Morges"}}, "location": "Penthaz"}, "Glacier 3000 Run, Gstaad": {"race": "Glacier 3000 Run, Gstaad", "longitude": 7.2865728, "latitude": 46.4717588, "date": {"sam. 06.08.2011": {"weekday": "saturday", "year": 2011, "categories": {"M30": {"pace": 504000000000, "rank": 50, "distance": 26, "time": 13104.9}}, "day": 6, "month": 8, "livingplace": "Morges"}}, "location": "Gstaad"}, "Tour du Pays de Vaud #4 - La Sarraz": {"race": "Tour du Pays de Vaud #4 - La Sarraz", "longitude": 6.5707689, "latitude": 46.7088129, "date": {"mer. 04.09.2013": {"weekday": "wednesday", "year": 2013, "categories": {"H-Sen1": {"pace": 310000000000, "rank": 106, "distance": 9, "time": 2635.7}}, "day": 4, "month": 9, "livingplace": "Morges"}}, "location": "Chavornay"}, "Lausanne Marathon": {"race": "Lausanne Marathon", "longitude": 6.6322734, "latitude": 46.5196535, "date": {"dim. 31.10.2010": {"weekday": "sunday", "year": 2010, "categories": {"21-H2": {"pace": 249000000000, "rank": 80, "distance": 21, "time": 5273.4}}, "day": 31, "month": 10, "livingplace": "Morges"}, "dim. 28.10.2012": {"weekday": "sunday", "year": 2012, "categories": {"10-H2": {"pace": 239000000000, "rank": 48, "distance": 10, "time": 2394.1}}, "day": 28, "month": 10, "livingplace": "Morges"}, "dim. 30.10.2011": {"weekday": "sunday", "year": 2011, "categories": {"21-H2": {"pace": 262000000000, "rank": 121, "distance": 21, "time": 5544.0}}, "day": 30, "month": 10, "livingplace": "Morges"}}, "location": "Lausanne"}, "Tour du pays de Vaud #1 - Penthaz": {"race": "Tour du pays de Vaud #1 - Penthaz", "longitude": 6.539251200000001, "latitude": 46.5993131, "date": {"mer. 08.08.2012": {"weekday": "wednesday", "year": 2012, "categories": {"H-Sen1": {"pace": 297000000000, "rank": 106, "distance": 9, "time": 2537.0}}, "day": 8, "month": 8, "livingplace": "Morges"}}, "location": "Penthaz"}, "Tour du pays de Vaud #1 \u2013 St  Prex": {"race": "Tour du pays de Vaud #1 \u2013 St  Prex", "longitude": 6.641183, "latitude": 46.7784736, "date": {"mer. 11.08.2010": {"weekday": "wednesday", "year": 2010, "categories": {"HSen1": {"pace": 279000000000, "rank": 42, "distance": 8, "time": 2346.2}}, "day": 11, "month": 8, "livingplace": "Morges"}}, "location": "Yverdon-les-Bains"}, "Jungfrau-Marathon, Interlaken": {"race": "Jungfrau-Marathon, Interlaken", "date": {"sam. 10.09.2011": {"weekday": "saturday", "year": 2011, "categories": {"M20": {"pace": 406000000000, "rank": 288, "distance": 42, "time": 17138.7}}, "day": 10, "month": 9, "livingplace": "Morges"}}, "location": "Interlaken"}, "20km de Lausanne": {"race": "20km de Lausanne", "longitude": 6.6322734, "latitude": 46.5196535, "date": {"sam. 24.04.2010": {"weekday": "saturday", "year": 2010, "categories": {"20-H30": {"pace": 271000000000, "rank": 156, "distance": 20, "time": 5432.1}}, "day": 24, "month": 4, "livingplace": "Morges"}, "sam. 30.04.2011": {"weekday": "saturday", "year": 2011, "categories": {"20-H30": {"pace": 249000000000, "rank": 88, "distance": 20, "time": 4991.6}}, "day": 30, "month": 4, "livingplace": "ADM International   20km"}}, "location": "Lausanne"}, "Tour du pays de Vaud #5 - Penthaz": {"race": "Tour du pays de Vaud #5 - Penthaz", "longitude": 6.539251200000001, "latitude": 46.5993131, "date": {"mer. 07.09.2011": {"weekday": "wednesday", "year": 2011, "categories": {"H-Sen1": {"pace": 271000000000, "rank": 23, "distance": 8, "time": 2264.2}}, "day": 7, "month": 9, "livingplace": "Morges"}}, "location": "Penthaz"}}, "name": "Doolan Kristian", "birth": 1978}