{"sex": "F", "races": {"Tour du Chablais #5 Leysin": {"race": "Tour du Chablais #5 Leysin", "longitude": 6.931504599999999, "latitude": 46.3603257, "date": {"mer. 05.05.2010": {"weekday": "wednesday", "year": 2010, "categories": {"F-F20": {"pace": 316000000000, "rank": 26, "distance": 8, "time": 2678.0}}, "day": 5, "month": 5, "livingplace": "Fully"}}, "location": "Roche VD"}, "Tour du Chablais #2 Bex": {"race": "Tour du Chablais #2 Bex", "longitude": 6.854975199999999, "latitude": 46.3835529, "date": {"mer. 18.04.2012": {"weekday": "wednesday", "year": 2012, "categories": {"F-F20": {"pace": 268000000000, "rank": 9, "distance": 8, "time": 2147.5}}, "day": 18, "month": 4, "livingplace": "Fully"}}, "location": "Bouveret"}, "Tour du Chablais #6 Montreux": {"race": "Tour du Chablais #6 Montreux", "longitude": 6.970566, "latitude": 46.3190253, "date": {"mer. 16.05.2012": {"weekday": "wednesday", "year": 2012, "categories": {"F-F20": {"pace": 261000000000, "rank": 9, "distance": 9, "time": 2417.6}}, "day": 16, "month": 5, "livingplace": "Fully"}}, "location": "Aigle"}, "Tour du Chablais #4 Morgins": {"race": "Tour du Chablais #4 Morgins", "date": {"mer. 18.05.2011": {"weekday": "wednesday", "year": 2011, "categories": {"F-F20": {"pace": 289000000000, "rank": 13, "distance": 8, "time": 2415.7}}, "day": 18, "month": 5, "livingplace": "Fully"}}, "location": "Les Mosses"}, "Tour du Chablais #2 St-Gingolph": {"race": "Tour du Chablais #2 St-Gingolph", "longitude": 6.854975199999999, "latitude": 46.3835529, "date": {"mer. 14.04.2010": {"weekday": "wednesday", "year": 2010, "categories": {"F-F20": {"pace": 307000000000, "rank": 20, "distance": 8, "time": 2568.8}}, "day": 14, "month": 4, "livingplace": "Fully"}}, "location": "Bouveret"}, "Tour du Chablais #4 Champ\u00e9ry": {"race": "Tour du Chablais #4 Champ\u00e9ry", "date": {"mer. 02.05.2012": {"weekday": "wednesday", "year": 2012, "categories": {"F-F20": {"pace": 267000000000, "rank": 10, "distance": 8, "time": 2222.8}}, "day": 2, "month": 5, "livingplace": "Fully"}}, "location": "Les Mosses"}, "Tour du Chablais #5 Bex": {"race": "Tour du Chablais #5 Bex", "longitude": 6.931504599999999, "latitude": 46.3603257, "date": {"mer. 09.05.2012": {"weekday": "wednesday", "year": 2012, "categories": {"F-F20": {"pace": 261000000000, "rank": 12, "distance": 9, "time": 2316.3}}, "day": 9, "month": 5, "livingplace": "Fully"}}, "location": "Roche VD"}, "Tour du Chablais #3 Bex": {"race": "Tour du Chablais #3 Bex", "longitude": 7.0223787, "latitude": 46.1782231, "date": {"mer. 21.04.2010": {"weekday": "wednesday", "year": 2010, "categories": {"F-F20": {"pace": 293000000000, "rank": 24, "distance": 10, "time": 2932.2}}, "day": 21, "month": 4, "livingplace": "Fully"}}, "location": "Evionnaz"}, "Swiss IRONTRAIL, Davos": {"race": "Swiss IRONTRAIL, Davos", "longitude": 9.5319859, "latitude": 46.8507835, "date": {"jeu. 13.08.2015": {"weekday": "thursday", "year": 2015, "categories": {"T41-W20": {"pace": 555000000000, "rank": 1, "distance": 42, "time": 23488.9}}, "day": 13, "month": 8, "livingplace": "Fully"}}, "location": "Chur"}, "Tour du Chablais #4 St  Maurice": {"race": "Tour du Chablais #4 St  Maurice", "date": {"mer. 24.04.2013": {"weekday": "wednesday", "year": 2013, "categories": {"F-F20": {"pace": 267000000000, "rank": 9, "distance": 10, "time": 2677.9}}, "day": 24, "month": 4, "livingplace": "Fully"}}, "location": "Les Mosses"}, "Tour du Chablais #2 Rennaz": {"race": "Tour du Chablais #2 Rennaz", "longitude": 6.854975199999999, "latitude": 46.3835529, "date": {"mer. 04.05.2011": {"weekday": "wednesday", "year": 2011, "categories": {"F-F20": {"pace": 274000000000, "rank": 7, "distance": 9, "time": 2566.5}}, "day": 4, "month": 5, "livingplace": "Fully"}}, "location": "Bouveret"}, "Tour du Chablais #1 Montreux": {"race": "Tour du Chablais #1 Montreux", "longitude": 6.9916269, "latitude": 46.2957462, "date": {"mer. 11.04.2012": {"weekday": "wednesday", "year": 2012, "categories": {"F-F20": {"pace": 277000000000, "rank": 12, "distance": 8, "time": 2110.7}}, "day": 11, "month": 4, "livingplace": "Fully"}}, "location": "Ollon VD"}, "Tour du Chablais #6 Monthey": {"race": "Tour du Chablais #6 Monthey", "longitude": 6.970566, "latitude": 46.3190253, "date": {"mer. 08.05.2013": {"weekday": "wednesday", "year": 2013, "categories": {"F-F20": {"pace": 267000000000, "rank": 12, "distance": 9, "time": 2491.1}}, "day": 8, "month": 5, "livingplace": "Fully"}}, "location": "Aigle"}, "Tour du Chablais #2 Yvorne": {"race": "Tour du Chablais #2 Yvorne", "longitude": 6.854975199999999, "latitude": 46.3835529, "date": {"mer. 10.04.2013": {"weekday": "wednesday", "year": 2013, "categories": {"F-F20": {"pace": 299000000000, "rank": 18, "distance": 8, "time": 2395.2}}, "day": 10, "month": 4, "livingplace": "Fully"}}, "location": "Bouveret"}, "Tour du Chablais #4 Yvorne": {"race": "Tour du Chablais #4 Yvorne", "date": {"mer. 28.04.2010": {"weekday": "wednesday", "year": 2010, "categories": {"F-F20": {"pace": 314000000000, "rank": 26, "distance": 8, "time": 2601.2}}, "day": 28, "month": 4, "livingplace": "Fully"}}, "location": "Les Mosses"}, "Tour du Chablais #3 Bouveret": {"race": "Tour du Chablais #3 Bouveret", "longitude": 7.0223787, "latitude": 46.1782231, "date": {"mer. 17.04.2013": {"weekday": "wednesday", "year": 2013, "categories": {"F-F20": {"pace": 274000000000, "rank": 14, "distance": 10, "time": 2740.5}}, "day": 17, "month": 4, "livingplace": "Fully"}}, "location": "Evionnaz"}, "Tour du Chablais #1 Roche": {"race": "Tour du Chablais #1 Roche", "longitude": 6.9916269, "latitude": 46.2957462, "date": {"mer. 03.04.2013": {"weekday": "wednesday", "year": 2013, "categories": {"F-F20": {"pace": 259000000000, "rank": 10, "distance": 9, "time": 2298.7}}, "day": 3, "month": 4, "livingplace": "Fully"}, "mer. 07.04.2010": {"weekday": "wednesday", "year": 2010, "categories": {"F-F20": {"pace": 296000000000, "rank": 30, "distance": 9, "time": 2652.8}}, "day": 7, "month": 4, "livingplace": "Fully"}}, "location": "Ollon VD"}, "Tour du Chablais #3 Collombey-Muraz": {"race": "Tour du Chablais #3 Collombey-Muraz", "longitude": 7.0223787, "latitude": 46.1782231, "date": {"mer. 25.04.2012": {"weekday": "wednesday", "year": 2012, "categories": {"F-F20": {"pace": 272000000000, "rank": 12, "distance": 9, "time": 2448.1}}, "day": 25, "month": 4, "livingplace": "Fully"}}, "location": "Evionnaz"}, "Morat-Fribourg": {"race": "Morat-Fribourg", "longitude": 7.120184, "latitude": 46.92922110000001, "date": {"sam. 06.10.2012": {"weekday": "saturday", "year": 2012, "categories": {"17-W20": {"pace": 291000000000, "rank": 51, "distance": 17, "time": 5079.6}}, "day": 6, "month": 10, "livingplace": "Fully"}}, "location": "Murten"}, "Tour du Chablais #6 Aigle": {"race": "Tour du Chablais #6 Aigle", "longitude": 6.970566, "latitude": 46.3190253, "date": {"mer. 01.06.2011": {"weekday": "wednesday", "year": 2011, "categories": {"F-F20": {"pace": 267000000000, "rank": 18, "distance": 10, "time": 2731.5}}, "day": 1, "month": 6, "livingplace": "Fully"}}, "location": "Aigle"}, "Tour du Chablais #6 Mouthey": {"race": "Tour du Chablais #6 Mouthey", "longitude": 6.970566, "latitude": 46.3190253, "date": {"mer. 12.05.2010": {"weekday": "wednesday", "year": 2010, "categories": {"F-F20": {"pace": 287000000000, "rank": 25, "distance": 9, "time": 2642.2}}, "day": 12, "month": 5, "livingplace": "Fully"}}, "location": "Aigle"}, "Tour du Chablais #5 Les Mosses": {"race": "Tour du Chablais #5 Les Mosses", "longitude": 6.931504599999999, "latitude": 46.3603257, "date": {"mer. 25.05.2011": {"weekday": "wednesday", "year": 2011, "categories": {"F-F20": {"pace": 296000000000, "rank": 17, "distance": 8, "time": 2368.1}}, "day": 25, "month": 5, "livingplace": "Fully"}}, "location": "Roche VD"}, "Tour du Chablais #1 Lavey": {"race": "Tour du Chablais #1 Lavey", "longitude": 6.9916269, "latitude": 46.2957462, "date": {"mer. 27.04.2011": {"weekday": "wednesday", "year": 2011, "categories": {"F-F20": {"pace": 272000000000, "rank": 11, "distance": 9, "time": 2451.8}}, "day": 27, "month": 4, "livingplace": "Fully"}}, "location": "Ollon VD"}, "Tour du Chablais #5 Morgins": {"race": "Tour du Chablais #5 Morgins", "longitude": 6.931504599999999, "latitude": 46.3603257, "date": {"mer. 01.05.2013": {"weekday": "wednesday", "year": 2013, "categories": {"F-F20": {"pace": 275000000000, "rank": 8, "distance": 8, "time": 2091.5}}, "day": 1, "month": 5, "livingplace": "Fully"}}, "location": "Roche VD"}, "Tour du Chablais #3 Le Bouveret": {"race": "Tour du Chablais #3 Le Bouveret", "longitude": 7.0223787, "latitude": 46.1782231, "date": {"mer. 11.05.2011": {"weekday": "wednesday", "year": 2011, "categories": {"F-F20": {"pace": 274000000000, "rank": 13, "distance": 10, "time": 2740.4}}, "day": 11, "month": 5, "livingplace": "Fully"}}, "location": "Evionnaz"}, "Tour du Chablais #1 Martigny": {"race": "Tour du Chablais #1 Martigny", "longitude": 6.9916269, "latitude": 46.2957462, "date": {"mer. 23.04.2014": {"weekday": "wednesday", "year": 2014, "categories": {"F-F20": {"pace": 266000000000, "rank": 13, "distance": 9, "time": 2266.2}}, "day": 23, "month": 4, "livingplace": "Fully"}}, "location": "Ollon VD"}}, "name": "Dorsaz Claire", "birth": 1989}