{"sex": "M", "races": {"Tour du Chablais #6 Monthey": {"race": "Tour du Chablais #6 Monthey", "longitude": 6.970566, "latitude": 46.3190253, "date": {"mer. 08.05.2013": {"weekday": "wednesday", "year": 2013, "categories": {"M-EC1": {"pace": 196000000000, "rank": 1, "distance": 3, "time": 616.8}}, "day": 8, "month": 5, "livingplace": "Vercorin"}}, "location": "Aigle"}, "Sierre-Zinal, Sierre": {"race": "Sierre-Zinal, Sierre", "longitude": 7.533536199999999, "latitude": 46.29413110000001, "date": {"dim. 09.08.2015": {"weekday": "sunday", "year": 2015, "categories": {"Jun_Homm": {"pace": 284000000000, "rank": 7, "distance": 19, "time": 5407.6}}, "day": 9, "month": 8, "livingplace": "Vercorin"}, "dim. 10.08.2014": {"weekday": "sunday", "year": 2014, "categories": {"Jun_Homm": {"pace": 287000000000, "rank": 4, "distance": 19, "time": 5460.9}}, "day": 10, "month": 8, "livingplace": "Vercorin"}}, "location": "Sierre"}, "Tour du Chablais #1 Roche": {"race": "Tour du Chablais #1 Roche", "longitude": 6.9916269, "latitude": 46.2957462, "date": {"mer. 03.04.2013": {"weekday": "wednesday", "year": 2013, "categories": {"M-EC1": {"pace": 203000000000, "rank": 2, "distance": 3, "time": 631.3}}, "day": 3, "month": 4, "livingplace": "Vercorin"}}, "location": "Ollon VD"}, "Tour du Chablais #4 St  Maurice": {"race": "Tour du Chablais #4 St  Maurice", "date": {"mer. 24.04.2013": {"weekday": "wednesday", "year": 2013, "categories": {"M-EC1": {"pace": 191000000000, "rank": 1, "distance": 3, "time": 610.0}}, "day": 24, "month": 4, "livingplace": "Vercorin"}}, "location": "Les Mosses"}, "Morat-Fribourg": {"race": "Morat-Fribourg", "longitude": 7.120184, "latitude": 46.92922110000001, "date": {"sam. 03.10.2015": {"weekday": "saturday", "year": 2015, "categories": {"17-JunH": {"pace": 234000000000, "rank": 3, "distance": 17, "time": 4031.3}}, "day": 3, "month": 10, "livingplace": "Vercorin"}}, "location": "Murten"}, "Tour du Chablais #6 Aigle": {"race": "Tour du Chablais #6 Aigle", "longitude": 6.970566, "latitude": 46.3190253, "date": {"mer. 01.06.2011": {"weekday": "wednesday", "year": 2011, "categories": {"M-EC2": {"pace": 221000000000, "rank": 1, "distance": 5, "time": 1064.8}}, "day": 1, "month": 6, "livingplace": "Vercorin"}}, "location": "Aigle"}, "Tour du Chablais #4 Morgins": {"race": "Tour du Chablais #4 Morgins", "date": {"mer. 18.05.2011": {"weekday": "wednesday", "year": 2011, "categories": {"M-EC2": {"pace": 229000000000, "rank": 1, "distance": 4, "time": 826.9}}, "day": 18, "month": 5, "livingplace": "Vercorin"}}, "location": "Les Mosses"}, "Tour du Chablais #2 Rennaz": {"race": "Tour du Chablais #2 Rennaz", "longitude": 6.854975199999999, "latitude": 46.3835529, "date": {"mer. 04.05.2011": {"weekday": "wednesday", "year": 2011, "categories": {"M-EC2": {"pace": 209000000000, "rank": 1, "distance": 3, "time": 668.7}}, "day": 4, "month": 5, "livingplace": "Vercorin"}}, "location": "Bouveret"}}, "name": "Drion Maximilien", "birth": 1997}