{"sex": "M", "races": {"Tour du Chablais #5 Leysin": {"race": "Tour du Chablais #5 Leysin", "longitude": 6.931504599999999, "latitude": 46.3603257, "date": {"mer. 05.05.2010": {"weekday": "wednesday", "year": 2010, "categories": {"M-M20": {"pace": 256000000000, "rank": 32, "distance": 8, "time": 2164.2}}, "day": 5, "month": 5, "livingplace": "Monthey"}}, "location": "Roche VD"}, "Tour du Chablais #4 St  Maurice": {"race": "Tour du Chablais #4 St  Maurice", "date": {"mer. 24.04.2013": {"weekday": "wednesday", "year": 2013, "categories": {"M-M40": {"pace": 225000000000, "rank": 6, "distance": 10, "time": 2255.8}}, "day": 24, "month": 4, "livingplace": "Monthey"}}, "location": "Les Mosses"}, "Tour du Chablais #2 Bex": {"race": "Tour du Chablais #2 Bex", "longitude": 6.854975199999999, "latitude": 46.3835529, "date": {"mer. 18.04.2012": {"weekday": "wednesday", "year": 2012, "categories": {"M-M40": {"pace": 221000000000, "rank": 4, "distance": 8, "time": 1769.8}}, "day": 18, "month": 4, "livingplace": "Monthey"}}, "location": "Bouveret"}, "Kerzerslauf": {"race": "Kerzerslauf", "longitude": 7.1954365, "latitude": 46.97488999999999, "date": {"sam. 19.03.2011": {"weekday": "saturday", "year": 2011, "categories": {"15-M40": {"pace": 241000000000, "rank": 57, "distance": 15, "time": 3625.2}}, "day": 19, "month": 3, "livingplace": "Monthey"}, "sam. 16.03.2013": {"weekday": "saturday", "year": 2013, "categories": {"15-M40": {"pace": 235000000000, "rank": 40, "distance": 15, "time": 3538.9}}, "day": 16, "month": 3, "livingplace": "Monthey"}, "sam. 15.03.2014": {"weekday": "saturday", "year": 2014, "categories": {"15-M40": {"pace": 233000000000, "rank": 41, "distance": 15, "time": 3508.1}}, "day": 15, "month": 3, "livingplace": "Monthey"}}, "location": "Kerzers"}, "Sierre-Zinal, Sierre": {"race": "Sierre-Zinal, Sierre", "longitude": 7.533536199999999, "latitude": 46.29413110000001, "date": {"dim. 11.08.2013": {"weekday": "sunday", "year": 2013, "categories": {"V\u00e9t_I": {"pace": 423000000000, "rank": 34, "distance": 31, "time": 13134.4}}, "day": 11, "month": 8, "livingplace": "Monthey"}}, "location": "Sierre"}, "Tour du Chablais #6 Montreux": {"race": "Tour du Chablais #6 Montreux", "longitude": 6.970566, "latitude": 46.3190253, "date": {"mer. 16.05.2012": {"weekday": "wednesday", "year": 2012, "categories": {"M-M40": {"pace": 218000000000, "rank": 5, "distance": 9, "time": 2024.5}}, "day": 16, "month": 5, "livingplace": "Monthey"}}, "location": "Aigle"}, "20km de Lausanne": {"race": "20km de Lausanne", "longitude": 6.6322734, "latitude": 46.5196535, "date": {"sam. 25.04.2015": {"weekday": "saturday", "year": 2015, "categories": {"20-H40": {"pace": 231000000000, "rank": 13, "distance": 20, "time": 4626.4}}, "day": 25, "month": 4, "livingplace": "Monthey"}, "sam. 27.04.2013": {"weekday": "saturday", "year": 2013, "categories": {"20-H40": {"pace": 231000000000, "rank": 9, "distance": 20, "time": 4621.0}}, "day": 27, "month": 4, "livingplace": "Monthey"}, "sam. 26.04.2014": {"weekday": "saturday", "year": 2014, "categories": {"20-H40": {"pace": 234000000000, "rank": 16, "distance": 20, "time": 4687.8}}, "day": 26, "month": 4, "livingplace": "Monthey"}}, "location": "Lausanne"}, "Tour du Chablais #1 Montreux": {"race": "Tour du Chablais #1 Montreux", "longitude": 6.9916269, "latitude": 46.2957462, "date": {"mer. 11.04.2012": {"weekday": "wednesday", "year": 2012, "categories": {"M-M40": {"pace": 227000000000, "rank": 7, "distance": 8, "time": 1727.5}}, "day": 11, "month": 4, "livingplace": "Monthey"}}, "location": "Ollon VD"}, "Tour du Chablais #4 Morgins": {"race": "Tour du Chablais #4 Morgins", "date": {"mer. 18.05.2011": {"weekday": "wednesday", "year": 2011, "categories": {"M-M40": {"pace": 241000000000, "rank": 8, "distance": 8, "time": 2015.4}}, "day": 18, "month": 5, "livingplace": "Monthey"}}, "location": "Les Mosses"}, "Bieler Lauftage, Biel Bienne": {"race": "Bieler Lauftage, Biel Bienne", "longitude": 7.2467909, "latitude": 47.1367785, "date": {"jeu. 11.06.2015": {"weekday": "thursday", "year": 2015, "categories": {"100-M40": {"pace": 318000000000, "rank": 6, "distance": 100, "time": 31812.1}}, "day": 11, "month": 6, "livingplace": "Monthey"}}, "location": "Biel/Bienne"}, "Tour du Chablais #5 Bex": {"race": "Tour du Chablais #5 Bex", "longitude": 6.931504599999999, "latitude": 46.3603257, "date": {"mer. 09.05.2012": {"weekday": "wednesday", "year": 2012, "categories": {"M-M40": {"pace": 214000000000, "rank": 3, "distance": 9, "time": 1902.4}}, "day": 9, "month": 5, "livingplace": "Monthey"}}, "location": "Roche VD"}, "Tour du Chablais #3 Bex": {"race": "Tour du Chablais #3 Bex", "longitude": 7.0223787, "latitude": 46.1782231, "date": {"mer. 21.04.2010": {"weekday": "wednesday", "year": 2010, "categories": {"M-M20": {"pace": 243000000000, "rank": 37, "distance": 10, "time": 2432.7}}, "day": 21, "month": 4, "livingplace": "Monthey"}}, "location": "Evionnaz"}, "Lausanne Marathon": {"race": "Lausanne Marathon", "longitude": 6.6322734, "latitude": 46.5196535, "date": {"dim. 31.10.2010": {"weekday": "sunday", "year": 2010, "categories": {"21-H2": {"pace": 250000000000, "rank": 82, "distance": 21, "time": 5278.0}}, "day": 31, "month": 10, "livingplace": "Monthey"}, "dim. 28.10.2012": {"weekday": "sunday", "year": 2012, "categories": {"21-H3": {"pace": 237000000000, "rank": 11, "distance": 21, "time": 5004.1}}, "day": 28, "month": 10, "livingplace": "Monthey"}, "dim. 30.10.2011": {"weekday": "sunday", "year": 2011, "categories": {"21-H3": {"pace": 238000000000, "rank": 36, "distance": 21, "time": 5031.3}}, "day": 30, "month": 10, "livingplace": "Monthey"}}, "location": "Lausanne"}, "Tour du Chablais #2 Rennaz": {"race": "Tour du Chablais #2 Rennaz", "longitude": 6.854975199999999, "latitude": 46.3835529, "date": {"mer. 04.05.2011": {"weekday": "wednesday", "year": 2011, "categories": {"M-M40": {"pace": 229000000000, "rank": 14, "distance": 9, "time": 2148.3}}, "day": 4, "month": 5, "livingplace": "Monthey"}}, "location": "Bouveret"}, "Tour du Chablais #4 Champ\u00e9ry": {"race": "Tour du Chablais #4 Champ\u00e9ry", "date": {"mer. 02.05.2012": {"weekday": "wednesday", "year": 2012, "categories": {"M-M40": {"pace": 221000000000, "rank": 3, "distance": 8, "time": 1837.2}}, "day": 2, "month": 5, "livingplace": "Monthey"}}, "location": "Les Mosses"}, "Tour du Chablais #6 Monthey": {"race": "Tour du Chablais #6 Monthey", "longitude": 6.970566, "latitude": 46.3190253, "date": {"mer. 08.05.2013": {"weekday": "wednesday", "year": 2013, "categories": {"M-M40": {"pace": 220000000000, "rank": 8, "distance": 9, "time": 2054.8}}, "day": 8, "month": 5, "livingplace": "Monthey"}}, "location": "Aigle"}, "Tour du Chablais #2 Yvorne": {"race": "Tour du Chablais #2 Yvorne", "longitude": 6.854975199999999, "latitude": 46.3835529, "date": {"mer. 10.04.2013": {"weekday": "wednesday", "year": 2013, "categories": {"M-M40": {"pace": 239000000000, "rank": 8, "distance": 8, "time": 1917.5}}, "day": 10, "month": 4, "livingplace": "Monthey"}}, "location": "Bouveret"}, "Tour du Chablais #4 Yvorne": {"race": "Tour du Chablais #4 Yvorne", "date": {"mer. 28.04.2010": {"weekday": "wednesday", "year": 2010, "categories": {"M-M20": {"pace": 250000000000, "rank": 35, "distance": 8, "time": 2070.5}}, "day": 28, "month": 4, "livingplace": "Monthey"}}, "location": "Les Mosses"}, "Tour du Chablais #3 Bouveret": {"race": "Tour du Chablais #3 Bouveret", "longitude": 7.0223787, "latitude": 46.1782231, "date": {"mer. 17.04.2013": {"weekday": "wednesday", "year": 2013, "categories": {"M-M40": {"pace": 224000000000, "rank": 7, "distance": 10, "time": 2242.5}}, "day": 17, "month": 4, "livingplace": "Monthey"}}, "location": "Evionnaz"}, "Tour du Chablais #1 Roche": {"race": "Tour du Chablais #1 Roche", "longitude": 6.9916269, "latitude": 46.2957462, "date": {"mer. 03.04.2013": {"weekday": "wednesday", "year": 2013, "categories": {"M-M40": {"pace": 218000000000, "rank": 6, "distance": 9, "time": 1931.9}}, "day": 3, "month": 4, "livingplace": "Monthey"}, "mer. 07.04.2010": {"weekday": "wednesday", "year": 2010, "categories": {"M-M20": {"pace": 241000000000, "rank": 52, "distance": 9, "time": 2161.5}}, "day": 7, "month": 4, "livingplace": "Monthey"}}, "location": "Ollon VD"}, "Tour du Chablais #1 Martigny": {"race": "Tour du Chablais #1 Martigny", "longitude": 6.9916269, "latitude": 46.2957462, "date": {"mer. 23.04.2014": {"weekday": "wednesday", "year": 2014, "categories": {"M-M40": {"pace": 221000000000, "rank": 11, "distance": 9, "time": 1882.4}}, "day": 23, "month": 4, "livingplace": "Monthey"}}, "location": "Ollon VD"}, "Morat-Fribourg": {"race": "Morat-Fribourg", "longitude": 7.120184, "latitude": 46.92922110000001, "date": {"sam. 03.10.2015": {"weekday": "saturday", "year": 2015, "categories": {"17-M40": {"pace": 246000000000, "rank": 40, "distance": 17, "time": 4239.9}}, "day": 3, "month": 10, "livingplace": "Monthey"}, "sam. 01.10.2011": {"weekday": "saturday", "year": 2011, "categories": {"17-M40": {"pace": 242000000000, "rank": 32, "distance": 17, "time": 4168.3}}, "day": 1, "month": 10, "livingplace": "Monthey"}, "sam. 02.10.2010": {"weekday": "saturday", "year": 2010, "categories": {"17-M20": {"pace": 263000000000, "rank": 258, "distance": 17, "time": 4531.9}}, "day": 2, "month": 10, "livingplace": "Monthey"}, "sam. 05.10.2013": {"weekday": "saturday", "year": 2013, "categories": {"17-M40": {"pace": 237000000000, "rank": 23, "distance": 17, "time": 4147.7}}, "day": 5, "month": 10, "livingplace": "Monthey"}, "sam. 06.10.2012": {"weekday": "saturday", "year": 2012, "categories": {"17-M40": {"pace": 242000000000, "rank": 28, "distance": 17, "time": 4229.2}}, "day": 6, "month": 10, "livingplace": "Monthey"}}, "location": "Murten"}, "Tour du Chablais #6 Aigle": {"race": "Tour du Chablais #6 Aigle", "longitude": 6.970566, "latitude": 46.3190253, "date": {"mer. 01.06.2011": {"weekday": "wednesday", "year": 2011, "categories": {"M-M40": {"pace": 225000000000, "rank": 12, "distance": 10, "time": 2300.8}}, "day": 1, "month": 6, "livingplace": "Monthey"}}, "location": "Aigle"}, "Tour du Chablais #6 Mouthey": {"race": "Tour du Chablais #6 Mouthey", "longitude": 6.970566, "latitude": 46.3190253, "date": {"mer. 12.05.2010": {"weekday": "wednesday", "year": 2010, "categories": {"M-M20": {"pace": 228000000000, "rank": 46, "distance": 9, "time": 2099.9}}, "day": 12, "month": 5, "livingplace": "Monthey"}}, "location": "Aigle"}, "Tour du Chablais #5 Les Mosses": {"race": "Tour du Chablais #5 Les Mosses", "longitude": 6.931504599999999, "latitude": 46.3603257, "date": {"mer. 25.05.2011": {"weekday": "wednesday", "year": 2011, "categories": {"M-M40": {"pace": 243000000000, "rank": 8, "distance": 8, "time": 1950.6}}, "day": 25, "month": 5, "livingplace": "Monthey"}}, "location": "Roche VD"}, "Tour du Chablais #1 Lavey": {"race": "Tour du Chablais #1 Lavey", "longitude": 6.9916269, "latitude": 46.2957462, "date": {"mer. 27.04.2011": {"weekday": "wednesday", "year": 2011, "categories": {"M-M40": {"pace": 229000000000, "rank": 12, "distance": 9, "time": 2067.1}}, "day": 27, "month": 4, "livingplace": "Monthey"}}, "location": "Ollon VD"}, "Tour du Chablais #5 Morgins": {"race": "Tour du Chablais #5 Morgins", "longitude": 6.931504599999999, "latitude": 46.3603257, "date": {"mer. 01.05.2013": {"weekday": "wednesday", "year": 2013, "categories": {"M-M40": {"pace": 236000000000, "rank": 6, "distance": 8, "time": 1799.8}}, "day": 1, "month": 5, "livingplace": "Monthey"}}, "location": "Roche VD"}, "Tour du Chablais #3 Le Bouveret": {"race": "Tour du Chablais #3 Le Bouveret", "longitude": 7.0223787, "latitude": 46.1782231, "date": {"mer. 11.05.2011": {"weekday": "wednesday", "year": 2011, "categories": {"M-M40": {"pace": 232000000000, "rank": 14, "distance": 10, "time": 2320.4}}, "day": 11, "month": 5, "livingplace": "Monthey"}}, "location": "Evionnaz"}, "Tour du Chablais #3 Collombey-Muraz": {"race": "Tour du Chablais #3 Collombey-Muraz", "longitude": 7.0223787, "latitude": 46.1782231, "date": {"mer. 25.04.2012": {"weekday": "wednesday", "year": 2012, "categories": {"M-M40": {"pace": 222000000000, "rank": 5, "distance": 9, "time": 1994.6}}, "day": 25, "month": 4, "livingplace": "Monthey"}}, "location": "Evionnaz"}}, "name": "Dubosson Pierre-Yves", "birth": 1971}