{"sex": "M", "races": {"Course p\u00e9destre Thyon-Dixence, Thyon": {"race": "Course p\u00e9destre Thyon-Dixence, Thyon", "date": {"dim. 05.08.2012": {"weekday": "sunday", "year": 2012, "categories": {"HomElite": {"pace": 476000000000, "rank": 106, "distance": 16, "time": 7786.3}}, "day": 5, "month": 8, "livingplace": "Lausanne"}}, "location": "Thyon-Les Collons"}, "Tour du Chablais #1 Montreux": {"race": "Tour du Chablais #1 Montreux", "longitude": 6.9916269, "latitude": 46.2957462, "date": {"mer. 11.04.2012": {"weekday": "wednesday", "year": 2012, "categories": {"M-M20": {"pace": 304000000000, "rank": 147, "distance": 8, "time": 2312.1}}, "day": 11, "month": 4, "livingplace": "Lausanne"}}, "location": "Ollon VD"}, "Tour du Chablais #2 Yvorne": {"race": "Tour du Chablais #2 Yvorne", "longitude": 6.854975199999999, "latitude": 46.3835529, "date": {"mer. 10.04.2013": {"weekday": "wednesday", "year": 2013, "categories": {"M-M20": {"pace": 316000000000, "rank": 162, "distance": 8, "time": 2531.5}}, "day": 10, "month": 4, "livingplace": "Lausanne"}}, "location": "Bouveret"}, "Tour du Chablais #6 Monthey": {"race": "Tour du Chablais #6 Monthey", "longitude": 6.970566, "latitude": 46.3190253, "date": {"mer. 08.05.2013": {"weekday": "wednesday", "year": 2013, "categories": {"M-M20": {"pace": 289000000000, "rank": 145, "distance": 9, "time": 2699.3}}, "day": 8, "month": 5, "livingplace": "Lausanne"}}, "location": "Aigle"}, "Tour du Chablais #2 Bex": {"race": "Tour du Chablais #2 Bex", "longitude": 6.854975199999999, "latitude": 46.3835529, "date": {"mer. 18.04.2012": {"weekday": "wednesday", "year": 2012, "categories": {"M-M20": {"pace": 292000000000, "rank": 140, "distance": 8, "time": 2340.9}}, "day": 18, "month": 4, "livingplace": "Lausanne"}}, "location": "Bouveret"}, "Tour du Chablais #3 Bouveret": {"race": "Tour du Chablais #3 Bouveret", "longitude": 7.0223787, "latitude": 46.1782231, "date": {"mer. 17.04.2013": {"weekday": "wednesday", "year": 2013, "categories": {"M-M20": {"pace": 280000000000, "rank": 115, "distance": 10, "time": 2800.8}}, "day": 17, "month": 4, "livingplace": "Lausanne"}}, "location": "Evionnaz"}, "Tour du Chablais #1 Roche": {"race": "Tour du Chablais #1 Roche", "longitude": 6.9916269, "latitude": 46.2957462, "date": {"mer. 03.04.2013": {"weekday": "wednesday", "year": 2013, "categories": {"M-M20": {"pace": 282000000000, "rank": 136, "distance": 9, "time": 2505.9}}, "day": 3, "month": 4, "livingplace": "Lausanne"}}, "location": "Ollon VD"}, "Tour du Chablais #3 Collombey-Muraz": {"race": "Tour du Chablais #3 Collombey-Muraz", "longitude": 7.0223787, "latitude": 46.1782231, "date": {"mer. 25.04.2012": {"weekday": "wednesday", "year": 2012, "categories": {"M-M20": {"pace": 282000000000, "rank": 121, "distance": 9, "time": 2538.1}}, "day": 25, "month": 4, "livingplace": "Lausanne"}}, "location": "Evionnaz"}, "Tour du Chablais #6 Montreux": {"race": "Tour du Chablais #6 Montreux", "longitude": 6.970566, "latitude": 46.3190253, "date": {"mer. 16.05.2012": {"weekday": "wednesday", "year": 2012, "categories": {"M-M20": {"pace": 310000000000, "rank": 208, "distance": 9, "time": 2872.4}}, "day": 16, "month": 5, "livingplace": "Lausanne"}}, "location": "Aigle"}, "Montreux - Les Rochers de Naye": {"race": "Montreux - Les Rochers de Naye", "longitude": 6.9106799, "latitude": 46.4312213, "date": {"dim. 06.07.2014": {"weekday": "sunday", "year": 2014, "categories": {"M-HElite": {"pace": 571000000000, "rank": 238, "distance": 19, "time": 10738.3}}, "day": 6, "month": 7, "livingplace": "Lausanne"}}, "location": "Montreux"}, "Tour du Chablais #4 Champ\u00e9ry": {"race": "Tour du Chablais #4 Champ\u00e9ry", "date": {"mer. 02.05.2012": {"weekday": "wednesday", "year": 2012, "categories": {"M-M20": {"pace": 283000000000, "rank": 125, "distance": 8, "time": 2349.1}}, "day": 2, "month": 5, "livingplace": "Lausanne"}}, "location": "Les Mosses"}, "Tour du Chablais #5 Bex": {"race": "Tour du Chablais #5 Bex", "longitude": 6.931504599999999, "latitude": 46.3603257, "date": {"mer. 09.05.2012": {"weekday": "wednesday", "year": 2012, "categories": {"M-M20": {"pace": 276000000000, "rank": 111, "distance": 9, "time": 2450.2}}, "day": 9, "month": 5, "livingplace": "Lausanne"}}, "location": "Roche VD"}, "Lausanne Marathon": {"race": "Lausanne Marathon", "longitude": 6.6322734, "latitude": 46.5196535, "date": {"sam. 24.10.2015": {"weekday": "saturday", "year": 2015, "categories": {"21-H30": {"pace": 334000000000, "rank": 637, "distance": 21, "time": 7054.0}}, "day": 24, "month": 10, "livingplace": "Saviese"}}, "location": "Lausanne"}, "Morat-Fribourg": {"race": "Morat-Fribourg", "longitude": 7.120184, "latitude": 46.92922110000001, "date": {"sam. 03.10.2015": {"weekday": "saturday", "year": 2015, "categories": {"17-M20": {"pace": 341000000000, "rank": 1713, "distance": 17, "time": 5868.6}}, "day": 3, "month": 10, "livingplace": "Saviese"}, "sam. 05.10.2013": {"weekday": "saturday", "year": 2013, "categories": {"17-M20": {"pace": 333000000000, "rank": 1823, "distance": 17, "time": 5817.9}}, "day": 5, "month": 10, "livingplace": "Lausanne"}}, "location": "Murten"}}, "name": "Dubuis Valentin", "birth": 1981}