{"sex": "F", "races": {"Tour du Chablais #5 Leysin": {"race": "Tour du Chablais #5 Leysin", "longitude": 6.931504599999999, "latitude": 46.3603257, "date": {"mer. 05.05.2010": {"weekday": "wednesday", "year": 2010, "categories": {"F-F20": {"pace": 334000000000, "rank": 35, "distance": 8, "time": 2823.9}}, "day": 5, "month": 5, "livingplace": "Collombey"}}, "location": "Roche VD"}, "Tour du Chablais #4 Yvorne": {"race": "Tour du Chablais #4 Yvorne", "date": {"mer. 28.04.2010": {"weekday": "wednesday", "year": 2010, "categories": {"F-F20": {"pace": 348000000000, "rank": 56, "distance": 8, "time": 2882.3}}, "day": 28, "month": 4, "livingplace": "Collombey"}}, "location": "Les Mosses"}, "Tour du Chablais #3 Le Bouveret": {"race": "Tour du Chablais #3 Le Bouveret", "longitude": 7.0223787, "latitude": 46.1782231, "date": {"mer. 11.05.2011": {"weekday": "wednesday", "year": 2011, "categories": {"F-F20": {"pace": 315000000000, "rank": 52, "distance": 10, "time": 3157.9}}, "day": 11, "month": 5, "livingplace": "Collombey"}}, "location": "Evionnaz"}, "Morat-Fribourg": {"race": "Morat-Fribourg", "longitude": 7.120184, "latitude": 46.92922110000001, "date": {"sam. 04.10.2008": {"weekday": "saturday", "year": 2008, "categories": {"C-JunF": {"pace": 347000000000, "rank": 11, "distance": 17, "time": 5959.8}}, "day": 4, "month": 10, "livingplace": "Collombey"}}, "location": "Murten"}, "20km de Lausanne": {"race": "20km de Lausanne", "longitude": 6.6322734, "latitude": 46.5196535, "date": {"sam. 30.04.2011": {"weekday": "saturday", "year": 2011, "categories": {"20-F20": {"pace": 341000000000, "rank": 85, "distance": 20, "time": 6839.5}}, "day": 30, "month": 4, "livingplace": "Collombey"}}, "location": "Lausanne"}, "Tour du Chablais #6 Mouthey": {"race": "Tour du Chablais #6 Mouthey", "longitude": 6.970566, "latitude": 46.3190253, "date": {"mer. 12.05.2010": {"weekday": "wednesday", "year": 2010, "categories": {"F-F20": {"pace": 308000000000, "rank": 57, "distance": 9, "time": 2832.8}}, "day": 12, "month": 5, "livingplace": "Collombey"}}, "location": "Aigle"}}, "name": "Ducki Jessica", "birth": 1990}