{"sex": "F", "races": {"Tour du Chablais #6 Montreux": {"race": "Tour du Chablais #6 Montreux", "longitude": 6.970566, "latitude": 46.3190253, "date": {"mer. 16.05.2012": {"weekday": "wednesday", "year": 2012, "categories": {"F-F40": {"pace": 355000000000, "rank": 70, "distance": 9, "time": 3284.3}}, "day": 16, "month": 5, "livingplace": "Vouvry"}}, "location": "Aigle"}, "Tour du Chablais #4 Yvorne": {"race": "Tour du Chablais #4 Yvorne", "date": {"mer. 28.04.2010": {"weekday": "wednesday", "year": 2010, "categories": {"F-F20": {"pace": 423000000000, "rank": 107, "distance": 8, "time": 3502.9}}, "day": 28, "month": 4, "livingplace": "Vouvry"}}, "location": "Les Mosses"}, "Tour du Chablais #1 Roche": {"race": "Tour du Chablais #1 Roche", "longitude": 6.9916269, "latitude": 46.2957462, "date": {"mer. 07.04.2010": {"weekday": "wednesday", "year": 2010, "categories": {"F-F20": {"pace": 373000000000, "rank": 120, "distance": 9, "time": 3340.1}}, "day": 7, "month": 4, "livingplace": "Vouvry"}}, "location": "Ollon VD"}, "Kerzerslauf": {"race": "Kerzerslauf", "longitude": 7.1954365, "latitude": 46.97488999999999, "date": {"sam. 15.03.2014": {"weekday": "saturday", "year": 2014, "categories": {"15-F40": {"pace": 445000000000, "rank": 293, "distance": 15, "time": 6688.1}}, "day": 15, "month": 3, "livingplace": "Vouvry"}}, "location": "Kerzers"}, "Lucerne Marathon, Luzern": {"race": "Lucerne Marathon, Luzern", "longitude": 8.3093072, "latitude": 47.05016819999999, "date": {"dim. 31.10.2010": {"weekday": "sunday", "year": 2010, "categories": {"H-F30": {"pace": 425000000000, "rank": 510, "distance": 21, "time": 8977.0}}, "day": 31, "month": 10, "livingplace": "Vouvry"}, "dim. 30.10.2011": {"weekday": "sunday", "year": 2011, "categories": {"H-F30": {"pace": 411000000000, "rank": 557, "distance": 21, "time": 8681.9}}, "day": 30, "month": 10, "livingplace": "Vouvry"}}, "location": "Luzern"}, "Morat-Fribourg": {"race": "Morat-Fribourg", "longitude": 7.120184, "latitude": 46.92922110000001, "date": {"sam. 01.10.2011": {"weekday": "saturday", "year": 2011, "categories": {"17-W35": {"pace": 448000000000, "rank": 250, "distance": 17, "time": 7704.7}}, "day": 1, "month": 10, "livingplace": "Vouvry"}, "sam. 02.10.2010": {"weekday": "saturday", "year": 2010, "categories": {"17-W35": {"pace": 433000000000, "rank": 245, "distance": 17, "time": 7443.5}}, "day": 2, "month": 10, "livingplace": "Vouvry"}, "sam. 05.10.2013": {"weekday": "saturday", "year": 2013, "categories": {"17-W40": {"pace": 450000000000, "rank": 345, "distance": 17, "time": 7853.1}}, "day": 5, "month": 10, "livingplace": "Vouvry"}, "sam. 06.10.2012": {"weekday": "saturday", "year": 2012, "categories": {"17-W40": {"pace": 429000000000, "rank": 280, "distance": 17, "time": 7499.8}}, "day": 6, "month": 10, "livingplace": "Vouvry"}}, "location": "Murten"}, "Tour du Chablais #6 Aigle": {"race": "Tour du Chablais #6 Aigle", "longitude": 6.970566, "latitude": 46.3190253, "date": {"mer. 01.06.2011": {"weekday": "wednesday", "year": 2011, "categories": {"F-F20": {"pace": 380000000000, "rank": 136, "distance": 10, "time": 3876.9}}, "day": 1, "month": 6, "livingplace": "Vouvry"}}, "location": "Aigle"}, "20km de Lausanne": {"race": "20km de Lausanne", "longitude": 6.6322734, "latitude": 46.5196535, "date": {"sam. 30.04.2011": {"weekday": "saturday", "year": 2011, "categories": {"20-F30": {"pace": 429000000000, "rank": 212, "distance": 20, "time": 8593.0}}, "day": 30, "month": 4, "livingplace": "Vouvry"}, "sam. 28.04.2012": {"weekday": "saturday", "year": 2012, "categories": {"20-F40": {"pace": 406000000000, "rank": 125, "distance": 20, "time": 8139.5}}, "day": 28, "month": 4, "livingplace": "Vouvry"}, "sam. 27.04.2013": {"weekday": "saturday", "year": 2013, "categories": {"10-F40": {"pace": 398000000000, "rank": 286, "distance": 10, "time": 3985.8}}, "day": 27, "month": 4, "livingplace": "Monthey"}, "sam. 22.04.2006": {"weekday": "saturday", "year": 2006, "categories": {"20/F30": {"pace": 412000000000, "rank": 109, "distance": 20, "time": 8247.3}}, "day": 22, "month": 4, "livingplace": "Vouvry"}}, "location": "Lausanne"}, "Tour du Chablais #2 St-Gingolph": {"race": "Tour du Chablais #2 St-Gingolph", "longitude": 6.854975199999999, "latitude": 46.3835529, "date": {"mer. 14.04.2010": {"weekday": "wednesday", "year": 2010, "categories": {"F-F20": {"pace": 412000000000, "rank": 102, "distance": 8, "time": 3445.9}}, "day": 14, "month": 4, "livingplace": "Vouvry"}}, "location": "Bouveret"}, "Schweizer Frauenlauf Bern": {"race": "Schweizer Frauenlauf Bern", "longitude": 7.4474468, "latitude": 46.9479739, "date": {"dim. 12.06.2005": {"weekday": "sunday", "year": 2005, "categories": {"5-OK": {"pace": 362000000000, "rank": 117, "distance": 5, "time": 1813.0}}, "day": 12, "month": 6, "livingplace": "Ducrey"}}, "location": "Bern"}, "Tour du Chablais #5 Les Mosses": {"race": "Tour du Chablais #5 Les Mosses", "longitude": 6.931504599999999, "latitude": 46.3603257, "date": {"mer. 25.05.2011": {"weekday": "wednesday", "year": 2011, "categories": {"F-F20": {"pace": 444000000000, "rank": 118, "distance": 8, "time": 3559.1}}, "day": 25, "month": 5, "livingplace": "Vouvry"}}, "location": "Roche VD"}, "Tour du Chablais #1 Lavey": {"race": "Tour du Chablais #1 Lavey", "longitude": 6.9916269, "latitude": 46.2957462, "date": {"mer. 27.04.2011": {"weekday": "wednesday", "year": 2011, "categories": {"F-F20": {"pace": 396000000000, "rank": 114, "distance": 9, "time": 3568.6}}, "day": 27, "month": 4, "livingplace": "Vouvry"}}, "location": "Ollon VD"}, "Tour du Chablais #3 Bex": {"race": "Tour du Chablais #3 Bex", "longitude": 7.0223787, "latitude": 46.1782231, "date": {"mer. 21.04.2010": {"weekday": "wednesday", "year": 2010, "categories": {"F-F20": {"pace": 380000000000, "rank": 114, "distance": 10, "time": 3807.5}}, "day": 21, "month": 4, "livingplace": "Vouvry"}}, "location": "Evionnaz"}, "Tour du Chablais #3 Le Bouveret": {"race": "Tour du Chablais #3 Le Bouveret", "longitude": 7.0223787, "latitude": 46.1782231, "date": {"mer. 11.05.2011": {"weekday": "wednesday", "year": 2011, "categories": {"F-F20": {"pace": 400000000000, "rank": 135, "distance": 10, "time": 4007.4}}, "day": 11, "month": 5, "livingplace": "Vouvry"}}, "location": "Evionnaz"}, "Tour du Chablais #2 Rennaz": {"race": "Tour du Chablais #2 Rennaz", "longitude": 6.854975199999999, "latitude": 46.3835529, "date": {"mer. 04.05.2011": {"weekday": "wednesday", "year": 2011, "categories": {"F-F20": {"pace": 407000000000, "rank": 133, "distance": 9, "time": 3808.3}}, "day": 4, "month": 5, "livingplace": "Vouvry"}}, "location": "Bouveret"}}, "name": "Ducrey Anne", "birth": 1972}