{"sex": "F", "races": {"Tour du Chablais #4 Morgins": {"race": "Tour du Chablais #4 Morgins", "date": {"mer. 18.05.2011": {"weekday": "wednesday", "year": 2011, "categories": {"F-F20": {"pace": 338000000000, "rank": 58, "distance": 8, "time": 2826.7}}, "day": 18, "month": 5, "livingplace": "Ollon"}}, "location": "Les Mosses"}, "Tour du Chablais #1 Roche": {"race": "Tour du Chablais #1 Roche", "longitude": 6.9916269, "latitude": 46.2957462, "date": {"mer. 07.04.2010": {"weekday": "wednesday", "year": 2010, "categories": {"F-F20": {"pace": 322000000000, "rank": 69, "distance": 9, "time": 2883.6}}, "day": 7, "month": 4, "livingplace": "Ollon"}}, "location": "Ollon VD"}, "Morat-Fribourg": {"race": "Morat-Fribourg", "longitude": 7.120184, "latitude": 46.92922110000001, "date": {"sam. 03.10.2009": {"weekday": "saturday", "year": 2009, "categories": {"C-W20": {"pace": 363000000000, "rank": 277, "distance": 17, "time": 6239.1}}, "day": 3, "month": 10, "livingplace": "Ollon"}, "sam. 02.10.2010": {"weekday": "saturday", "year": 2010, "categories": {"17-W20": {"pace": 366000000000, "rank": 266, "distance": 17, "time": 6290.5}}, "day": 2, "month": 10, "livingplace": "Ollon"}}, "location": "Murten"}, "Tour du Chablais #6 Aigle": {"race": "Tour du Chablais #6 Aigle", "longitude": 6.970566, "latitude": 46.3190253, "date": {"mer. 01.06.2011": {"weekday": "wednesday", "year": 2011, "categories": {"F-F20": {"pace": 305000000000, "rank": 63, "distance": 10, "time": 3119.5}}, "day": 1, "month": 6, "livingplace": "Ollon"}}, "location": "Aigle"}, "20km de Lausanne": {"race": "20km de Lausanne", "longitude": 6.6322734, "latitude": 46.5196535, "date": {"sam. 24.04.2010": {"weekday": "saturday", "year": 2010, "categories": {"20-F30": {"pace": 365000000000, "rank": 155, "distance": 20, "time": 7300.9}}, "day": 24, "month": 4, "livingplace": "Ollon"}, "sam. 30.04.2011": {"weekday": "saturday", "year": 2011, "categories": {"20-F30": {"pace": 342000000000, "rank": 141, "distance": 20, "time": 6855.2}}, "day": 30, "month": 4, "livingplace": "Ollon"}}, "location": "Lausanne"}, "Tour du Chablais #6 Mouthey": {"race": "Tour du Chablais #6 Mouthey", "longitude": 6.970566, "latitude": 46.3190253, "date": {"mer. 12.05.2010": {"weekday": "wednesday", "year": 2010, "categories": {"F-F20": {"pace": 358000000000, "rank": 103, "distance": 9, "time": 3292.6}}, "day": 12, "month": 5, "livingplace": "Ollon"}}, "location": "Aigle"}, "Schweizer Frauenlauf Bern": {"race": "Schweizer Frauenlauf Bern", "longitude": 7.4474468, "latitude": 46.9479739, "date": {"dim. 14.06.2009": {"weekday": "sunday", "year": 2009, "categories": {"10-W20": {"pace": 327000000000, "rank": 228, "distance": 10, "time": 3278.1}}, "day": 14, "month": 6, "livingplace": "Roche"}, "dim. 13.06.2010": {"weekday": "sunday", "year": 2010, "categories": {"10-W30": {"pace": 345000000000, "rank": 250, "distance": 10, "time": 3453.7}}, "day": 13, "month": 6, "livingplace": "Ollon"}}, "location": "Bern"}, "Tour du Chablais #5 Les Mosses": {"race": "Tour du Chablais #5 Les Mosses", "longitude": 6.931504599999999, "latitude": 46.3603257, "date": {"mer. 25.05.2011": {"weekday": "wednesday", "year": 2011, "categories": {"F-F20": {"pace": 347000000000, "rank": 55, "distance": 8, "time": 2777.9}}, "day": 25, "month": 5, "livingplace": "Ollon"}}, "location": "Roche VD"}, "Tour du Chablais #1 Lavey": {"race": "Tour du Chablais #1 Lavey", "longitude": 6.9916269, "latitude": 46.2957462, "date": {"mer. 27.04.2011": {"weekday": "wednesday", "year": 2011, "categories": {"F-F20": {"pace": 315000000000, "rank": 39, "distance": 9, "time": 2839.6}}, "day": 27, "month": 4, "livingplace": "Ollon"}}, "location": "Ollon VD"}, "Tour du Chablais #3 Bex": {"race": "Tour du Chablais #3 Bex", "longitude": 7.0223787, "latitude": 46.1782231, "date": {"mer. 21.04.2010": {"weekday": "wednesday", "year": 2010, "categories": {"F-F20": {"pace": 333000000000, "rank": 73, "distance": 10, "time": 3335.1}}, "day": 21, "month": 4, "livingplace": "Ollon"}}, "location": "Evionnaz"}, "Tour du Chablais #3 Le Bouveret": {"race": "Tour du Chablais #3 Le Bouveret", "longitude": 7.0223787, "latitude": 46.1782231, "date": {"mer. 11.05.2011": {"weekday": "wednesday", "year": 2011, "categories": {"F-F20": {"pace": 322000000000, "rank": 63, "distance": 10, "time": 3227.4}}, "day": 11, "month": 5, "livingplace": "Ollon"}}, "location": "Evionnaz"}, "Tour du Chablais #2 St-Gingolph": {"race": "Tour du Chablais #2 St-Gingolph", "longitude": 6.854975199999999, "latitude": 46.3835529, "date": {"mer. 14.04.2010": {"weekday": "wednesday", "year": 2010, "categories": {"F-F20": {"pace": 355000000000, "rank": 63, "distance": 8, "time": 2969.3}}, "day": 14, "month": 4, "livingplace": "Ollon"}}, "location": "Bouveret"}, "Tour du Chablais #2 Rennaz": {"race": "Tour du Chablais #2 Rennaz", "longitude": 6.854975199999999, "latitude": 46.3835529, "date": {"mer. 04.05.2011": {"weekday": "wednesday", "year": 2011, "categories": {"F-F20": {"pace": 313000000000, "rank": 45, "distance": 9, "time": 2929.0}}, "day": 4, "month": 5, "livingplace": "Ollon"}}, "location": "Bouveret"}}, "name": "Ducraux C\u00e9line", "birth": 1980}