{"sex": "M", "races": {"BCN Tour #4 Fleurier": {"race": "BCN Tour #4 Fleurier", "longitude": 6.832783800000001, "latitude": 47.1034892, "date": {"mer. 15.05.2013": {"weekday": "wednesday", "year": 2013, "categories": {"HS1": {"pace": 253000000000, "rank": 35, "distance": 9, "time": 2190.2}}, "day": 15, "month": 5, "livingplace": "Neuchatel"}}, "location": "La Chaux-de-Fonds"}, "Course de l'Escalade, Gen\u00e8ve": {"race": "Course de l'Escalade, Gen\u00e8ve", "longitude": 6.1431577, "latitude": 46.2043907, "date": {"sam. 06.12.2014": {"weekday": "saturday", "year": 2014, "categories": {"Esc-Hom2": {"pace": 291000000000, "rank": 910, "distance": 7, "time": 2137.4}}, "day": 6, "month": 12, "livingplace": "Geneve"}}, "location": "Gen\u00e8ve"}, "BCN Tour La Chaux-de-Fonds": {"race": "BCN Tour La Chaux-de-Fonds", "longitude": 6.832783800000001, "latitude": 47.1034892, "date": {"mer. 11.05.2011": {"weekday": "wednesday", "year": 2011, "categories": {"HE": {"pace": 321000000000, "rank": 68, "distance": 11, "time": 3436.8}}, "day": 11, "month": 5, "livingplace": "Bevaix"}, "mer. 23.05.2012": {"weekday": "wednesday", "year": 2012, "categories": {"HE": {"pace": 289000000000, "rank": 86, "distance": 11, "time": 3121.8}}, "day": 23, "month": 5, "livingplace": "Neuchatel"}}, "location": "La Chaux-de-Fonds"}, "BCN Tour Auvernier": {"race": "BCN Tour Auvernier", "longitude": 6.8589727, "latitude": 46.9668714, "date": {"mer. 20.04.2011": {"weekday": "wednesday", "year": 2011, "categories": {"HE": {"pace": 291000000000, "rank": 81, "distance": 11, "time": 3150.2}}, "day": 20, "month": 4, "livingplace": "Bevaix"}}, "location": "Colombier NE"}, "La Trotteuse-Tissot, La Chaux-de-Fonds": {"race": "La Trotteuse-Tissot, La Chaux-de-Fonds", "longitude": 6.832783800000001, "latitude": 47.1034892, "date": {"sam. 12.12.2015": {"weekday": "saturday", "year": 2015, "categories": {"GC-H30": {"pace": 275000000000, "rank": 124, "distance": 8, "time": 2201.4}}, "day": 12, "month": 12, "livingplace": "Neuchatel"}, "sam. 08.12.2012": {"weekday": "saturday", "year": 2012, "categories": {"GC-H20": {"pace": 279000000000, "rank": 26, "distance": 8, "time": 2237.6}}, "day": 8, "month": 12, "livingplace": "Neuchatel"}, "sam. 14.12.2013": {"weekday": "saturday", "year": 2013, "categories": {"GC-H30": {"pace": 258000000000, "rank": 49, "distance": 8, "time": 2064.6}}, "day": 14, "month": 12, "livingplace": "The Alligators"}, "sam. 18.12.2010": {"weekday": "saturday", "year": 2010, "categories": {"GC-H20": {"pace": 305000000000, "rank": 50, "distance": 8, "time": 2445.6}}, "day": 18, "month": 12, "livingplace": "The Alligators"}, "sam. 17.12.2011": {"weekday": "saturday", "year": 2011, "categories": {"GC-H20": {"pace": 285000000000, "rank": 43, "distance": 8, "time": 2284.6}}, "day": 17, "month": 12, "livingplace": "Neuchatel"}, "sam. 13.12.2014": {"weekday": "saturday", "year": 2014, "categories": {"GC-H30": {"pace": 276000000000, "rank": 109, "distance": 8, "time": 2208.1}}, "day": 13, "month": 12, "livingplace": "The Alligators"}}, "location": "La Chaux-de-Fonds"}, "BCN Tour Les Ponts de Martel": {"race": "BCN Tour Les Ponts de Martel", "longitude": 6.6324944, "latitude": 46.9262933, "date": {"mer. 18.05.2011": {"weekday": "wednesday", "year": 2011, "categories": {"HE": {"pace": 294000000000, "rank": 86, "distance": 13, "time": 3770.6}}, "day": 18, "month": 5, "livingplace": "Bevaix"}}, "location": "Couvet"}, "Morat-Fribourg": {"race": "Morat-Fribourg", "longitude": 7.120184, "latitude": 46.92922110000001, "date": {"sam. 04.10.2014": {"weekday": "saturday", "year": 2014, "categories": {"17-M20": {"pace": 267000000000, "rank": 354, "distance": 17, "time": 4591.9}}, "day": 4, "month": 10, "livingplace": "Neuchatel"}, "sam. 03.10.2009": {"weekday": "saturday", "year": 2009, "categories": {"C-M20": {"pace": 318000000000, "rank": 1280, "distance": 17, "time": 5463.0}}, "day": 3, "month": 10, "livingplace": "Bevaix"}, "sam. 05.10.2013": {"weekday": "saturday", "year": 2013, "categories": {"17-M20": {"pace": 266000000000, "rank": 430, "distance": 17, "time": 4652.2}}, "day": 5, "month": 10, "livingplace": "Neuchatel"}}, "location": "Murten"}, "Kerzerslauf": {"race": "Kerzerslauf", "longitude": 7.1954365, "latitude": 46.97488999999999, "date": {"sam. 19.03.2011": {"weekday": "saturday", "year": 2011, "categories": {"15-M20": {"pace": 283000000000, "rank": 296, "distance": 15, "time": 4259.6}}, "day": 19, "month": 3, "livingplace": "Bevaix"}}, "location": "Kerzers"}, "BCN Tour #6 Neuch\u00e2tel": {"race": "BCN Tour #6 Neuch\u00e2tel", "longitude": 6.9292732, "latitude": 46.9899874, "date": {"mer. 29.05.2013": {"weekday": "wednesday", "year": 2013, "categories": {"HS1": {"pace": 256000000000, "rank": 27, "distance": 11, "time": 2826.1}}, "day": 29, "month": 5, "livingplace": "Neuchatel"}}, "location": "Neuch\u00e2tel"}, "20km de Lausanne": {"race": "20km de Lausanne", "longitude": 6.6322734, "latitude": 46.5196535, "date": {"sam. 28.04.2012": {"weekday": "saturday", "year": 2012, "categories": {"10-H20": {"pace": 284000000000, "rank": 202, "distance": 10, "time": 2842.2}}, "day": 28, "month": 4, "livingplace": "Neuchatel"}}, "location": "Lausanne"}, "BCN Tour #5 Colombier": {"race": "BCN Tour #5 Colombier", "longitude": 6.6324944, "latitude": 46.9262933, "date": {"mer. 22.05.2013": {"weekday": "wednesday", "year": 2013, "categories": {"HS1": {"pace": 231000000000, "rank": 34, "distance": 11, "time": 2428.7}}, "day": 22, "month": 5, "livingplace": "Neuchatel"}}, "location": "Couvet"}, "BCN Tour Neuch\u00e2tel": {"race": "BCN Tour Neuch\u00e2tel", "longitude": 6.9292732, "latitude": 46.9899874, "date": {"mer. 25.05.2011": {"weekday": "wednesday", "year": 2011, "categories": {"HE": {"pace": 291000000000, "rank": 92, "distance": 11, "time": 3319.8}}, "day": 25, "month": 5, "livingplace": "Bevaix"}, "mer. 26.05.2010": {"weekday": "wednesday", "year": 2010, "categories": {"HE": {"pace": 299000000000, "rank": 70, "distance": 10, "time": 2900.8}}, "day": 26, "month": 5, "livingplace": "Bevaix"}, "mer. 30.05.2012": {"weekday": "wednesday", "year": 2012, "categories": {"HE": {"pace": 304000000000, "rank": 117, "distance": 11, "time": 3414.4}}, "day": 30, "month": 5, "livingplace": "Neuchatel"}}, "location": "Neuch\u00e2tel"}, "Sierre-Zinal, Sierre": {"race": "Sierre-Zinal, Sierre", "longitude": 7.533536199999999, "latitude": 46.29413110000001, "date": {"dim. 11.08.2013": {"weekday": "sunday", "year": 2013, "categories": {"Elites": {"pace": 489000000000, "rank": 234, "distance": 31, "time": 15165.0}}, "day": 11, "month": 8, "livingplace": "Neuchatel"}}, "location": "Sierre"}, "BCN Tour Les Ponts-de-Martel": {"race": "BCN Tour Les Ponts-de-Martel", "longitude": 6.733554799999999, "latitude": 46.999113, "date": {"mer. 09.05.2012": {"weekday": "wednesday", "year": 2012, "categories": {"HE": {"pace": 298000000000, "rank": 115, "distance": 10, "time": 3073.6}}, "day": 9, "month": 5, "livingplace": "Neuchatel"}}, "location": "Les Ponts-de-Martel"}, "BCN Tour Le Locle": {"race": "BCN Tour Le Locle", "longitude": 6.733554799999999, "latitude": 46.999113, "date": {"mer. 05.05.2010": {"weekday": "wednesday", "year": 2010, "categories": {"HE": {"pace": 279000000000, "rank": 55, "distance": 11, "time": 3044.9}}, "day": 5, "month": 5, "livingplace": "Bevaix"}}, "location": "Les Ponts-de-Martel"}, "Course p\u00e9destre Thyon-Dixence, Thyon": {"race": "Course p\u00e9destre Thyon-Dixence, Thyon", "date": {"dim. 02.08.2015": {"weekday": "sunday", "year": 2015, "categories": {"HomElite": {"pace": 407000000000, "rank": 76, "distance": 16, "time": 6665.8}}, "day": 2, "month": 8, "livingplace": "Neuchatel"}}, "location": "Thyon-Les Collons"}, "BCN Tour #3 Dombresson": {"race": "BCN Tour #3 Dombresson", "longitude": 6.733554799999999, "latitude": 46.999113, "date": {"mer. 08.05.2013": {"weekday": "wednesday", "year": 2013, "categories": {"HS1": {"pace": 252000000000, "rank": 48, "distance": 10, "time": 2500.9}}, "day": 8, "month": 5, "livingplace": "Neuchatel"}}, "location": "Les Ponts-de-Martel"}, "BCN Tour M\u00f4tier": {"race": "BCN Tour M\u00f4tier", "longitude": 6.6324944, "latitude": 46.9262933, "date": {"mer. 19.05.2010": {"weekday": "wednesday", "year": 2010, "categories": {"HE": {"pace": 271000000000, "rank": 70, "distance": 10, "time": 2692.1}}, "day": 19, "month": 5, "livingplace": "Bevaix"}}, "location": "Couvet"}, "BCN Tour Ponts-de-Martel": {"race": "BCN Tour Ponts-de-Martel", "longitude": 6.9175754, "latitude": 47.0624261, "date": {"mer. 28.04.2010": {"weekday": "wednesday", "year": 2010, "categories": {"HE": {"pace": 296000000000, "rank": 67, "distance": 11, "time": 3325.4}}, "day": 28, "month": 4, "livingplace": "Bevaix"}}, "location": "Ch\u00e9zard-St-Martin"}, "BCN Tour Couvet": {"race": "BCN Tour Couvet", "longitude": 6.9175754, "latitude": 47.0624261, "date": {"mer. 02.05.2012": {"weekday": "wednesday", "year": 2012, "categories": {"HE": {"pace": 289000000000, "rank": 71, "distance": 11, "time": 3227.3}}, "day": 2, "month": 5, "livingplace": "Neuchatel"}}, "location": "Ch\u00e9zard-St-Martin"}, "BCN Tour La Br\u00e9vine": {"race": "BCN Tour La Br\u00e9vine", "longitude": 6.733554799999999, "latitude": 46.999113, "date": {"mer. 04.05.2011": {"weekday": "wednesday", "year": 2011, "categories": {"HE": {"pace": 289000000000, "rank": 73, "distance": 10, "time": 2892.1}}, "day": 4, "month": 5, "livingplace": "Bevaix"}}, "location": "Les Ponts-de-Martel"}, "BCN Tour Le Landeron": {"race": "BCN Tour Le Landeron", "longitude": 6.8589727, "latitude": 46.9668714, "date": {"mer. 22.04.2009": {"weekday": "wednesday", "year": 2009, "categories": {"HE": {"pace": 284000000000, "rank": 54, "distance": 11, "time": 3157.5}}, "day": 22, "month": 4, "livingplace": "Bevaix"}}, "location": "Colombier NE"}, "BCN Tour Boudry": {"race": "BCN Tour Boudry", "longitude": 6.8589727, "latitude": 46.9668714, "date": {"mer. 26.04.2006": {"weekday": "wednesday", "year": 2006, "categories": {"HE": {"pace": 294000000000, "rank": 59, "distance": 10, "time": 3001.8}}, "day": 26, "month": 4, "livingplace": "Bevaix"}}, "location": "Colombier NE"}, "BCN Tour Colombier": {"race": "BCN Tour Colombier", "longitude": 6.832783800000001, "latitude": 47.1034892, "date": {"mer. 16.05.2012": {"weekday": "wednesday", "year": 2012, "categories": {"HE": {"pace": 263000000000, "rank": 52, "distance": 11, "time": 2849.1}}, "day": 16, "month": 5, "livingplace": "Neuchatel"}}, "location": "La Chaux-de-Fonds"}, "BCN Tour Fontaine Cernier": {"race": "BCN Tour Fontaine Cernier", "longitude": 6.9175754, "latitude": 47.0624261, "date": {"mer. 27.04.2011": {"weekday": "wednesday", "year": 2011, "categories": {"HE": {"pace": 259000000000, "rank": 53, "distance": 10, "time": 2669.5}}, "day": 27, "month": 4, "livingplace": "Bevaix"}}, "location": "Ch\u00e9zard-St-Martin"}, "Aletsch-Halbmarathon, Bettmeralp": {"race": "Aletsch-Halbmarathon, Bettmeralp", "date": {"dim. 28.06.2015": {"weekday": "sunday", "year": 2015, "categories": {"M20": {"pace": 446000000000, "rank": 235, "distance": 21, "time": 9418.3}}, "day": 28, "month": 6, "livingplace": "J'envoie du gros"}}, "location": "Bettmeralp"}}, "name": "Durel Bastien", "birth": 1983}