{"sex": "M", "races": {"Tour du Pays de Vaud #4 - La Sarraz": {"race": "Tour du Pays de Vaud #4 - La Sarraz", "longitude": 6.5707689, "latitude": 46.7088129, "date": {"mer. 29.08.2012": {"weekday": "wednesday", "year": 2012, "categories": {"H-Sen3": {"pace": 326000000000, "rank": 89, "distance": 9, "time": 2773.9}}, "day": 29, "month": 8, "livingplace": "Leysin"}}, "location": "Chavornay"}, "Tour du Chablais #2 Bex": {"race": "Tour du Chablais #2 Bex", "longitude": 6.854975199999999, "latitude": 46.3835529, "date": {"mer. 18.04.2012": {"weekday": "wednesday", "year": 2012, "categories": {"M-M50": {"pace": 324000000000, "rank": 70, "distance": 8, "time": 2597.4}}, "day": 18, "month": 4, "livingplace": "Leysin"}}, "location": "Bouveret"}, "Tour du Chablais #6 Montreux": {"race": "Tour du Chablais #6 Montreux", "longitude": 6.970566, "latitude": 46.3190253, "date": {"mer. 16.05.2012": {"weekday": "wednesday", "year": 2012, "categories": {"M-M50": {"pace": 306000000000, "rank": 73, "distance": 9, "time": 2834.9}}, "day": 16, "month": 5, "livingplace": "Leysin"}}, "location": "Aigle"}, "Tour du Chablais #4 Morgins": {"race": "Tour du Chablais #4 Morgins", "date": {"mer. 18.05.2011": {"weekday": "wednesday", "year": 2011, "categories": {"M-M50": {"pace": 345000000000, "rank": 69, "distance": 8, "time": 2886.9}}, "day": 18, "month": 5, "livingplace": "Leysin"}}, "location": "Les Mosses"}, "Tour du Chablais #2 St-Gingolph": {"race": "Tour du Chablais #2 St-Gingolph", "longitude": 6.854975199999999, "latitude": 46.3835529, "date": {"mer. 14.04.2010": {"weekday": "wednesday", "year": 2010, "categories": {"M-M50": {"pace": 339000000000, "rank": 55, "distance": 8, "time": 2836.5}}, "day": 14, "month": 4, "livingplace": "Leysin"}}, "location": "Bouveret"}, "Tour du Pays de Vaud #2 - Genolier": {"race": "Tour du Pays de Vaud #2 - Genolier", "longitude": 6.7702883, "latitude": 46.5955273, "date": {"mer. 15.08.2012": {"weekday": "wednesday", "year": 2012, "categories": {"H-Sen3": {"pace": 343000000000, "rank": 87, "distance": 9, "time": 2920.9}}, "day": 15, "month": 8, "livingplace": "Leysin"}}, "location": "M\u00e9zi\u00e8res VD"}, "Tour du Chablais #5 Bex": {"race": "Tour du Chablais #5 Bex", "longitude": 6.931504599999999, "latitude": 46.3603257, "date": {"mer. 09.05.2012": {"weekday": "wednesday", "year": 2012, "categories": {"M-M50": {"pace": 314000000000, "rank": 60, "distance": 9, "time": 2785.4}}, "day": 9, "month": 5, "livingplace": "Leysin"}}, "location": "Roche VD"}, "Tour du Chablais #3 Bex": {"race": "Tour du Chablais #3 Bex", "longitude": 7.0223787, "latitude": 46.1782231, "date": {"mer. 21.04.2010": {"weekday": "wednesday", "year": 2010, "categories": {"M-M50": {"pace": 312000000000, "rank": 60, "distance": 10, "time": 3125.7}}, "day": 21, "month": 4, "livingplace": "Leysin"}}, "location": "Evionnaz"}, "Lausanne Marathon": {"race": "Lausanne Marathon", "longitude": 6.6322734, "latitude": 46.5196535, "date": {"dim. 31.10.2010": {"weekday": "sunday", "year": 2010, "categories": {"42-H4": {"pace": 363000000000, "rank": 147, "distance": 42, "time": 15354.5}}, "day": 31, "month": 10, "livingplace": "Leysin"}, "sam. 24.10.2015": {"weekday": "saturday", "year": 2015, "categories": {"21-H50": {"pace": 344000000000, "rank": 308, "distance": 21, "time": 7261.2}}, "day": 24, "month": 10, "livingplace": "Leysin"}, "dim. 30.10.2011": {"weekday": "sunday", "year": 2011, "categories": {"21-H4": {"pace": 340000000000, "rank": 298, "distance": 21, "time": 7180.4}}, "day": 30, "month": 10, "livingplace": "Leysin"}}, "location": "Lausanne"}, "Tour du Chablais #1 Montreux": {"race": "Tour du Chablais #1 Montreux", "longitude": 6.9916269, "latitude": 46.2957462, "date": {"mer. 11.04.2012": {"weekday": "wednesday", "year": 2012, "categories": {"M-M50": {"pace": 333000000000, "rank": 78, "distance": 8, "time": 2534.3}}, "day": 11, "month": 4, "livingplace": "Leysin"}}, "location": "Ollon VD"}, "Tour du Chablais #2 Yvorne": {"race": "Tour du Chablais #2 Yvorne", "longitude": 6.854975199999999, "latitude": 46.3835529, "date": {"mer. 10.04.2013": {"weekday": "wednesday", "year": 2013, "categories": {"M-M50": {"pace": 359000000000, "rank": 62, "distance": 8, "time": 2874.3}}, "day": 10, "month": 4, "livingplace": "Leysin"}}, "location": "Bouveret"}, "Tour du Chablais #6 Monthey": {"race": "Tour du Chablais #6 Monthey", "longitude": 6.970566, "latitude": 46.3190253, "date": {"mer. 08.05.2013": {"weekday": "wednesday", "year": 2013, "categories": {"M-M50": {"pace": 329000000000, "rank": 80, "distance": 9, "time": 3073.8}}, "day": 8, "month": 5, "livingplace": "Leysin"}}, "location": "Aigle"}, "Tour du Chablais #4 Yvorne": {"race": "Tour du Chablais #4 Yvorne", "date": {"mer. 28.04.2010": {"weekday": "wednesday", "year": 2010, "categories": {"M-M50": {"pace": 334000000000, "rank": 54, "distance": 8, "time": 2769.7}}, "day": 28, "month": 4, "livingplace": "Leysin"}}, "location": "Les Mosses"}, "Tour du Chablais #1 Roche": {"race": "Tour du Chablais #1 Roche", "longitude": 6.9916269, "latitude": 46.2957462, "date": {"mer. 03.04.2013": {"weekday": "wednesday", "year": 2013, "categories": {"M-M50": {"pace": 322000000000, "rank": 81, "distance": 9, "time": 2860.1}}, "day": 3, "month": 4, "livingplace": "Leysin"}, "mer. 07.04.2010": {"weekday": "wednesday", "year": 2010, "categories": {"M-M50": {"pace": 294000000000, "rank": 43, "distance": 9, "time": 2631.7}}, "day": 7, "month": 4, "livingplace": "Leysin"}}, "location": "Ollon VD"}, "Tour du Chablais #3 Collombey-Muraz": {"race": "Tour du Chablais #3 Collombey-Muraz", "longitude": 7.0223787, "latitude": 46.1782231, "date": {"mer. 25.04.2012": {"weekday": "wednesday", "year": 2012, "categories": {"M-M50": {"pace": 316000000000, "rank": 69, "distance": 9, "time": 2842.3}}, "day": 25, "month": 4, "livingplace": "Leysin"}}, "location": "Evionnaz"}, "Tour du Chablais #6 Aigle": {"race": "Tour du Chablais #6 Aigle", "longitude": 6.970566, "latitude": 46.3190253, "date": {"mer. 01.06.2011": {"weekday": "wednesday", "year": 2011, "categories": {"M-M50": {"pace": 309000000000, "rank": 73, "distance": 10, "time": 3160.3}}, "day": 1, "month": 6, "livingplace": "Leysin"}}, "location": "Aigle"}, "Tour du Chablais #6 Mouthey": {"race": "Tour du Chablais #6 Mouthey", "longitude": 6.970566, "latitude": 46.3190253, "date": {"mer. 12.05.2010": {"weekday": "wednesday", "year": 2010, "categories": {"M-M50": {"pace": 307000000000, "rank": 62, "distance": 9, "time": 2825.3}}, "day": 12, "month": 5, "livingplace": "Leysin"}}, "location": "Aigle"}, "Tour du Chablais #5 Les Mosses": {"race": "Tour du Chablais #5 Les Mosses", "longitude": 6.931504599999999, "latitude": 46.3603257, "date": {"mer. 25.05.2011": {"weekday": "wednesday", "year": 2011, "categories": {"M-M50": {"pace": 353000000000, "rank": 64, "distance": 8, "time": 2830.3}}, "day": 25, "month": 5, "livingplace": "Leysin"}}, "location": "Roche VD"}, "Tour du Chablais #1 Lavey": {"race": "Tour du Chablais #1 Lavey", "longitude": 6.9916269, "latitude": 46.2957462, "date": {"mer. 27.04.2011": {"weekday": "wednesday", "year": 2011, "categories": {"M-M50": {"pace": 324000000000, "rank": 81, "distance": 9, "time": 2920.1}}, "day": 27, "month": 4, "livingplace": "Leysin"}}, "location": "Ollon VD"}, "Tour du Chablais #3 Le Bouveret": {"race": "Tour du Chablais #3 Le Bouveret", "longitude": 7.0223787, "latitude": 46.1782231, "date": {"mer. 11.05.2011": {"weekday": "wednesday", "year": 2011, "categories": {"M-M50": {"pace": 324000000000, "rank": 81, "distance": 10, "time": 3246.7}}, "day": 11, "month": 5, "livingplace": "Leysin"}}, "location": "Evionnaz"}, "Tour du pays de Vaud #1 - Penthaz": {"race": "Tour du pays de Vaud #1 - Penthaz", "longitude": 6.539251200000001, "latitude": 46.5993131, "date": {"mer. 08.08.2012": {"weekday": "wednesday", "year": 2012, "categories": {"H-Sen3": {"pace": 326000000000, "rank": 58, "distance": 9, "time": 2784.6}}, "day": 8, "month": 8, "livingplace": "Leysin"}}, "location": "Penthaz"}, "Tour du Chablais #1 Martigny": {"race": "Tour du Chablais #1 Martigny", "longitude": 6.9916269, "latitude": 46.2957462, "date": {"mer. 23.04.2014": {"weekday": "wednesday", "year": 2014, "categories": {"M-M50": {"pace": 358000000000, "rank": 105, "distance": 9, "time": 3044.4}}, "day": 23, "month": 4, "livingplace": "Leysin"}}, "location": "Ollon VD"}}, "name": "Earnhart Stephan", "birth": 1960}