{"sex": "M", "races": {"Dreil\u00e4nder-Lauf, Basel": {"race": "Dreil\u00e4nder-Lauf, Basel", "longitude": 7.5885761, "latitude": 47.5595986, "date": {"dim. 22.05.2011": {"weekday": "sunday", "year": 2011, "categories": {"21M30": {"pace": 339000000000, "rank": 122, "distance": 21, "time": 7169.5}}, "day": 22, "month": 5, "livingplace": "Basel"}}, "location": "Basel"}, "Glacier 3000 Run, Gstaad": {"race": "Glacier 3000 Run, Gstaad", "longitude": 7.2865728, "latitude": 46.4717588, "date": {"sam. 09.08.2014": {"weekday": "saturday", "year": 2014, "categories": {"M30": {"pace": 603000000000, "rank": 68, "distance": 26, "time": 15684.2}}, "day": 9, "month": 8, "livingplace": "Basel"}}, "location": "Gstaad"}, "Eiger Ultra Trail, Grindelwald": {"race": "Eiger Ultra Trail, Grindelwald", "longitude": 8.0413962, "latitude": 46.624164, "date": {"sam. 19.07.2014": {"weekday": "saturday", "year": 2014, "categories": {"C-H": {"pace": 508000000000, "rank": 85, "distance": 16, "time": 8138.0}}, "day": 19, "month": 7, "livingplace": "Basel"}}, "location": "Grindelwald"}, "Aletsch-Halbmarathon, Bettmeralp": {"race": "Aletsch-Halbmarathon, Bettmeralp", "date": {"dim. 28.06.2015": {"weekday": "sunday", "year": 2015, "categories": {"M35": {"pace": 531000000000, "rank": 176, "distance": 21, "time": 11211.8}}, "day": 28, "month": 6, "livingplace": "Zurich"}}, "location": "Bettmeralp"}, "Winterthur Marathon": {"race": "Winterthur Marathon", "longitude": -75.6037351, "latitude": 39.8088766, "date": {"dim. 26.05.2013": {"weekday": "sunday", "year": 2013, "categories": {"H-M30": {"pace": 311000000000, "rank": 161, "distance": 21, "time": 6531.6}}, "day": 26, "month": 5, "livingplace": "Basel"}}, "location": "Winterthur"}, "Lausanne Marathon": {"race": "Lausanne Marathon", "longitude": 6.6322734, "latitude": 46.5196535, "date": {"sam. 24.10.2015": {"weekday": "saturday", "year": 2015, "categories": {"21-H30": {"pace": 295000000000, "rank": 351, "distance": 21, "time": 6242.0}}, "day": 24, "month": 10, "livingplace": "Zurich"}, "dim. 27.10.2013": {"weekday": "sunday", "year": 2013, "categories": {"21-H2": {"pace": 304000000000, "rank": 450, "distance": 21, "time": 6425.1}}, "day": 27, "month": 10, "livingplace": "Basel"}}, "location": "Lausanne"}, "SwissCityMarathon - Lucerne, Luzern": {"race": "SwissCityMarathon - Lucerne, Luzern", "longitude": 8.3093072, "latitude": 47.05016819999999, "date": {"dim. 26.10.2014": {"weekday": "sunday", "year": 2014, "categories": {"H-M30": {"pace": 299000000000, "rank": 578, "distance": 21, "time": 6309.4}}, "day": 26, "month": 10, "livingplace": "Basel"}}, "location": "Luzern"}}, "name": "Eckardt Hannes", "birth": 1979}