{"sex": "M", "races": {"Course de l'Escalade, Gen\u00e8ve": {"race": "Course de l'Escalade, Gen\u00e8ve", "longitude": 6.1431577, "latitude": 46.2043907, "date": {"sam. 07.12.2002": {"weekday": "saturday", "year": 2002, "categories": {"Hommes2": {"pace": 240000000000, "rank": 108, "distance": 7, "time": 1747.0}}, "day": 7, "month": 12, "livingplace": "Neuchatel"}, "sam. 01.12.2007": {"weekday": "saturday", "year": 2007, "categories": {"Elite H": {"pace": 266000000000, "rank": 300, "distance": 7, "time": 1934.4}}, "day": 1, "month": 12, "livingplace": "Geneve"}, "sam. 03.12.2005": {"weekday": "saturday", "year": 2005, "categories": {"HElite": {"pace": 245000000000, "rank": 432, "distance": 7, "time": 1778.6}}, "day": 3, "month": 12, "livingplace": "Geneve"}}, "location": "Gen\u00e8ve"}, "BCN Tour #4 Fleurier": {"race": "BCN Tour #4 Fleurier", "longitude": 6.832783800000001, "latitude": 47.1034892, "date": {"mer. 15.05.2013": {"weekday": "wednesday", "year": 2013, "categories": {"HS2": {"pace": 257000000000, "rank": 37, "distance": 9, "time": 2230.3}}, "day": 15, "month": 5, "livingplace": "Corcelles"}}, "location": "La Chaux-de-Fonds"}, "BCN Tour #1 Corcelles": {"race": "BCN Tour #1 Corcelles", "longitude": 6.8589727, "latitude": 46.9668714, "date": {"mer. 24.04.2013": {"weekday": "wednesday", "year": 2013, "categories": {"HS2": {"pace": 268000000000, "rank": 62, "distance": 10, "time": 2628.7}}, "day": 24, "month": 4, "livingplace": "Corcelles"}}, "location": "Colombier NE"}, "BCN Tour La Chaux-de-Fonds": {"race": "BCN Tour La Chaux-de-Fonds", "longitude": 6.6324944, "latitude": 46.9262933, "date": {"mer. 23.05.2012": {"weekday": "wednesday", "year": 2012, "categories": {"HS1": {"pace": 274000000000, "rank": 84, "distance": 11, "time": 2965.3}}, "day": 23, "month": 5, "livingplace": "Corcelles"}}, "location": "Couvet"}, "BCN Tour #3 Dombresson": {"race": "BCN Tour #3 Dombresson", "longitude": 6.733554799999999, "latitude": 46.999113, "date": {"mer. 08.05.2013": {"weekday": "wednesday", "year": 2013, "categories": {"HS2": {"pace": 252000000000, "rank": 43, "distance": 10, "time": 2503.7}}, "day": 8, "month": 5, "livingplace": "Corcelles"}}, "location": "Les Ponts-de-Martel"}, "BCN Tour Couvet": {"race": "BCN Tour Couvet", "longitude": 6.9175754, "latitude": 47.0624261, "date": {"mer. 02.05.2012": {"weekday": "wednesday", "year": 2012, "categories": {"HS1": {"pace": 280000000000, "rank": 74, "distance": 11, "time": 3126.3}}, "day": 2, "month": 5, "livingplace": "Corcelles"}}, "location": "Ch\u00e9zard-St-Martin"}, "Morat-Fribourg": {"race": "Morat-Fribourg", "longitude": 7.120184, "latitude": 46.92922110000001, "date": {"dim. 06.10.2002": {"weekday": "sunday", "year": 2002, "categories": {"M20": {"pace": 276000000000, "rank": 753, "distance": 17, "time": 4748.0}}, "day": 6, "month": 10, "livingplace": "Geneve"}, "sam. 04.10.2008": {"weekday": "saturday", "year": 2008, "categories": {"C-M20": {"pace": 278000000000, "rank": 534, "distance": 17, "time": 4778.9}}, "day": 4, "month": 10, "livingplace": "Peseux"}}, "location": "Murten"}, "BCN Tour #2 La Chaux-de-Fonds": {"race": "BCN Tour #2 La Chaux-de-Fonds", "longitude": 6.9175754, "latitude": 47.0624261, "date": {"mer. 01.05.2013": {"weekday": "wednesday", "year": 2013, "categories": {"HS2": {"pace": 260000000000, "rank": 65, "distance": 11, "time": 2791.3}}, "day": 1, "month": 5, "livingplace": "Corcelles"}}, "location": "Ch\u00e9zard-St-Martin"}, "20km de Lausanne": {"race": "20km de Lausanne", "longitude": 6.6322734, "latitude": 46.5196535, "date": {"sam. 28.04.2007": {"weekday": "saturday", "year": 2007, "categories": {"20H30": {"pace": 293000000000, "rank": 299, "distance": 20, "time": 5877.3}}, "day": 28, "month": 4, "livingplace": "Geneve"}}, "location": "Lausanne"}, "BCN Tour #5 Colombier": {"race": "BCN Tour #5 Colombier", "longitude": 6.6324944, "latitude": 46.9262933, "date": {"mer. 22.05.2013": {"weekday": "wednesday", "year": 2013, "categories": {"HS2": {"pace": 242000000000, "rank": 49, "distance": 11, "time": 2547.9}}, "day": 22, "month": 5, "livingplace": "Corcelles"}}, "location": "Couvet"}, "BCN Tour Neuch\u00e2tel": {"race": "BCN Tour Neuch\u00e2tel", "longitude": 6.9292732, "latitude": 46.9899874, "date": {"mer. 30.05.2012": {"weekday": "wednesday", "year": 2012, "categories": {"HS1": {"pace": 279000000000, "rank": 64, "distance": 11, "time": 3134.6}}, "day": 30, "month": 5, "livingplace": "Corcelles"}}, "location": "Neuch\u00e2tel"}, "BCN Tour Cornaux": {"race": "BCN Tour Cornaux", "longitude": 6.8589727, "latitude": 46.9668714, "date": {"mer. 25.04.2012": {"weekday": "wednesday", "year": 2012, "categories": {"HS1": {"pace": 307000000000, "rank": 76, "distance": 11, "time": 3383.9}}, "day": 25, "month": 4, "livingplace": "Corcelles"}}, "location": "Colombier NE"}, "BCN Tour #6 Neuch\u00e2tel": {"race": "BCN Tour #6 Neuch\u00e2tel", "longitude": 6.9292732, "latitude": 46.9899874, "date": {"mer. 29.05.2013": {"weekday": "wednesday", "year": 2013, "categories": {"HS2": {"pace": 265000000000, "rank": 42, "distance": 11, "time": 2921.5}}, "day": 29, "month": 5, "livingplace": "Corcelles"}}, "location": "Neuch\u00e2tel"}, "BCN Tour Colombier": {"race": "BCN Tour Colombier", "longitude": 6.832783800000001, "latitude": 47.1034892, "date": {"mer. 16.05.2012": {"weekday": "wednesday", "year": 2012, "categories": {"HS1": {"pace": 277000000000, "rank": 87, "distance": 11, "time": 2992.1}}, "day": 16, "month": 5, "livingplace": "Corcelles"}}, "location": "La Chaux-de-Fonds"}, "Lausanne Marathon": {"race": "Lausanne Marathon", "longitude": 6.6322734, "latitude": 46.5196535, "date": {"dim. 26.10.2014": {"weekday": "sunday", "year": 2014, "categories": {"21-H40": {"pace": 297000000000, "rank": 293, "distance": 21, "time": 6287.5}}, "day": 26, "month": 10, "livingplace": "Corcelles"}}, "location": "Lausanne"}, "Aletsch-Halbmarathon, Bettmeralp": {"race": "Aletsch-Halbmarathon, Bettmeralp", "date": {"dim. 29.06.2014": {"weekday": "sunday", "year": 2014, "categories": {"M40": {"pace": 328000000000, "rank": 38, "distance": 13, "time": 4367.4}}, "day": 29, "month": 6, "livingplace": "Corcelles"}, "dim. 28.06.2015": {"weekday": "sunday", "year": 2015, "categories": {"M40": {"pace": 416000000000, "rank": 52, "distance": 21, "time": 8795.9}}, "day": 28, "month": 6, "livingplace": "Corcelles"}}, "location": "Bettmeralp"}}, "name": "Ecoffey Marc", "birth": 1973}