{"sex": "M", "races": {"Course p\u00e9destre Thyon-Dixence, Thyon": {"race": "Course p\u00e9destre Thyon-Dixence, Thyon", "date": {"dim. 03.08.2014": {"weekday": "sunday", "year": 2014, "categories": {"V\u00e9ter 1": {"pace": 629000000000, "rank": 82, "distance": 16, "time": 10296.1}}, "day": 3, "month": 8, "livingplace": "Lausanne"}}, "location": "Thyon-Les Collons"}, "Sierre-Zinal, Sierre": {"race": "Sierre-Zinal, Sierre", "longitude": 7.533536199999999, "latitude": 46.29413110000001, "date": {"dim. 10.08.2014": {"weekday": "sunday", "year": 2014, "categories": {"V\u00e9t_I": {"pace": 632000000000, "rank": 239, "distance": 31, "time": 19610.6}}, "day": 10, "month": 8, "livingplace": "Lausanne"}}, "location": "Sierre"}, "Lausanne Marathon": {"race": "Lausanne Marathon", "longitude": 6.6322734, "latitude": 46.5196535, "date": {"dim. 30.10.2011": {"weekday": "sunday", "year": 2011, "categories": {"10-H3": {"pace": 259000000000, "rank": 88, "distance": 10, "time": 2596.6}}, "day": 30, "month": 10, "livingplace": "Lausanne"}}, "location": "Lausanne"}, "Kerzerslauf": {"race": "Kerzerslauf", "longitude": 7.1954365, "latitude": 46.97488999999999, "date": {"sam. 16.03.2013": {"weekday": "saturday", "year": 2013, "categories": {"15-M40": {"pace": 318000000000, "rank": 373, "distance": 15, "time": 4784.1}}, "day": 16, "month": 3, "livingplace": "Lausanne"}}, "location": "Kerzers"}, "Morat-Fribourg": {"race": "Morat-Fribourg", "longitude": 7.120184, "latitude": 46.92922110000001, "date": {"sam. 05.10.2013": {"weekday": "saturday", "year": 2013, "categories": {"17-M40": {"pace": 331000000000, "rank": 641, "distance": 17, "time": 5793.0}}, "day": 5, "month": 10, "livingplace": "Lausanne"}}, "location": "Murten"}, "Montreux - Les Rochers de Naye": {"race": "Montreux - Les Rochers de Naye", "longitude": 6.9106799, "latitude": 46.4312213, "date": {"dim. 10.07.2011": {"weekday": "sunday", "year": 2011, "categories": {"M-HV\u00e9t1": {"pace": 457000000000, "rank": 68, "distance": 19, "time": 8607.5}}, "day": 10, "month": 7, "livingplace": "Lausanne"}}, "location": "Montreux"}, "20km de Lausanne": {"race": "20km de Lausanne", "longitude": 6.6322734, "latitude": 46.5196535, "date": {"sam. 30.04.2011": {"weekday": "saturday", "year": 2011, "categories": {"10-H40": {"pace": 295000000000, "rank": 171, "distance": 10, "time": 2956.7}}, "day": 30, "month": 4, "livingplace": "Lausanne"}, "sam. 28.04.2012": {"weekday": "saturday", "year": 2012, "categories": {"10-H40": {"pace": 278000000000, "rank": 75, "distance": 10, "time": 2784.1}}, "day": 28, "month": 4, "livingplace": "Lausanne"}, "sam. 26.04.2014": {"weekday": "saturday", "year": 2014, "categories": {"10-H45": {"pace": 278000000000, "rank": 76, "distance": 10, "time": 2784.5}}, "day": 26, "month": 4, "livingplace": "Lausanne"}}, "location": "Lausanne"}}, "name": "Egger Olivier", "birth": 1969}