{"sex": "M", "races": {"St  Galler Altstadtlauf": {"race": "St  Galler Altstadtlauf", "longitude": 9.3767173, "latitude": 47.4244818, "date": {"sam. 17.09.2005": {"weekday": "saturday", "year": 2005, "categories": {"JunM": {"pace": 216000000000, "rank": 3, "distance": 5, "time": 1124.2}}, "day": 17, "month": 9, "livingplace": "St. Gallen"}}, "location": "St. Gallen"}, "Z\u00fcrich Marathon, Teamrun und Cityrun": {"race": "Z\u00fcrich Marathon, Teamrun und Cityrun", "longitude": 8.541694, "latitude": 47.3768866, "date": {"dim. 07.04.2013": {"weekday": "sunday", "year": 2013, "categories": {"42-M20": {"pace": 240000000000, "rank": 9, "distance": 42, "time": 10151.2}}, "day": 7, "month": 4, "livingplace": "St. Gallen"}}, "location": "Z\u00fcrich"}, "Sierre-Zinal, Sierre": {"race": "Sierre-Zinal, Sierre", "longitude": 7.533536199999999, "latitude": 46.29413110000001, "date": {"dim. 11.08.2013": {"weekday": "sunday", "year": 2013, "categories": {"Elites": {"pace": 430000000000, "rank": 114, "distance": 31, "time": 13356.2}}, "day": 11, "month": 8, "livingplace": "St. Gallen"}}, "location": "Sierre"}, "Tour du Pays de Vaud printanier #3 - Yens": {"race": "Tour du Pays de Vaud printanier #3 - Yens", "longitude": 6.5728678, "latitude": 46.7829756, "date": {"mer. 18.06.2014": {"weekday": "wednesday", "year": 2014, "categories": {"H-Hom": {"pace": 206000000000, "rank": 1, "distance": 9, "time": 1883.2}}, "day": 18, "month": 6, "livingplace": "St. Gallen"}}, "location": "Champvent"}, "Internationaler Matterhornlauf, Zermatt": {"race": "Internationaler Matterhornlauf, Zermatt", "date": {"dim. 21.08.2005": {"weekday": "sunday", "year": 2005, "categories": {"MHL/MJun": {"pace": 345000000000, "rank": 3, "distance": 14, "time": 4960.0}}, "day": 21, "month": 8, "livingplace": "St. Gallen"}}, "location": "Zermatt"}, "Z\u00fcrcher Silvesterlauf, Z\u00fcrich": {"race": "Z\u00fcrcher Silvesterlauf, Z\u00fcrich", "longitude": 8.541694, "latitude": 47.3768866, "date": {"dim. 16.12.2012": {"weekday": "sunday", "year": 2012, "categories": {"Elite M": {"pace": 199000000000, "rank": 54, "distance": 9, "time": 1754.3}}, "day": 16, "month": 12, "livingplace": "St. Gallen"}, "dim. 15.12.2013": {"weekday": "sunday", "year": 2013, "categories": {"Elite M": {"pace": 198000000000, "rank": 45, "distance": 9, "time": 1789.3}}, "day": 15, "month": 12, "livingplace": "St. Gallen"}}, "location": "Z\u00fcrich"}, "20km de Lausanne": {"race": "20km de Lausanne", "longitude": 6.6322734, "latitude": 46.5196535, "date": {"sam. 24.04.2010": {"weekday": "saturday", "year": 2010, "categories": {"20-H20": {"pace": 229000000000, "rank": 21, "distance": 20, "time": 4593.5}}, "day": 24, "month": 4, "livingplace": "St. Gallen"}, "sam. 28.04.2012": {"weekday": "saturday", "year": 2012, "categories": {"20-H20": {"pace": 221000000000, "rank": 11, "distance": 20, "time": 4424.5}}, "day": 28, "month": 4, "livingplace": "St. Gallen"}}, "location": "Lausanne"}}, "name": "Egli Pascal", "birth": 1988}