{"sex": "M", "races": {"Int Greifenseelauf, Uster": {"race": "Int Greifenseelauf, Uster", "longitude": 8.717873899999999, "latitude": 47.3482747, "date": {"sam. 19.09.2009": {"weekday": "saturday", "year": 2009, "categories": {"H-M20": {"pace": 304000000000, "rank": 307, "distance": 21, "time": 6423.8}}, "day": 19, "month": 9, "livingplace": "Windisch"}}, "location": "Uster"}, "Badener Limmat-Lauf, Baden": {"race": "Badener Limmat-Lauf, Baden", "longitude": 8.5303972, "latitude": 48.5699281, "date": {"sam. 29.03.2014": {"weekday": "saturday", "year": 2014, "categories": {"M30": {"pace": 279000000000, "rank": 79, "distance": 13, "time": 3678.3}}, "day": 29, "month": 3, "livingplace": "Windisch"}}, "location": "Baden"}, "GP Fricktal, Eiken": {"race": "GP Fricktal, Eiken", "date": {"sam. 03.04.2010": {"weekday": "saturday", "year": 2010, "categories": {"M20": {"pace": 273000000000, "rank": 24, "distance": 16, "time": 4398.6}}, "day": 3, "month": 4, "livingplace": "Windisch"}}, "location": "Eiken"}, "Pfingstlauf Wohlen AG": {"race": "Pfingstlauf Wohlen AG", "longitude": 8.2768762, "latitude": 47.3493653, "date": {"sam. 22.05.2010": {"weekday": "saturday", "year": 2010, "categories": {"8-M20": {"pace": 276000000000, "rank": 16, "distance": 10, "time": 2764.1}}, "day": 22, "month": 5, "livingplace": "Windisch"}}, "location": "Wohlen AG"}, "Morat-Fribourg": {"race": "Morat-Fribourg", "longitude": 7.120184, "latitude": 46.92922110000001, "date": {"sam. 05.10.2013": {"weekday": "saturday", "year": 2013, "categories": {"17-M20": {"pace": 280000000000, "rank": 706, "distance": 17, "time": 4901.8}}, "day": 5, "month": 10, "livingplace": "Windisch"}}, "location": "Murten"}, "Z\u00fcrcher Silvesterlauf, Z\u00fcrich": {"race": "Z\u00fcrcher Silvesterlauf, Z\u00fcrich", "longitude": 8.541694, "latitude": 47.3768866, "date": {"dim. 12.12.2010": {"weekday": "sunday", "year": 2010, "categories": {"8-MenHK": {"pace": 264000000000, "rank": 226, "distance": 9, "time": 2272.8}}, "day": 12, "month": 12, "livingplace": "Brugg"}, "dim. 15.12.2013": {"weekday": "sunday", "year": 2013, "categories": {"10-M30": {"pace": 269000000000, "rank": 398, "distance": 10, "time": 2690.0}}, "day": 15, "month": 12, "livingplace": "Windisch"}}, "location": "Z\u00fcrich"}}, "name": "Egloff Michael", "birth": 1981}