{"sex": "M", "races": {"Laufsporttag Winterthur": {"race": "Laufsporttag Winterthur", "longitude": -75.6037351, "latitude": 39.8088766, "date": {"sam. 01.03.2014": {"weekday": "saturday", "year": 2014, "categories": {"C": {"pace": 299000000000, "rank": 110, "distance": 11, "time": 3297.2}}, "day": 1, "month": 3, "livingplace": "Zurich"}}, "location": "Winterthur"}, "Z\u00fcrich Marathon, Teamrun und Cityrun": {"race": "Z\u00fcrich Marathon, Teamrun und Cityrun", "longitude": 8.541694, "latitude": 47.3768866, "date": {"dim. 06.04.2014": {"weekday": "sunday", "year": 2014, "categories": {"10-M40": {"pace": 283000000000, "rank": 133, "distance": 10, "time": 2779.8}}, "day": 6, "month": 4, "livingplace": "Zurich"}}, "location": "Z\u00fcrich"}, "Glacier 3000 Run, Gstaad": {"race": "Glacier 3000 Run, Gstaad", "longitude": 7.2865728, "latitude": 46.4717588, "date": {"sam. 09.08.2014": {"weekday": "saturday", "year": 2014, "categories": {"M40": {"pace": 599000000000, "rank": 112, "distance": 26, "time": 15584.4}}, "day": 9, "month": 8, "livingplace": "Zurich"}}, "location": "Gstaad"}, "Aletsch-Halbmarathon, Bettmeralp": {"race": "Aletsch-Halbmarathon, Bettmeralp", "date": {"dim. 28.06.2015": {"weekday": "sunday", "year": 2015, "categories": {"M45": {"pace": 514000000000, "rank": 173, "distance": 21, "time": 10863.8}}, "day": 28, "month": 6, "livingplace": "Zurich"}}, "location": "Bettmeralp"}, "Lenzburger Lauf": {"race": "Lenzburger Lauf", "longitude": 8.172154500000001, "latitude": 47.3904443, "date": {"sam. 24.05.2014": {"weekday": "saturday", "year": 2014, "categories": {"11-M40": {"pace": 306000000000, "rank": 39, "distance": 12, "time": 3560.4}}, "day": 24, "month": 5, "livingplace": "Zurich"}}, "location": "Lenzburg"}, "Dietiker Neujahrslauf, Dietikon": {"race": "Dietiker Neujahrslauf, Dietikon", "longitude": 8.39977, "latitude": 47.4053885, "date": {"sam. 11.01.2014": {"weekday": "saturday", "year": 2014, "categories": {"C": {"pace": 299000000000, "rank": 156, "distance": 12, "time": 3629.7}}, "day": 11, "month": 1, "livingplace": "Zurich"}}, "location": "Dietikon"}, "ASICS Bremgarter Reusslauf": {"race": "ASICS Bremgarter Reusslauf", "longitude": 8.3397905, "latitude": 47.34917739999999, "date": {"sam. 22.02.2014": {"weekday": "saturday", "year": 2014, "categories": {"11-M40": {"pace": 301000000000, "rank": 416, "distance": 11, "time": 3313.3}}, "day": 22, "month": 2, "livingplace": "Zurich"}}, "location": "Bremgarten AG"}, "Winterthur Marathon": {"race": "Winterthur Marathon", "longitude": -75.6037351, "latitude": 39.8088766, "date": {"dim. 31.05.2015": {"weekday": "sunday", "year": 2015, "categories": {"HM-M40": {"pace": 303000000000, "rank": 151, "distance": 21, "time": 6376.9}}, "day": 31, "month": 5, "livingplace": "Zurich"}}, "location": "Winterthur"}, "Flughafenlauf, Kloten": {"race": "Flughafenlauf, Kloten", "date": {"jeu. 29.05.2014": {"weekday": "thursday", "year": 2014, "categories": {"C": {"pace": 310000000000, "rank": 161, "distance": 17, "time": 5277.5}}, "day": 29, "month": 5, "livingplace": "Zurich"}}, "location": "Kloten"}, "Z\u00fcrcher Silvesterlauf, Z\u00fcrich": {"race": "Z\u00fcrcher Silvesterlauf, Z\u00fcrich", "longitude": 8.541694, "latitude": 47.3768866, "date": {"dim. 16.12.2012": {"weekday": "sunday", "year": 2012, "categories": {"8-MM40": {"pace": 330000000000, "rank": 970, "distance": 9, "time": 2844.0}}, "day": 16, "month": 12, "livingplace": "Zurich"}, "dim. 15.12.2013": {"weekday": "sunday", "year": 2013, "categories": {"10-M40": {"pace": 291000000000, "rank": 623, "distance": 10, "time": 2919.8}}, "day": 15, "month": 12, "livingplace": "Zurich"}}, "location": "Z\u00fcrich"}, "SwissCityMarathon - Lucerne, Luzern": {"race": "SwissCityMarathon - Lucerne, Luzern", "longitude": 8.3093072, "latitude": 47.05016819999999, "date": {"dim. 27.10.2013": {"weekday": "sunday", "year": 2013, "categories": {"H-M40": {"pace": 331000000000, "rank": 964, "distance": 21, "time": 6998.4}}, "day": 27, "month": 10, "livingplace": "Zurich"}}, "location": "Luzern"}}, "name": "Eichenberger Urs", "birth": 1967}