{"sex": "F", "races": {"Tour du Chablais #5 Leysin": {"race": "Tour du Chablais #5 Leysin", "longitude": 6.931504599999999, "latitude": 46.3603257, "date": {"mer. 05.05.2010": {"weekday": "wednesday", "year": 2010, "categories": {"F-F50": {"pace": 338000000000, "rank": 8, "distance": 8, "time": 2864.1}}, "day": 5, "month": 5, "livingplace": "Leysin"}}, "location": "Roche VD"}, "Tour du Chablais #4 Yvorne": {"race": "Tour du Chablais #4 Yvorne", "date": {"mer. 28.04.2010": {"weekday": "wednesday", "year": 2010, "categories": {"F-F50": {"pace": 344000000000, "rank": 10, "distance": 8, "time": 2855.5}}, "day": 28, "month": 4, "livingplace": "Leysin"}}, "location": "Les Mosses"}, "Tour du Chablais #3 Bex": {"race": "Tour du Chablais #3 Bex", "longitude": 7.0223787, "latitude": 46.1782231, "date": {"mer. 21.04.2010": {"weekday": "wednesday", "year": 2010, "categories": {"F-F50": {"pace": 329000000000, "rank": 15, "distance": 10, "time": 3293.8}}, "day": 21, "month": 4, "livingplace": "Leysin"}}, "location": "Evionnaz"}, "Tour du Chablais #1 Roche": {"race": "Tour du Chablais #1 Roche", "longitude": 6.9916269, "latitude": 46.2957462, "date": {"mer. 07.04.2010": {"weekday": "wednesday", "year": 2010, "categories": {"F-F50": {"pace": 331000000000, "rank": 17, "distance": 9, "time": 2962.8}}, "day": 7, "month": 4, "livingplace": "Leysin"}}, "location": "Ollon VD"}, "Tour du Chablais #2 St-Gingolph": {"race": "Tour du Chablais #2 St-Gingolph", "longitude": 6.854975199999999, "latitude": 46.3835529, "date": {"mer. 14.04.2010": {"weekday": "wednesday", "year": 2010, "categories": {"F-F50": {"pace": 353000000000, "rank": 11, "distance": 8, "time": 2948.5}}, "day": 14, "month": 4, "livingplace": "Leysin"}}, "location": "Bouveret"}, "Tour du Chablais #6 Mouthey": {"race": "Tour du Chablais #6 Mouthey", "longitude": 6.970566, "latitude": 46.3190253, "date": {"mer. 12.05.2010": {"weekday": "wednesday", "year": 2010, "categories": {"F-F50": {"pace": 307000000000, "rank": 10, "distance": 9, "time": 2824.1}}, "day": 12, "month": 5, "livingplace": "Leysin"}}, "location": "Aigle"}}, "name": "El-Assad Jaep Isabelle", "birth": 1958}