{"sex": "M", "races": {"Tour du Chablais #1 Montreux": {"race": "Tour du Chablais #1 Montreux", "longitude": 6.9916269, "latitude": 46.2957462, "date": {"mer. 11.04.2012": {"weekday": "wednesday", "year": 2012, "categories": {"M-M40": {"pace": 301000000000, "rank": 110, "distance": 8, "time": 2289.3}}, "day": 11, "month": 4, "livingplace": "Leytron"}}, "location": "Ollon VD"}, "Tour du Chablais #2 Yvorne": {"race": "Tour du Chablais #2 Yvorne", "longitude": 6.854975199999999, "latitude": 46.3835529, "date": {"mer. 10.04.2013": {"weekday": "wednesday", "year": 2013, "categories": {"M-M40": {"pace": 296000000000, "rank": 58, "distance": 8, "time": 2374.1}}, "day": 10, "month": 4, "livingplace": "Leytron"}}, "location": "Bouveret"}, "Tour du Chablais #6 Monthey": {"race": "Tour du Chablais #6 Monthey", "longitude": 6.970566, "latitude": 46.3190253, "date": {"mer. 08.05.2013": {"weekday": "wednesday", "year": 2013, "categories": {"M-M40": {"pace": 267000000000, "rank": 63, "distance": 9, "time": 2492.9}}, "day": 8, "month": 5, "livingplace": "Leytron"}}, "location": "Aigle"}, "Tour du Chablais #2 Bex": {"race": "Tour du Chablais #2 Bex", "longitude": 6.854975199999999, "latitude": 46.3835529, "date": {"mer. 18.04.2012": {"weekday": "wednesday", "year": 2012, "categories": {"M-M40": {"pace": 283000000000, "rank": 88, "distance": 8, "time": 2264.8}}, "day": 18, "month": 4, "livingplace": "Leytron"}}, "location": "Bouveret"}, "Tour du Chablais #3 Bouveret": {"race": "Tour du Chablais #3 Bouveret", "longitude": 7.0223787, "latitude": 46.1782231, "date": {"mer. 17.04.2013": {"weekday": "wednesday", "year": 2013, "categories": {"M-M40": {"pace": 287000000000, "rank": 89, "distance": 10, "time": 2872.1}}, "day": 17, "month": 4, "livingplace": "Leytron"}}, "location": "Evionnaz"}, "Tour du Chablais #1 Roche": {"race": "Tour du Chablais #1 Roche", "longitude": 6.9916269, "latitude": 46.2957462, "date": {"mer. 03.04.2013": {"weekday": "wednesday", "year": 2013, "categories": {"M-M40": {"pace": 271000000000, "rank": 72, "distance": 9, "time": 2408.4}}, "day": 3, "month": 4, "livingplace": "Leytron"}}, "location": "Ollon VD"}, "Tour du Chablais #1 Martigny": {"race": "Tour du Chablais #1 Martigny", "longitude": 6.9916269, "latitude": 46.2957462, "date": {"mer. 23.04.2014": {"weekday": "wednesday", "year": 2014, "categories": {"M-M40": {"pace": 261000000000, "rank": 46, "distance": 9, "time": 2225.9}}, "day": 23, "month": 4, "livingplace": "Leytron"}}, "location": "Ollon VD"}, "Tour du Chablais #6 Aigle": {"race": "Tour du Chablais #6 Aigle", "longitude": 6.970566, "latitude": 46.3190253, "date": {"mer. 01.06.2011": {"weekday": "wednesday", "year": 2011, "categories": {"M-M40": {"pace": 277000000000, "rank": 86, "distance": 10, "time": 2832.3}}, "day": 1, "month": 6, "livingplace": "Leytron"}}, "location": "Aigle"}, "Tour du Chablais #4 Morgins": {"race": "Tour du Chablais #4 Morgins", "date": {"mer. 18.05.2011": {"weekday": "wednesday", "year": 2011, "categories": {"M-M40": {"pace": 294000000000, "rank": 76, "distance": 8, "time": 2460.7}}, "day": 18, "month": 5, "livingplace": "Leytron"}}, "location": "Les Mosses"}, "Tour du Chablais #2 St-Gingolph": {"race": "Tour du Chablais #2 St-Gingolph", "longitude": 6.854975199999999, "latitude": 46.3835529, "date": {"mer. 14.04.2010": {"weekday": "wednesday", "year": 2010, "categories": {"M-M40": {"pace": 313000000000, "rank": 111, "distance": 8, "time": 2621.5}}, "day": 14, "month": 4, "livingplace": "Leytron"}}, "location": "Bouveret"}, "Tour du Chablais #5 Morgins": {"race": "Tour du Chablais #5 Morgins", "longitude": 6.931504599999999, "latitude": 46.3603257, "date": {"mer. 01.05.2013": {"weekday": "wednesday", "year": 2013, "categories": {"M-M40": {"pace": 287000000000, "rank": 59, "distance": 8, "time": 2186.4}}, "day": 1, "month": 5, "livingplace": "Leytron"}}, "location": "Roche VD"}, "Tour du Chablais #3 Le Bouveret": {"race": "Tour du Chablais #3 Le Bouveret", "longitude": 7.0223787, "latitude": 46.1782231, "date": {"mer. 11.05.2011": {"weekday": "wednesday", "year": 2011, "categories": {"M-M40": {"pace": 289000000000, "rank": 106, "distance": 10, "time": 2893.9}}, "day": 11, "month": 5, "livingplace": "Leytron"}}, "location": "Evionnaz"}, "Tour du Chablais #4 St  Maurice": {"race": "Tour du Chablais #4 St  Maurice", "date": {"mer. 24.04.2013": {"weekday": "wednesday", "year": 2013, "categories": {"M-M40": {"pace": 276000000000, "rank": 66, "distance": 10, "time": 2763.4}}, "day": 24, "month": 4, "livingplace": "Leytron"}}, "location": "Les Mosses"}, "Tour du Chablais #3 Collombey-Muraz": {"race": "Tour du Chablais #3 Collombey-Muraz", "longitude": 7.0223787, "latitude": 46.1782231, "date": {"mer. 25.04.2012": {"weekday": "wednesday", "year": 2012, "categories": {"M-M40": {"pace": 277000000000, "rank": 78, "distance": 9, "time": 2493.6}}, "day": 25, "month": 4, "livingplace": "Leytron"}}, "location": "Evionnaz"}, "Aletsch-Halbmarathon, Bettmeralp": {"race": "Aletsch-Halbmarathon, Bettmeralp", "date": {"dim. 29.06.2014": {"weekday": "sunday", "year": 2014, "categories": {"M45": {"pace": 369000000000, "rank": 91, "distance": 13, "time": 4917.2}}, "day": 29, "month": 6, "livingplace": "Leytron"}, "dim. 24.06.2007": {"weekday": "sunday", "year": 2007, "categories": {"M30": {"pace": 459000000000, "rank": 155, "distance": 21, "time": 9646.7}}, "day": 24, "month": 6, "livingplace": "Ovronnaz"}}, "location": "Bettmeralp"}}, "name": "Emery Christophe", "birth": 1968}