{"sex": "F", "races": {"Int Greifenseelauf, Uster": {"race": "Int Greifenseelauf, Uster", "longitude": 8.717873899999999, "latitude": 47.3482747, "date": {"sam. 17.09.2005": {"weekday": "saturday", "year": 2005, "categories": {"H/W20": {"pace": 288000000000, "rank": 63, "distance": 21, "time": 6092.2}}, "day": 17, "month": 9, "livingplace": "Fribourg"}}, "location": "Uster"}, "Winterthur Marathon": {"race": "Winterthur Marathon", "longitude": -75.6037351, "latitude": 39.8088766, "date": {"dim. 18.05.2008": {"weekday": "sunday", "year": 2008, "categories": {"HFAktiv": {"pace": 300000000000, "rank": 16, "distance": 21, "time": 6350.3}}, "day": 18, "month": 5, "livingplace": "Alpinrunner.ch"}}, "location": "Winterthur"}, "B\u00fcndner Fr\u00fchlingslauf, Domat   Ems": {"race": "B\u00fcndner Fr\u00fchlingslauf, Domat   Ems", "date": {"sam. 25.04.2009": {"weekday": "saturday", "year": 2009, "categories": {"W30": {"pace": 317000000000, "rank": 13, "distance": 25, "time": 7932.6}}, "day": 25, "month": 4, "livingplace": "Alpinrunner"}}, "location": "Thusis"}, "Thuner Stadtlauf, Thun": {"race": "Thuner Stadtlauf, Thun", "longitude": 7.6279881, "latitude": 46.7579868, "date": {"dim. 24.08.2014": {"weekday": "sunday", "year": 2014, "categories": {"10-F30": {"pace": 277000000000, "rank": 13, "distance": 11, "time": 2992.7}}, "day": 24, "month": 8, "livingplace": "Thun"}}, "location": "Thun"}, "Z\u00fcrich Marathon, Teamrun und Cityrun": {"race": "Z\u00fcrich Marathon, Teamrun und Cityrun", "longitude": 8.541694, "latitude": 47.3768866, "date": {"dim. 01.04.2007": {"weekday": "sunday", "year": 2007, "categories": {"W20": {"pace": 324000000000, "rank": 33, "distance": 42, "time": 13682.2}}, "day": 1, "month": 4, "livingplace": "Chur"}}, "location": "Z\u00fcrich"}, "Morat-Fribourg": {"race": "Morat-Fribourg", "longitude": 7.120184, "latitude": 46.92922110000001, "date": {"dim. 07.10.2001": {"weekday": "sunday", "year": 2001, "categories": {"W20": {"pace": 329000000000, "rank": 141, "distance": 17, "time": 5652.3}}, "day": 7, "month": 10, "livingplace": "Fribourg"}, "sam. 06.10.2012": {"weekday": "saturday", "year": 2012, "categories": {"17-W20": {"pace": 287000000000, "rank": 45, "distance": 17, "time": 5022.1}}, "day": 6, "month": 10, "livingplace": "Fribourg"}}, "location": "Murten"}, "Z\u00fcrcher Silvesterlauf, Z\u00fcrich": {"race": "Z\u00fcrcher Silvesterlauf, Z\u00fcrich", "longitude": 8.541694, "latitude": 47.3768866, "date": {"dim. 16.12.2007": {"weekday": "sunday", "year": 2007, "categories": {"DaHK-8": {"pace": 269000000000, "rank": 37, "distance": 9, "time": 2317.2}}, "day": 16, "month": 12, "livingplace": "Chur"}}, "location": "Z\u00fcrich"}}, "name": "Etter Barbla", "birth": 1978}