{"sex": "M", "races": {"Course de l'Escalade, Gen\u00e8ve": {"race": "Course de l'Escalade, Gen\u00e8ve", "longitude": 6.1431577, "latitude": 46.2043907, "date": {"sam. 01.12.2012": {"weekday": "saturday", "year": 2012, "categories": {"Elite-M": {"pace": 240000000000, "rank": 232, "distance": 7, "time": 1745.3}}, "day": 1, "month": 12, "livingplace": "Dudingen"}}, "location": "Gen\u00e8ve"}, "Corrida Bulloise, Bulle": {"race": "Corrida Bulloise, Bulle", "longitude": 7.057726799999999, "latitude": 46.6154512, "date": {"sam. 17.11.2012": {"weekday": "saturday", "year": 2012, "categories": {"PopHomm": {"pace": 235000000000, "rank": 27, "distance": 6, "time": 1448.2}}, "day": 17, "month": 11, "livingplace": "Dudingen"}}, "location": "Bulle"}, "Hallwilerseelauf, Beinwil am See": {"race": "Hallwilerseelauf, Beinwil am See", "date": {"sam. 15.10.2011": {"weekday": "saturday", "year": 2011, "categories": {"21-M40": {"pace": 251000000000, "rank": 109, "distance": 21, "time": 5316.8}}, "day": 15, "month": 10, "livingplace": "Dudingen"}}, "location": "Beinwil am See"}, "Kerzerslauf": {"race": "Kerzerslauf", "longitude": 7.1954365, "latitude": 46.97488999999999, "date": {"sam. 17.03.2012": {"weekday": "saturday", "year": 2012, "categories": {"15-M40": {"pace": 256000000000, "rank": 117, "distance": 15, "time": 3854.3}}, "day": 17, "month": 3, "livingplace": "Dudingen"}}, "location": "Kerzers"}, "Lucerne Marathon, Luzern": {"race": "Lucerne Marathon, Luzern", "longitude": 8.3093072, "latitude": 47.05016819999999, "date": {"dim. 25.10.2009": {"weekday": "sunday", "year": 2009, "categories": {"M-M30": {"pace": 308000000000, "rank": 244, "distance": 42, "time": 13028.8}}, "day": 25, "month": 10, "livingplace": "Dudingen"}}, "location": "Luzern"}, "Morat-Fribourg": {"race": "Morat-Fribourg", "longitude": 7.120184, "latitude": 46.92922110000001, "date": {"sam. 04.10.2014": {"weekday": "saturday", "year": 2014, "categories": {"8-JoggM": {"pace": 234000000000, "rank": 14, "distance": 9, "time": 2033.0}}, "day": 4, "month": 10, "livingplace": "Dudingen"}}, "location": "Murten"}, "Z\u00fcrcher Silvesterlauf, Z\u00fcrich": {"race": "Z\u00fcrcher Silvesterlauf, Z\u00fcrich", "longitude": 8.541694, "latitude": 47.3768866, "date": {"dim. 14.12.2008": {"weekday": "sunday", "year": 2008, "categories": {"MenAK1-8": {"pace": 264000000000, "rank": 318, "distance": 9, "time": 2271.2}}, "day": 14, "month": 12, "livingplace": "Dudingen"}}, "location": "Z\u00fcrich"}, "BCN Tour Neuch\u00e2tel": {"race": "BCN Tour Neuch\u00e2tel", "longitude": 6.9292732, "latitude": 46.9899874, "date": {"mer. 30.05.2012": {"weekday": "wednesday", "year": 2012, "categories": {"HS2": {"pace": 275000000000, "rank": 44, "distance": 11, "time": 3081.5}}, "day": 30, "month": 5, "livingplace": "Dudingen"}}, "location": "Neuch\u00e2tel"}, "IWB Basel Marathon": {"race": "IWB Basel Marathon", "longitude": 7.5885761, "latitude": 47.5595986, "date": {"dim. 22.09.2013": {"weekday": "sunday", "year": 2013, "categories": {"M-42-M40": {"pace": 256000000000, "rank": 2, "distance": 42, "time": 10804.6}}, "day": 22, "month": 9, "livingplace": "Dudingen"}}, "location": "Basel"}, "Steinh\u00f6lzlilauf, Liebefeld": {"race": "Steinh\u00f6lzlilauf, Liebefeld", "longitude": 7.416668, "latitude": 46.933331, "date": {"dim. 07.12.2008": {"weekday": "sunday", "year": 2008, "categories": {"SenMI": {"pace": 262000000000, "rank": 20, "distance": 11, "time": 2759.3}}, "day": 7, "month": 12, "livingplace": "Dudingen"}}, "location": "Liebefeld"}, "Course de l'Avent, Yverdon": {"race": "Course de l'Avent, Yverdon", "longitude": 7.161971899999999, "latitude": 46.8064773, "date": {"dim. 28.11.2010": {"weekday": "sunday", "year": 2010, "categories": {"P-H43": {"pace": 227000000000, "rank": 1, "distance": 6, "time": 1400.4}}, "day": 28, "month": 11, "livingplace": "Dudingen"}, "dim. 27.11.2011": {"weekday": "sunday", "year": 2011, "categories": {"P-H3": {"pace": 228000000000, "rank": 3, "distance": 6, "time": 1407.6}}, "day": 27, "month": 11, "livingplace": "Dudingen"}}, "location": "Fribourg"}, "Lausanne Marathon": {"race": "Lausanne Marathon", "longitude": 6.6322734, "latitude": 46.5196535, "date": {"dim. 31.10.2010": {"weekday": "sunday", "year": 2010, "categories": {"21-H2": {"pace": 251000000000, "rank": 85, "distance": 21, "time": 5298.5}}, "day": 31, "month": 10, "livingplace": "Lustorf"}}, "location": "Lausanne"}}, "name": "Evans Darren", "birth": 1971}