{"sex": "M", "races": {"Tour du Chablais #6 Aigle": {"race": "Tour du Chablais #6 Aigle", "longitude": 6.970566, "latitude": 46.3190253, "date": {"mer. 01.06.2011": {"weekday": "wednesday", "year": 2011, "categories": {"M-M40": {"pace": 254000000000, "rank": 44, "distance": 10, "time": 2596.8}}, "day": 1, "month": 6, "livingplace": "St Gingolph"}}, "location": "Aigle"}, "Tour du Chablais #1 Lavey": {"race": "Tour du Chablais #1 Lavey", "longitude": 6.9916269, "latitude": 46.2957462, "date": {"mer. 27.04.2011": {"weekday": "wednesday", "year": 2011, "categories": {"M-M40": {"pace": 262000000000, "rank": 56, "distance": 9, "time": 2363.8}}, "day": 27, "month": 4, "livingplace": "St Gingolph"}}, "location": "Ollon VD"}, "Tour du Chablais #1 Roche": {"race": "Tour du Chablais #1 Roche", "longitude": 6.9916269, "latitude": 46.2957462, "date": {"mer. 07.04.2010": {"weekday": "wednesday", "year": 2010, "categories": {"M-M20": {"pace": 246000000000, "rank": 69, "distance": 9, "time": 2209.9}}, "day": 7, "month": 4, "livingplace": "St Gingolph"}}, "location": "Ollon VD"}, "Tour du Chablais #3 Le Bouveret": {"race": "Tour du Chablais #3 Le Bouveret", "longitude": 7.0223787, "latitude": 46.1782231, "date": {"mer. 11.05.2011": {"weekday": "wednesday", "year": 2011, "categories": {"M-M40": {"pace": 258000000000, "rank": 54, "distance": 10, "time": 2589.9}}, "day": 11, "month": 5, "livingplace": "St Gingolph"}}, "location": "Evionnaz"}, "Tour du Chablais #2 St-Gingolph": {"race": "Tour du Chablais #2 St-Gingolph", "longitude": 6.854975199999999, "latitude": 46.3835529, "date": {"mer. 14.04.2010": {"weekday": "wednesday", "year": 2010, "categories": {"M-M20": {"pace": 268000000000, "rank": 55, "distance": 8, "time": 2240.9}}, "day": 14, "month": 4, "livingplace": "St Gingolph"}}, "location": "Bouveret"}, "Morat-Fribourg": {"race": "Morat-Fribourg", "longitude": 7.120184, "latitude": 46.92922110000001, "date": {"sam. 01.10.2011": {"weekday": "saturday", "year": 2011, "categories": {"17-M40": {"pace": 301000000000, "rank": 331, "distance": 17, "time": 5184.1}}, "day": 1, "month": 10, "livingplace": "St Gingolph"}, "sam. 02.10.2010": {"weekday": "saturday", "year": 2010, "categories": {"17-M20": {"pace": 310000000000, "rank": 1079, "distance": 17, "time": 5334.8}}, "day": 2, "month": 10, "livingplace": "St Gingolph"}}, "location": "Murten"}, "Lausanne Marathon": {"race": "Lausanne Marathon", "longitude": 6.6322734, "latitude": 46.5196535, "date": {"dim. 31.10.2010": {"weekday": "sunday", "year": 2010, "categories": {"42-H2": {"pace": 333000000000, "rank": 218, "distance": 42, "time": 14071.0}}, "day": 31, "month": 10, "livingplace": "St Gingolph"}}, "location": "Lausanne"}, "Tour du Chablais #4 Morgins": {"race": "Tour du Chablais #4 Morgins", "date": {"mer. 18.05.2011": {"weekday": "wednesday", "year": 2011, "categories": {"M-M40": {"pace": 278000000000, "rank": 54, "distance": 8, "time": 2321.7}}, "day": 18, "month": 5, "livingplace": "St Gingolph"}}, "location": "Les Mosses"}, "Tour du Chablais #2 Rennaz": {"race": "Tour du Chablais #2 Rennaz", "longitude": 6.854975199999999, "latitude": 46.3835529, "date": {"mer. 04.05.2011": {"weekday": "wednesday", "year": 2011, "categories": {"M-M40": {"pace": 256000000000, "rank": 57, "distance": 9, "time": 2401.5}}, "day": 4, "month": 5, "livingplace": "St Gingolph"}}, "location": "Bouveret"}}, "name": "Fai Bruno", "birth": 1971}