{"sex": "M", "races": {"BCN Tour #3 Dombresson": {"race": "BCN Tour #3 Dombresson", "longitude": 6.733554799999999, "latitude": 46.999113, "date": {"mer. 08.05.2013": {"weekday": "wednesday", "year": 2013, "categories": {"HS2": {"pace": 331000000000, "rank": 289, "distance": 10, "time": 3279.5}}, "day": 8, "month": 5, "livingplace": "Neuchatel"}}, "location": "Les Ponts-de-Martel"}, "BCN Tour #1 Corcelles": {"race": "BCN Tour #1 Corcelles", "longitude": 6.8589727, "latitude": 46.9668714, "date": {"mer. 24.04.2013": {"weekday": "wednesday", "year": 2013, "categories": {"HS2": {"pace": 346000000000, "rank": 272, "distance": 10, "time": 3398.4}}, "day": 24, "month": 4, "livingplace": "Neuchatel"}}, "location": "Colombier NE"}, "BCN Tour M\u00f4tier": {"race": "BCN Tour M\u00f4tier", "longitude": 6.6324944, "latitude": 46.9262933, "date": {"mer. 19.05.2010": {"weekday": "wednesday", "year": 2010, "categories": {"HS2": {"pace": 313000000000, "rank": 193, "distance": 10, "time": 3105.5}}, "day": 19, "month": 5, "livingplace": "Neuchatel"}}, "location": "Couvet"}, "BCN Tour Auvernier": {"race": "BCN Tour Auvernier", "longitude": 6.8589727, "latitude": 46.9668714, "date": {"mer. 20.04.2011": {"weekday": "wednesday", "year": 2011, "categories": {"HS2": {"pace": 356000000000, "rank": 246, "distance": 11, "time": 3854.9}}, "day": 20, "month": 4, "livingplace": "Neuchatel"}}, "location": "Colombier NE"}, "La Trotteuse-Tissot, La Chaux-de-Fonds": {"race": "La Trotteuse-Tissot, La Chaux-de-Fonds", "longitude": 6.832783800000001, "latitude": 47.1034892, "date": {"sam. 12.12.2015": {"weekday": "saturday", "year": 2015, "categories": {"GC-H40": {"pace": 357000000000, "rank": 247, "distance": 8, "time": 2861.7}}, "day": 12, "month": 12, "livingplace": "Montmollin"}}, "location": "La Chaux-de-Fonds"}, "BCN Tour Le Landeron": {"race": "BCN Tour Le Landeron", "longitude": 6.8589727, "latitude": 46.9668714, "date": {"mer. 22.04.2009": {"weekday": "wednesday", "year": 2009, "categories": {"HS1": {"pace": 348000000000, "rank": 191, "distance": 11, "time": 3873.0}}, "day": 22, "month": 4, "livingplace": "Neuchatel"}}, "location": "Colombier NE"}, "BCN Tour Fontaine Cernier": {"race": "BCN Tour Fontaine Cernier", "longitude": 6.9175754, "latitude": 47.0624261, "date": {"mer. 27.04.2011": {"weekday": "wednesday", "year": 2011, "categories": {"HS2": {"pace": 318000000000, "rank": 235, "distance": 10, "time": 3281.2}}, "day": 27, "month": 4, "livingplace": "Neuchatel"}}, "location": "Ch\u00e9zard-St-Martin"}, "BCN Tour #5 Colombier": {"race": "BCN Tour #5 Colombier", "longitude": 6.6324944, "latitude": 46.9262933, "date": {"mer. 22.05.2013": {"weekday": "wednesday", "year": 2013, "categories": {"HS2": {"pace": 323000000000, "rank": 304, "distance": 11, "time": 3395.9}}, "day": 22, "month": 5, "livingplace": "Neuchatel"}}, "location": "Couvet"}, "BCN Tour Ponts-de-Martel": {"race": "BCN Tour Ponts-de-Martel", "longitude": 6.9175754, "latitude": 47.0624261, "date": {"mer. 28.04.2010": {"weekday": "wednesday", "year": 2010, "categories": {"HS2": {"pace": 353000000000, "rank": 243, "distance": 11, "time": 3954.6}}, "day": 28, "month": 4, "livingplace": "Neuchatel"}}, "location": "Ch\u00e9zard-St-Martin"}, "BCN Tour #2 La Chaux-de-Fonds": {"race": "BCN Tour #2 La Chaux-de-Fonds", "longitude": 6.9175754, "latitude": 47.0624261, "date": {"mer. 01.05.2013": {"weekday": "wednesday", "year": 2013, "categories": {"HS2": {"pace": 333000000000, "rank": 283, "distance": 11, "time": 3564.0}}, "day": 1, "month": 5, "livingplace": "Neuchatel"}}, "location": "Ch\u00e9zard-St-Martin"}, "BCN Tour Neuch\u00e2tel": {"race": "BCN Tour Neuch\u00e2tel", "longitude": 6.9292732, "latitude": 46.9899874, "date": {"mer. 25.05.2011": {"weekday": "wednesday", "year": 2011, "categories": {"HS2": {"pace": 343000000000, "rank": 218, "distance": 11, "time": 3910.8}}, "day": 25, "month": 5, "livingplace": "Neuchatel"}, "mer. 26.05.2010": {"weekday": "wednesday", "year": 2010, "categories": {"HS2": {"pace": 389000000000, "rank": 203, "distance": 10, "time": 3774.4}}, "day": 26, "month": 5, "livingplace": "Neuchatel"}}, "location": "Neuch\u00e2tel"}, "BCN Tour Le Locle": {"race": "BCN Tour Le Locle", "longitude": 6.733554799999999, "latitude": 46.999113, "date": {"mer. 05.05.2010": {"weekday": "wednesday", "year": 2010, "categories": {"HS2": {"pace": 373000000000, "rank": 244, "distance": 11, "time": 4074.4}}, "day": 5, "month": 5, "livingplace": "Neuchatel"}}, "location": "Les Ponts-de-Martel"}, "BCN Tour #6 Neuch\u00e2tel": {"race": "BCN Tour #6 Neuch\u00e2tel", "longitude": 6.9292732, "latitude": 46.9899874, "date": {"mer. 29.05.2013": {"weekday": "wednesday", "year": 2013, "categories": {"HS2": {"pace": 388000000000, "rank": 310, "distance": 11, "time": 4268.7}}, "day": 29, "month": 5, "livingplace": "Neuchatel"}}, "location": "Neuch\u00e2tel"}, "BCN Tour La Chaux-de-Fonds": {"race": "BCN Tour La Chaux-de-Fonds", "longitude": 6.832783800000001, "latitude": 47.1034892, "date": {"mer. 11.05.2011": {"weekday": "wednesday", "year": 2011, "categories": {"HS2": {"pace": 389000000000, "rank": 245, "distance": 11, "time": 4170.1}}, "day": 11, "month": 5, "livingplace": "Neuchatel"}}, "location": "La Chaux-de-Fonds"}, "BCN Tour Colombier": {"race": "BCN Tour Colombier", "longitude": 6.8589727, "latitude": 46.9668714, "date": {"mer. 21.04.2010": {"weekday": "wednesday", "year": 2010, "categories": {"HS2": {"pace": 372000000000, "rank": 237, "distance": 10, "time": 3721.6}}, "day": 21, "month": 4, "livingplace": "Neuchatel"}, "mer. 23.04.2008": {"weekday": "wednesday", "year": 2008, "categories": {"HS1": {"pace": 332000000000, "rank": 146, "distance": 10, "time": 3394.7}}, "day": 23, "month": 4, "livingplace": "Pinfo I"}}, "location": "Colombier NE"}, "Aletsch-Halbmarathon, Bettmeralp": {"race": "Aletsch-Halbmarathon, Bettmeralp", "date": {"dim. 24.06.2007": {"weekday": "sunday", "year": 2007, "categories": {"M30": {"pace": 492000000000, "rank": 195, "distance": 21, "time": 10350.4}}, "day": 24, "month": 6, "livingplace": "Nechatel"}}, "location": "Bettmeralp"}, "BCN Tour La Chaux-de-fonds": {"race": "BCN Tour La Chaux-de-fonds", "longitude": 6.832783800000001, "latitude": 47.1034892, "date": {"mer. 12.05.2010": {"weekday": "wednesday", "year": 2010, "categories": {"HS2": {"pace": 412000000000, "rank": 209, "distance": 11, "time": 4414.1}}, "day": 12, "month": 5, "livingplace": "Neuchatel"}}, "location": "La Chaux-de-Fonds"}}, "name": "Fasel Pascal", "birth": 1970}