{"sex": "F", "races": {"BCN Tour #4 Fleurier": {"race": "BCN Tour #4 Fleurier", "longitude": 6.832783800000001, "latitude": 47.1034892, "date": {"mer. 15.05.2013": {"weekday": "wednesday", "year": 2013, "categories": {"DJ": {"pace": 260000000000, "rank": 1, "distance": 9, "time": 2256.5}}, "day": 15, "month": 5, "livingplace": "Dombresson"}}, "location": "La Chaux-de-Fonds"}, "BCN Tour #3 Dombresson": {"race": "BCN Tour #3 Dombresson", "longitude": 6.733554799999999, "latitude": 46.999113, "date": {"mer. 08.05.2013": {"weekday": "wednesday", "year": 2013, "categories": {"DJ": {"pace": 261000000000, "rank": 1, "distance": 10, "time": 2587.4}}, "day": 8, "month": 5, "livingplace": "Dombresson"}}, "location": "Les Ponts-de-Martel"}, "Groupe E Tour Fribourg #1 Gurmels": {"race": "Groupe E Tour Fribourg #1 Gurmels", "longitude": 6.977279999999999, "latitude": 46.81832, "date": {"mer. 29.08.2012": {"weekday": "wednesday", "year": 2012, "categories": {"DJ": {"pace": 295000000000, "rank": 1, "distance": 8, "time": 2478.3}}, "day": 29, "month": 8, "livingplace": "Dombresson"}}, "location": "Cousset"}, "BCN Tour La Chaux-de-Fonds": {"race": "BCN Tour La Chaux-de-Fonds", "longitude": 6.832783800000001, "latitude": 47.1034892, "date": {"mer. 11.05.2011": {"weekday": "wednesday", "year": 2011, "categories": {"DJ": {"pace": 337000000000, "rank": 4, "distance": 11, "time": 3615.6}}, "day": 11, "month": 5, "livingplace": "Dombresson"}, "mer. 23.05.2012": {"weekday": "wednesday", "year": 2012, "categories": {"DJ": {"pace": 278000000000, "rank": 1, "distance": 11, "time": 3002.9}}, "day": 23, "month": 5, "livingplace": "Dombresson"}}, "location": "La Chaux-de-Fonds"}, "BCN Tour Auvernier": {"race": "BCN Tour Auvernier", "longitude": 6.8589727, "latitude": 46.9668714, "date": {"mer. 20.04.2011": {"weekday": "wednesday", "year": 2011, "categories": {"DJ": {"pace": 324000000000, "rank": 6, "distance": 11, "time": 3507.9}}, "day": 20, "month": 4, "livingplace": "Dombresson"}}, "location": "Colombier NE"}, "D\u00e9fi Val-de-Travers, Couvet": {"race": "D\u00e9fi Val-de-Travers, Couvet", "longitude": 6.6324944, "latitude": 46.9262933, "date": {"sam. 19.06.2010": {"weekday": "saturday", "year": 2010, "categories": {"FCB": {"pace": 253000000000, "rank": 2, "distance": 3, "time": 748.9}}, "day": 19, "month": 6, "livingplace": "Dombresson"}}, "location": "Couvet"}, "Morat-Fribourg": {"race": "Morat-Fribourg", "longitude": 7.120184, "latitude": 46.92922110000001, "date": {"sam. 03.10.2015": {"weekday": "saturday", "year": 2015, "categories": {"17-W20": {"pace": 261000000000, "rank": 14, "distance": 17, "time": 4486.6}}, "day": 3, "month": 10, "livingplace": "Dombresson"}}, "location": "Murten"}, "BCN Tour Fontaine Cernier": {"race": "BCN Tour Fontaine Cernier", "longitude": 6.9175754, "latitude": 47.0624261, "date": {"mer. 27.04.2011": {"weekday": "wednesday", "year": 2011, "categories": {"DJ": {"pace": 285000000000, "rank": 5, "distance": 10, "time": 2940.5}}, "day": 27, "month": 4, "livingplace": "Dombresson"}}, "location": "Ch\u00e9zard-St-Martin"}, "BCN Tour Couvet": {"race": "BCN Tour Couvet", "longitude": 6.9175754, "latitude": 47.0624261, "date": {"mer. 02.05.2012": {"weekday": "wednesday", "year": 2012, "categories": {"DJ": {"pace": 292000000000, "rank": 1, "distance": 11, "time": 3261.2}}, "day": 2, "month": 5, "livingplace": "Dombresson"}}, "location": "Ch\u00e9zard-St-Martin"}, "BCN Tour #2 La Chaux-de-Fonds": {"race": "BCN Tour #2 La Chaux-de-Fonds", "longitude": 6.9175754, "latitude": 47.0624261, "date": {"mer. 01.05.2013": {"weekday": "wednesday", "year": 2013, "categories": {"DJ": {"pace": 272000000000, "rank": 1, "distance": 11, "time": 2913.1}}, "day": 1, "month": 5, "livingplace": "Dombresson"}}, "location": "Ch\u00e9zard-St-Martin"}, "BCN Tour Cornaux": {"race": "BCN Tour Cornaux", "longitude": 6.8589727, "latitude": 46.9668714, "date": {"mer. 25.04.2012": {"weekday": "wednesday", "year": 2012, "categories": {"DJ": {"pace": 307000000000, "rank": 1, "distance": 11, "time": 3377.0}}, "day": 25, "month": 4, "livingplace": "Dombresson"}}, "location": "Colombier NE"}, "BCN Tour #5 Colombier": {"race": "BCN Tour #5 Colombier", "longitude": 6.6324944, "latitude": 46.9262933, "date": {"mer. 22.05.2013": {"weekday": "wednesday", "year": 2013, "categories": {"DJ": {"pace": 254000000000, "rank": 1, "distance": 11, "time": 2671.6}}, "day": 22, "month": 5, "livingplace": "Dombresson"}}, "location": "Couvet"}, "BCN Tour #1 Corcelles": {"race": "BCN Tour #1 Corcelles", "longitude": 6.8589727, "latitude": 46.9668714, "date": {"mer. 24.04.2013": {"weekday": "wednesday", "year": 2013, "categories": {"DJ": {"pace": 273000000000, "rank": 1, "distance": 10, "time": 2683.6}}, "day": 24, "month": 4, "livingplace": "Dombresson"}}, "location": "Colombier NE"}, "BCN Tour Neuch\u00e2tel": {"race": "BCN Tour Neuch\u00e2tel", "longitude": 6.9292732, "latitude": 46.9899874, "date": {"mer. 30.05.2012": {"weekday": "wednesday", "year": 2012, "categories": {"DJ": {"pace": 314000000000, "rank": 1, "distance": 11, "time": 3525.2}}, "day": 30, "month": 5, "livingplace": "Dombresson"}}, "location": "Neuch\u00e2tel"}, "Groupe E Tour Fribourg #5 Fribourg": {"race": "Groupe E Tour Fribourg #5 Fribourg", "longitude": 7.131657799999999, "latitude": 46.8128615, "date": {"mer. 26.09.2012": {"weekday": "wednesday", "year": 2012, "categories": {"DJ": {"pace": 278000000000, "rank": 1, "distance": 11, "time": 2975.9}}, "day": 26, "month": 9, "livingplace": "Dombresson"}}, "location": "Givisiez"}, "BCN Tour #6 Neuch\u00e2tel": {"race": "BCN Tour #6 Neuch\u00e2tel", "longitude": 6.9292732, "latitude": 46.9899874, "date": {"mer. 29.05.2013": {"weekday": "wednesday", "year": 2013, "categories": {"DJ": {"pace": 275000000000, "rank": 1, "distance": 11, "time": 3030.4}}, "day": 29, "month": 5, "livingplace": "Dombresson"}}, "location": "Neuch\u00e2tel"}, "BCN Tour Colombier": {"race": "BCN Tour Colombier", "longitude": 6.832783800000001, "latitude": 47.1034892, "date": {"mer. 16.05.2012": {"weekday": "wednesday", "year": 2012, "categories": {"DJ": {"pace": 278000000000, "rank": 1, "distance": 11, "time": 3004.2}}, "day": 16, "month": 5, "livingplace": "Dombresson"}}, "location": "La Chaux-de-Fonds"}, "BCN Tour Les Ponts-de-Martel": {"race": "BCN Tour Les Ponts-de-Martel", "longitude": 6.733554799999999, "latitude": 46.999113, "date": {"mer. 09.05.2012": {"weekday": "wednesday", "year": 2012, "categories": {"DJ": {"pace": 285000000000, "rank": 4, "distance": 10, "time": 2936.9}}, "day": 9, "month": 5, "livingplace": "Dombresson"}}, "location": "Les Ponts-de-Martel"}, "Course p\u00e9destre Thyon-Dixence, Thyon": {"race": "Course p\u00e9destre Thyon-Dixence, Thyon", "date": {"dim. 02.08.2015": {"weekday": "sunday", "year": 2015, "categories": {"FemElite": {"pace": 390000000000, "rank": 11, "distance": 16, "time": 6387.2}}, "day": 2, "month": 8, "livingplace": "Dombresson"}}, "location": "Thyon-Les Collons"}}, "name": "Fatton Marianne", "birth": 1995}