{"sex": "M", "races": {"Tour du Chablais #5 Les Mosses": {"race": "Tour du Chablais #5 Les Mosses", "longitude": 6.931504599999999, "latitude": 46.3603257, "date": {"mer. 25.05.2011": {"weekday": "wednesday", "year": 2011, "categories": {"M-M40": {"pace": 252000000000, "rank": 15, "distance": 8, "time": 2016.3}}, "day": 25, "month": 5, "livingplace": "Chatel"}}, "location": "Roche VD"}, "Tour du Chablais #1 Lavey": {"race": "Tour du Chablais #1 Lavey", "longitude": 6.9916269, "latitude": 46.2957462, "date": {"mer. 27.04.2011": {"weekday": "wednesday", "year": 2011, "categories": {"M-M40": {"pace": 242000000000, "rank": 28, "distance": 9, "time": 2184.6}}, "day": 27, "month": 4, "livingplace": "Chatel"}}, "location": "Ollon VD"}, "Tour du Chablais #3 Le Bouveret": {"race": "Tour du Chablais #3 Le Bouveret", "longitude": 7.0223787, "latitude": 46.1782231, "date": {"mer. 11.05.2011": {"weekday": "wednesday", "year": 2011, "categories": {"M-M40": {"pace": 249000000000, "rank": 35, "distance": 10, "time": 2499.4}}, "day": 11, "month": 5, "livingplace": "Chatel"}}, "location": "Evionnaz"}, "Morat-Fribourg": {"race": "Morat-Fribourg", "longitude": 7.120184, "latitude": 46.92922110000001, "date": {"sam. 03.10.2009": {"weekday": "saturday", "year": 2009, "categories": {"C-M45": {"pace": 289000000000, "rank": 213, "distance": 17, "time": 4973.0}}, "day": 3, "month": 10, "livingplace": "Chatel"}}, "location": "Murten"}, "Tour du Chablais #6 Aigle": {"race": "Tour du Chablais #6 Aigle", "longitude": 6.970566, "latitude": 46.3190253, "date": {"mer. 01.06.2011": {"weekday": "wednesday", "year": 2011, "categories": {"M-M40": {"pace": 239000000000, "rank": 23, "distance": 10, "time": 2442.1}}, "day": 1, "month": 6, "livingplace": "Chatel"}}, "location": "Aigle"}, "Tour du Chablais #4 Morgins": {"race": "Tour du Chablais #4 Morgins", "date": {"mer. 18.05.2011": {"weekday": "wednesday", "year": 2011, "categories": {"M-M40": {"pace": 255000000000, "rank": 21, "distance": 8, "time": 2132.9}}, "day": 18, "month": 5, "livingplace": "Chatel"}}, "location": "Les Mosses"}}, "name": "Favre-F\u00e9lix Michel", "birth": 1963}