{"sex": "M", "races": {"Course de l'Escalade, Gen\u00e8ve": {"race": "Course de l'Escalade, Gen\u00e8ve", "longitude": 6.1431577, "latitude": 46.2043907, "date": {"sam. 03.12.2005": {"weekday": "saturday", "year": 2005, "categories": {"Hommes1": {"pace": 283000000000, "rank": 508, "distance": 7, "time": 2057.2}}, "day": 3, "month": 12, "livingplace": "Collonges"}}, "location": "Gen\u00e8ve"}, "Tour du Chablais #4 Champ\u00e9ry": {"race": "Tour du Chablais #4 Champ\u00e9ry", "date": {"mer. 02.05.2012": {"weekday": "wednesday", "year": 2012, "categories": {"M-M20": {"pace": 259000000000, "rank": 81, "distance": 8, "time": 2155.9}}, "day": 2, "month": 5, "livingplace": "Collonges"}}, "location": "Les Mosses"}, "Tour du Chablais #4 Yvorne": {"race": "Tour du Chablais #4 Yvorne", "date": {"mer. 28.04.2010": {"weekday": "wednesday", "year": 2010, "categories": {"M-M20": {"pace": 289000000000, "rank": 105, "distance": 8, "time": 2396.4}}, "day": 28, "month": 4, "livingplace": "Collonges"}}, "location": "Les Mosses"}, "Tour du Chablais #3 Bouveret": {"race": "Tour du Chablais #3 Bouveret", "longitude": 7.0223787, "latitude": 46.1782231, "date": {"mer. 17.04.2013": {"weekday": "wednesday", "year": 2013, "categories": {"M-M20": {"pace": 280000000000, "rank": 120, "distance": 10, "time": 2807.2}}, "day": 17, "month": 4, "livingplace": "Evionnaz"}}, "location": "Evionnaz"}, "Tour du Chablais #3 Collombey-Muraz": {"race": "Tour du Chablais #3 Collombey-Muraz", "longitude": 7.0223787, "latitude": 46.1782231, "date": {"mer. 25.04.2012": {"weekday": "wednesday", "year": 2012, "categories": {"M-M20": {"pace": 261000000000, "rank": 85, "distance": 9, "time": 2345.6}}, "day": 25, "month": 4, "livingplace": "Collonges"}}, "location": "Evionnaz"}, "Tour du Chablais #2 Bex": {"race": "Tour du Chablais #2 Bex", "longitude": 6.854975199999999, "latitude": 46.3835529, "date": {"mer. 18.04.2012": {"weekday": "wednesday", "year": 2012, "categories": {"M-M20": {"pace": 272000000000, "rank": 105, "distance": 8, "time": 2180.0}}, "day": 18, "month": 4, "livingplace": "Collonges"}}, "location": "Bouveret"}, "Tour du Chablais #6 Montreux": {"race": "Tour du Chablais #6 Montreux", "longitude": 6.970566, "latitude": 46.3190253, "date": {"mer. 16.05.2012": {"weekday": "wednesday", "year": 2012, "categories": {"M-M20": {"pace": 258000000000, "rank": 97, "distance": 9, "time": 2394.2}}, "day": 16, "month": 5, "livingplace": "Collonges"}}, "location": "Aigle"}, "Tour du Chablais #6 Aigle": {"race": "Tour du Chablais #6 Aigle", "longitude": 6.970566, "latitude": 46.3190253, "date": {"mer. 01.06.2011": {"weekday": "wednesday", "year": 2011, "categories": {"M-M20": {"pace": 259000000000, "rank": 112, "distance": 10, "time": 2651.0}}, "day": 1, "month": 6, "livingplace": "Collonges"}}, "location": "Aigle"}, "Tour du Chablais #4 Morgins": {"race": "Tour du Chablais #4 Morgins", "date": {"mer. 18.05.2011": {"weekday": "wednesday", "year": 2011, "categories": {"M-M20": {"pace": 285000000000, "rank": 113, "distance": 8, "time": 2380.9}}, "day": 18, "month": 5, "livingplace": "Collonges"}}, "location": "Les Mosses"}, "Tour du Chablais #6 Mouthey": {"race": "Tour du Chablais #6 Mouthey", "longitude": 6.970566, "latitude": 46.3190253, "date": {"mer. 12.05.2010": {"weekday": "wednesday", "year": 2010, "categories": {"M-M20": {"pace": 271000000000, "rank": 126, "distance": 9, "time": 2495.4}}, "day": 12, "month": 5, "livingplace": "Collonges"}}, "location": "Aigle"}, "Tour du Chablais #1 Montreux": {"race": "Tour du Chablais #1 Montreux", "longitude": 6.9916269, "latitude": 46.2957462, "date": {"mer. 11.04.2012": {"weekday": "wednesday", "year": 2012, "categories": {"M-M20": {"pace": 274000000000, "rank": 91, "distance": 8, "time": 2083.0}}, "day": 11, "month": 4, "livingplace": "Collonges"}}, "location": "Ollon VD"}, "Tour du Chablais #5 Les Mosses": {"race": "Tour du Chablais #5 Les Mosses", "longitude": 6.931504599999999, "latitude": 46.3603257, "date": {"mer. 25.05.2011": {"weekday": "wednesday", "year": 2011, "categories": {"M-M20": {"pace": 259000000000, "rank": 53, "distance": 8, "time": 2074.1}}, "day": 25, "month": 5, "livingplace": "Collonges"}}, "location": "Roche VD"}, "Tour du Chablais #1 Lavey": {"race": "Tour du Chablais #1 Lavey", "longitude": 6.9916269, "latitude": 46.2957462, "date": {"mer. 27.04.2011": {"weekday": "wednesday", "year": 2011, "categories": {"M-M20": {"pace": 267000000000, "rank": 104, "distance": 9, "time": 2408.1}}, "day": 27, "month": 4, "livingplace": "Collonges"}}, "location": "Ollon VD"}, "Tour du Chablais #3 Le Bouveret": {"race": "Tour du Chablais #3 Le Bouveret", "longitude": 7.0223787, "latitude": 46.1782231, "date": {"mer. 11.05.2011": {"weekday": "wednesday", "year": 2011, "categories": {"M-M20": {"pace": 269000000000, "rank": 130, "distance": 10, "time": 2695.2}}, "day": 11, "month": 5, "livingplace": "Collonges"}}, "location": "Evionnaz"}, "Tour du Chablais #2 St-Gingolph": {"race": "Tour du Chablais #2 St-Gingolph", "longitude": 6.854975199999999, "latitude": 46.3835529, "date": {"mer. 14.04.2010": {"weekday": "wednesday", "year": 2010, "categories": {"M-M20": {"pace": 289000000000, "rank": 86, "distance": 8, "time": 2418.5}}, "day": 14, "month": 4, "livingplace": "Collonges"}}, "location": "Bouveret"}, "Tour du Chablais #2 Rennaz": {"race": "Tour du Chablais #2 Rennaz", "longitude": 6.854975199999999, "latitude": 46.3835529, "date": {"mer. 04.05.2011": {"weekday": "wednesday", "year": 2011, "categories": {"M-M20": {"pace": 279000000000, "rank": 143, "distance": 9, "time": 2610.3}}, "day": 4, "month": 5, "livingplace": "Collonges"}}, "location": "Bouveret"}}, "name": "Ferrin Dominique", "birth": 1977}