{"sex": "M", "races": {"BCN Tour Neuch\u00e2tel": {"race": "BCN Tour Neuch\u00e2tel", "longitude": 6.9292732, "latitude": 46.9899874, "date": {"mer. 26.05.2010": {"weekday": "wednesday", "year": 2010, "categories": {"HE": {"pace": 283000000000, "rank": 52, "distance": 10, "time": 2752.2}}, "day": 26, "month": 5, "livingplace": "Neuchatel"}}, "location": "Neuch\u00e2tel"}, "BCN Tour Auvernier": {"race": "BCN Tour Auvernier", "longitude": 6.8589727, "latitude": 46.9668714, "date": {"mer. 20.04.2011": {"weekday": "wednesday", "year": 2011, "categories": {"HE": {"pace": 308000000000, "rank": 111, "distance": 11, "time": 3331.4}}, "day": 20, "month": 4, "livingplace": "Neuchatel"}}, "location": "Colombier NE"}, "La Trotteuse-Tissot, La Chaux-de-Fonds": {"race": "La Trotteuse-Tissot, La Chaux-de-Fonds", "longitude": 6.832783800000001, "latitude": 47.1034892, "date": {"sam. 12.12.2015": {"weekday": "saturday", "year": 2015, "categories": {"GC-H20": {"pace": 248000000000, "rank": 46, "distance": 8, "time": 1987.9}}, "day": 12, "month": 12, "livingplace": "La Coudre"}, "sam. 18.12.2010": {"weekday": "saturday", "year": 2010, "categories": {"GC-H20": {"pace": 277000000000, "rank": 30, "distance": 8, "time": 2221.5}}, "day": 18, "month": 12, "livingplace": "La Coudre"}}, "location": "La Chaux-de-Fonds"}, "BCN Tour Ponts-de-Martel": {"race": "BCN Tour Ponts-de-Martel", "longitude": 6.9175754, "latitude": 47.0624261, "date": {"mer. 28.04.2010": {"weekday": "wednesday", "year": 2010, "categories": {"HE": {"pace": 273000000000, "rank": 30, "distance": 11, "time": 3060.1}}, "day": 28, "month": 4, "livingplace": "Neuchatel"}}, "location": "Ch\u00e9zard-St-Martin"}, "Morat-Fribourg": {"race": "Morat-Fribourg", "longitude": 7.120184, "latitude": 46.92922110000001, "date": {"sam. 06.10.2007": {"weekday": "saturday", "year": 2007, "categories": {"C/M20": {"pace": 287000000000, "rank": 684, "distance": 17, "time": 4932.3}}, "day": 6, "month": 10, "livingplace": "Neuchatel"}}, "location": "Murten"}, "Aletsch-Halbmarathon, Bettmeralp": {"race": "Aletsch-Halbmarathon, Bettmeralp", "date": {"dim. 28.06.2015": {"weekday": "sunday", "year": 2015, "categories": {"M20": {"pace": 384000000000, "rank": 79, "distance": 21, "time": 8108.8}}, "day": 28, "month": 6, "livingplace": "Neuchatel"}}, "location": "Bettmeralp"}, "BCN Tour La Chaux-de-fonds": {"race": "BCN Tour La Chaux-de-fonds", "longitude": 6.832783800000001, "latitude": 47.1034892, "date": {"mer. 12.05.2010": {"weekday": "wednesday", "year": 2010, "categories": {"HE": {"pace": 330000000000, "rank": 42, "distance": 11, "time": 3539.3}}, "day": 12, "month": 5, "livingplace": "Neuchatel"}}, "location": "La Chaux-de-Fonds"}}, "name": "Ferrier Nicolas", "birth": 1986}