{"sex": "F", "races": {"Tour du Chablais #5 Leysin": {"race": "Tour du Chablais #5 Leysin", "longitude": 6.931504599999999, "latitude": 46.3603257, "date": {"mer. 05.05.2010": {"weekday": "wednesday", "year": 2010, "categories": {"F-F60": {"pace": 432000000000, "rank": 6, "distance": 8, "time": 3654.7}}, "day": 5, "month": 5, "livingplace": "St Maurice"}}, "location": "Roche VD"}, "Tour du Chablais #4 Yvorne": {"race": "Tour du Chablais #4 Yvorne", "date": {"mer. 28.04.2010": {"weekday": "wednesday", "year": 2010, "categories": {"F-F60": {"pace": 423000000000, "rank": 8, "distance": 8, "time": 3510.4}}, "day": 28, "month": 4, "livingplace": "St Maurice"}}, "location": "Les Mosses"}, "Tour du Chablais #3 Bex": {"race": "Tour du Chablais #3 Bex", "longitude": 7.0223787, "latitude": 46.1782231, "date": {"mer. 21.04.2010": {"weekday": "wednesday", "year": 2010, "categories": {"F-F60": {"pace": 399000000000, "rank": 7, "distance": 10, "time": 3999.0}}, "day": 21, "month": 4, "livingplace": "St Maurice"}}, "location": "Evionnaz"}, "Tour du Chablais #1 Roche": {"race": "Tour du Chablais #1 Roche", "longitude": 6.9916269, "latitude": 46.2957462, "date": {"mer. 07.04.2010": {"weekday": "wednesday", "year": 2010, "categories": {"F-F60": {"pace": 389000000000, "rank": 8, "distance": 9, "time": 3484.1}}, "day": 7, "month": 4, "livingplace": "St Maurice"}}, "location": "Ollon VD"}, "Tour du Chablais #2 St-Gingolph": {"race": "Tour du Chablais #2 St-Gingolph", "longitude": 6.854975199999999, "latitude": 46.3835529, "date": {"mer. 14.04.2010": {"weekday": "wednesday", "year": 2010, "categories": {"F-F60": {"pace": 427000000000, "rank": 7, "distance": 8, "time": 3573.2}}, "day": 14, "month": 4, "livingplace": "St Maurice"}}, "location": "Bouveret"}, "Tour du Chablais #6 Mouthey": {"race": "Tour du Chablais #6 Mouthey", "longitude": 6.970566, "latitude": 46.3190253, "date": {"mer. 12.05.2010": {"weekday": "wednesday", "year": 2010, "categories": {"F-F60": {"pace": 378000000000, "rank": 8, "distance": 9, "time": 3480.6}}, "day": 12, "month": 5, "livingplace": "St Maurice"}}, "location": "Aigle"}}, "name": "Fontana Silvia", "birth": 1947}