{"sex": "M", "races": {"Tour du Chablais #5 Leysin": {"race": "Tour du Chablais #5 Leysin", "longitude": 6.931504599999999, "latitude": 46.3603257, "date": {"mer. 05.05.2010": {"weekday": "wednesday", "year": 2010, "categories": {"M-M50": {"pace": 270000000000, "rank": 8, "distance": 8, "time": 2287.0}}, "day": 5, "month": 5, "livingplace": "Bex"}}, "location": "Roche VD"}, "Maratona Ticino, Tenero": {"race": "Maratona Ticino, Tenero", "date": {"dim. 11.11.2012": {"weekday": "sunday", "year": 2012, "categories": {"H-M50": {"pace": 279000000000, "rank": 35, "distance": 21, "time": 5894.9}}, "day": 11, "month": 11, "livingplace": "Bex"}, "dim. 10.11.2013": {"weekday": "sunday", "year": 2013, "categories": {"H-M50": {"pace": 266000000000, "rank": 29, "distance": 21, "time": 5626.4}}, "day": 10, "month": 11, "livingplace": "Bex"}, "dim. 14.11.2010": {"weekday": "sunday", "year": 2010, "categories": {"H-M50": {"pace": 268000000000, "rank": 40, "distance": 21, "time": 5660.9}}, "day": 14, "month": 11, "livingplace": "Bex"}, "dim. 13.11.2011": {"weekday": "sunday", "year": 2011, "categories": {"H-M50": {"pace": 268000000000, "rank": 39, "distance": 21, "time": 5659.8}}, "day": 13, "month": 11, "livingplace": "Bex"}}, "location": "Tenero"}, "Tour du Chablais #4 Yvorne": {"race": "Tour du Chablais #4 Yvorne", "date": {"mer. 28.04.2010": {"weekday": "wednesday", "year": 2010, "categories": {"M-M50": {"pace": 260000000000, "rank": 7, "distance": 8, "time": 2154.4}}, "day": 28, "month": 4, "livingplace": "Bex"}}, "location": "Les Mosses"}, "Tour du Chablais #1 Roche": {"race": "Tour du Chablais #1 Roche", "longitude": 6.9916269, "latitude": 46.2957462, "date": {"mer. 07.04.2010": {"weekday": "wednesday", "year": 2010, "categories": {"M-M50": {"pace": 245000000000, "rank": 7, "distance": 9, "time": 2201.6}}, "day": 7, "month": 4, "livingplace": "Bex"}}, "location": "Ollon VD"}, "Tour du Chablais #1 Martigny": {"race": "Tour du Chablais #1 Martigny", "longitude": 6.9916269, "latitude": 46.2957462, "date": {"mer. 23.04.2014": {"weekday": "wednesday", "year": 2014, "categories": {"M-M60": {"pace": 251000000000, "rank": 5, "distance": 9, "time": 2136.0}}, "day": 23, "month": 4, "livingplace": "Bex"}}, "location": "Ollon VD"}, "Tour du Chablais #2 Bex": {"race": "Tour du Chablais #2 Bex", "longitude": 6.854975199999999, "latitude": 46.3835529, "date": {"mer. 18.04.2012": {"weekday": "wednesday", "year": 2012, "categories": {"M-M50": {"pace": 254000000000, "rank": 14, "distance": 8, "time": 2032.5}}, "day": 18, "month": 4, "livingplace": "Bex"}}, "location": "Bouveret"}, "Tour du Chablais #6 Montreux": {"race": "Tour du Chablais #6 Montreux", "longitude": 6.970566, "latitude": 46.3190253, "date": {"mer. 16.05.2012": {"weekday": "wednesday", "year": 2012, "categories": {"M-M50": {"pace": 248000000000, "rank": 20, "distance": 9, "time": 2294.8}}, "day": 16, "month": 5, "livingplace": "Bex"}}, "location": "Aigle"}, "20km de Lausanne": {"race": "20km de Lausanne", "longitude": 6.6322734, "latitude": 46.5196535, "date": {"sam. 26.04.2014": {"weekday": "saturday", "year": 2014, "categories": {"10-H60": {"pace": 261000000000, "rank": 5, "distance": 10, "time": 2613.7}}, "day": 26, "month": 4, "livingplace": "Club"}}, "location": "Lausanne"}, "Tour du Chablais #6 Mouthey": {"race": "Tour du Chablais #6 Mouthey", "longitude": 6.970566, "latitude": 46.3190253, "date": {"mer. 12.05.2010": {"weekday": "wednesday", "year": 2010, "categories": {"M-M50": {"pace": 241000000000, "rank": 10, "distance": 9, "time": 2222.9}}, "day": 12, "month": 5, "livingplace": "Bex"}}, "location": "Aigle"}, "Tour du Chablais #3 Collombey-Muraz": {"race": "Tour du Chablais #3 Collombey-Muraz", "longitude": 7.0223787, "latitude": 46.1782231, "date": {"mer. 25.04.2012": {"weekday": "wednesday", "year": 2012, "categories": {"M-M50": {"pace": 247000000000, "rank": 11, "distance": 9, "time": 2223.6}}, "day": 25, "month": 4, "livingplace": "Bex"}}, "location": "Evionnaz"}, "Tour du Chablais #2 St-Gingolph": {"race": "Tour du Chablais #2 St-Gingolph", "longitude": 6.854975199999999, "latitude": 46.3835529, "date": {"mer. 14.04.2010": {"weekday": "wednesday", "year": 2010, "categories": {"M-M50": {"pace": 266000000000, "rank": 9, "distance": 8, "time": 2228.0}}, "day": 14, "month": 4, "livingplace": "Bex"}}, "location": "Bouveret"}, "Tour du Chablais #1 Lavey": {"race": "Tour du Chablais #1 Lavey", "longitude": 6.9916269, "latitude": 46.2957462, "date": {"mer. 27.04.2011": {"weekday": "wednesday", "year": 2011, "categories": {"M-M50": {"pace": 249000000000, "rank": 17, "distance": 9, "time": 2243.6}}, "day": 27, "month": 4, "livingplace": "Bex"}}, "location": "Ollon VD"}, "Tour du Chablais #3 Bex": {"race": "Tour du Chablais #3 Bex", "longitude": 7.0223787, "latitude": 46.1782231, "date": {"mer. 21.04.2010": {"weekday": "wednesday", "year": 2010, "categories": {"M-M50": {"pace": 246000000000, "rank": 7, "distance": 10, "time": 2469.1}}, "day": 21, "month": 4, "livingplace": "Bex"}}, "location": "Evionnaz"}, "Tour du Chablais #4 St  Maurice": {"race": "Tour du Chablais #4 St  Maurice", "date": {"mer. 24.04.2013": {"weekday": "wednesday", "year": 2013, "categories": {"M-M50": {"pace": 264000000000, "rank": 22, "distance": 10, "time": 2640.0}}, "day": 24, "month": 4, "livingplace": "Bex"}}, "location": "Les Mosses"}, "Tour du Chablais #2 Rennaz": {"race": "Tour du Chablais #2 Rennaz", "longitude": 6.854975199999999, "latitude": 46.3835529, "date": {"mer. 04.05.2011": {"weekday": "wednesday", "year": 2011, "categories": {"M-M50": {"pace": 245000000000, "rank": 15, "distance": 9, "time": 2292.3}}, "day": 4, "month": 5, "livingplace": "Bex"}}, "location": "Bouveret"}, "Les Traine-Savates, Cheseaux-sur-Lausanne": {"race": "Les Traine-Savates, Cheseaux-sur-Lausanne", "longitude": 6.6047712, "latitude": 46.585452, "date": {"sam. 12.04.2014": {"weekday": "saturday", "year": 2014, "categories": {"10-M60": {"pace": 261000000000, "rank": 4, "distance": 10, "time": 2695.8}}, "day": 12, "month": 4, "livingplace": "Bex"}}, "location": "Cheseaux-sur-Lausanne"}, "Morat-Fribourg": {"race": "Morat-Fribourg", "longitude": 7.120184, "latitude": 46.92922110000001, "date": {"sam. 02.10.2010": {"weekday": "saturday", "year": 2010, "categories": {"17-M55": {"pace": 280000000000, "rank": 25, "distance": 17, "time": 4812.7}}, "day": 2, "month": 10, "livingplace": "Bex"}, "sam. 05.10.2013": {"weekday": "saturday", "year": 2013, "categories": {"17-M55": {"pace": 288000000000, "rank": 40, "distance": 17, "time": 5040.0}}, "day": 5, "month": 10, "livingplace": "Bex"}}, "location": "Murten"}}, "name": "Forestier Pierre-Andr\u00e9", "birth": 1954}