{"sex": "M", "races": {"Course de l'Escalade, Gen\u00e8ve": {"race": "Course de l'Escalade, Gen\u00e8ve", "longitude": 6.1431577, "latitude": 46.2043907, "date": {"sam. 02.12.2006": {"weekday": "saturday", "year": 2006, "categories": {"HCadB": {"pace": 289000000000, "rank": 263, "distance": 5, "time": 1385.2}}, "day": 2, "month": 12, "livingplace": "Martigny"}, "sam. 01.12.2007": {"weekday": "saturday", "year": 2007, "categories": {"HCadB": {"pace": 271000000000, "rank": 168, "distance": 5, "time": 1295.8}}, "day": 1, "month": 12, "livingplace": "Martigny"}}, "location": "Gen\u00e8ve"}, "10km Schweizer Meisterschaften Lyss": {"race": "10km Schweizer Meisterschaften Lyss", "longitude": 7.3077022, "latitude": 47.0746504, "date": {"sam. 02.04.2011": {"weekday": "saturday", "year": 2011, "categories": {"10-U20m": {"pace": 242000000000, "rank": 20, "distance": 10, "time": 2422.4}}, "day": 2, "month": 4, "livingplace": "Martigny Gare CFF"}}, "location": "Lyss"}, "Tour du Chablais #5 Leysin": {"race": "Tour du Chablais #5 Leysin", "longitude": 6.931504599999999, "latitude": 46.3603257, "date": {"mer. 05.05.2010": {"weekday": "wednesday", "year": 2010, "categories": {"M-Jun": {"pace": 250000000000, "rank": 6, "distance": 8, "time": 2115.6}}, "day": 5, "month": 5, "livingplace": "Martigny"}}, "location": "Roche VD"}, "Course Titz\u00e9 de no\u00ebl Sion": {"race": "Course Titz\u00e9 de no\u00ebl Sion", "longitude": 7.360625999999999, "latitude": 46.2331221, "date": {"sam. 08.12.2007": {"weekday": "saturday", "year": 2007, "categories": {"CMB": {"pace": 251000000000, "rank": 28, "distance": 3, "time": 754.2}}, "day": 8, "month": 12, "livingplace": "CABV Martigny"}}, "location": "Sion"}, "Tour du Chablais #4 Yvorne": {"race": "Tour du Chablais #4 Yvorne", "date": {"mer. 28.04.2010": {"weekday": "wednesday", "year": 2010, "categories": {"M-Jun": {"pace": 257000000000, "rank": 8, "distance": 8, "time": 2130.6}}, "day": 28, "month": 4, "livingplace": "Martigny"}}, "location": "Les Mosses"}, "Tour du Chablais #3 Bex": {"race": "Tour du Chablais #3 Bex", "longitude": 7.0223787, "latitude": 46.1782231, "date": {"mer. 21.04.2010": {"weekday": "wednesday", "year": 2010, "categories": {"M-Jun": {"pace": 242000000000, "rank": 10, "distance": 10, "time": 2426.1}}, "day": 21, "month": 4, "livingplace": "Martigny"}}, "location": "Evionnaz"}, "Tour du Chablais #1 Martigny": {"race": "Tour du Chablais #1 Martigny", "longitude": 6.9916269, "latitude": 46.2957462, "date": {"mer. 23.04.2014": {"weekday": "wednesday", "year": 2014, "categories": {"M-M20": {"pace": 226000000000, "rank": 32, "distance": 9, "time": 1924.6}}, "day": 23, "month": 4, "livingplace": "Martigny"}}, "location": "Ollon VD"}, "Tour du Chablais #2 St-Gingolph": {"race": "Tour du Chablais #2 St-Gingolph", "longitude": 6.854975199999999, "latitude": 46.3835529, "date": {"mer. 14.04.2010": {"weekday": "wednesday", "year": 2010, "categories": {"M-Jun": {"pace": 249000000000, "rank": 9, "distance": 8, "time": 2082.3}}, "day": 14, "month": 4, "livingplace": "Martigny"}}, "location": "Bouveret"}, "Morat-Fribourg": {"race": "Morat-Fribourg", "longitude": 7.120184, "latitude": 46.92922110000001, "date": {"sam. 02.10.2010": {"weekday": "saturday", "year": 2010, "categories": {"17-CadH": {"pace": 263000000000, "rank": 3, "distance": 17, "time": 4523.0}}, "day": 2, "month": 10, "livingplace": "Martigny"}}, "location": "Murten"}, "Tour du Chablais #6 Mouthey": {"race": "Tour du Chablais #6 Mouthey", "longitude": 6.970566, "latitude": 46.3190253, "date": {"mer. 12.05.2010": {"weekday": "wednesday", "year": 2010, "categories": {"M-Jun": {"pace": 233000000000, "rank": 9, "distance": 9, "time": 2146.7}}, "day": 12, "month": 5, "livingplace": "Martigny"}}, "location": "Aigle"}}, "name": "Fort Cyrille", "birth": 1993}