{"sex": "M", "races": {"Course de l'Escalade, Gen\u00e8ve": {"race": "Course de l'Escalade, Gen\u00e8ve", "longitude": 6.1431577, "latitude": 46.2043907, "date": {"sam. 02.12.2006": {"weekday": "saturday", "year": 2006, "categories": {"Hommes3": {"pace": 282000000000, "rank": 776, "distance": 7, "time": 2044.8}}, "day": 2, "month": 12, "livingplace": "Martigny"}, "sam. 01.12.2007": {"weekday": "saturday", "year": 2007, "categories": {"Hommes3": {"pace": 281000000000, "rank": 344, "distance": 7, "time": 2039.7}}, "day": 1, "month": 12, "livingplace": "Martigny"}}, "location": "Gen\u00e8ve"}, "Tour du Chablais #5 Leysin": {"race": "Tour du Chablais #5 Leysin", "longitude": 6.931504599999999, "latitude": 46.3603257, "date": {"mer. 05.05.2010": {"weekday": "wednesday", "year": 2010, "categories": {"M-M50": {"pace": 321000000000, "rank": 43, "distance": 8, "time": 2720.1}}, "day": 5, "month": 5, "livingplace": "Martigny"}}, "location": "Roche VD"}, "Course p\u00e9destre Thyon-Dixence, Thyon": {"race": "Course p\u00e9destre Thyon-Dixence, Thyon", "date": {"dim. 04.08.2002": {"weekday": "sunday", "year": 2002, "categories": {"V1": {"pace": 437000000000, "rank": 66, "distance": 16, "time": 7154.5}}, "day": 4, "month": 8, "livingplace": "Martigny"}}, "location": "Thyon-Les Collons"}, "Tour du Chablais #4 Yvorne": {"race": "Tour du Chablais #4 Yvorne", "date": {"mer. 28.04.2010": {"weekday": "wednesday", "year": 2010, "categories": {"M-M50": {"pace": 332000000000, "rank": 53, "distance": 8, "time": 2751.4}}, "day": 28, "month": 4, "livingplace": "Martigny"}}, "location": "Les Mosses"}, "Tour du Chablais #1 Roche": {"race": "Tour du Chablais #1 Roche", "longitude": 6.9916269, "latitude": 46.2957462, "date": {"mer. 07.04.2010": {"weekday": "wednesday", "year": 2010, "categories": {"M-M50": {"pace": 307000000000, "rank": 58, "distance": 9, "time": 2755.3}}, "day": 7, "month": 4, "livingplace": "Martigny"}}, "location": "Ollon VD"}, "Morat-Fribourg": {"race": "Morat-Fribourg", "longitude": 7.120184, "latitude": 46.92922110000001, "date": {"sam. 03.10.2009": {"weekday": "saturday", "year": 2009, "categories": {"C-M45": {"pace": 368000000000, "rank": 622, "distance": 17, "time": 6330.8}}, "day": 3, "month": 10, "livingplace": "Martigny"}, "dim. 05.10.2003": {"weekday": "sunday", "year": 2003, "categories": {"M40": {"pace": 289000000000, "rank": 330, "distance": 17, "time": 4968.9}}, "day": 5, "month": 10, "livingplace": "Martigny"}, "sam. 02.10.2010": {"weekday": "saturday", "year": 2010, "categories": {"17-M50": {"pace": 346000000000, "rank": 361, "distance": 17, "time": 5943.3}}, "day": 2, "month": 10, "livingplace": "Martigny"}, "dim. 06.10.2002": {"weekday": "sunday", "year": 2002, "categories": {"M40": {"pace": 283000000000, "rank": 302, "distance": 17, "time": 4859.4}}, "day": 6, "month": 10, "livingplace": "Martigny"}}, "location": "Murten"}, "Tour du Chablais #6 Aigle": {"race": "Tour du Chablais #6 Aigle", "longitude": 6.970566, "latitude": 46.3190253, "date": {"mer. 01.06.2011": {"weekday": "wednesday", "year": 2011, "categories": {"M-M50": {"pace": 298000000000, "rank": 58, "distance": 10, "time": 3042.0}}, "day": 1, "month": 6, "livingplace": "Martigny"}}, "location": "Aigle"}, "Tour du Chablais #6 Mouthey": {"race": "Tour du Chablais #6 Mouthey", "longitude": 6.970566, "latitude": 46.3190253, "date": {"mer. 12.05.2010": {"weekday": "wednesday", "year": 2010, "categories": {"M-M50": {"pace": 300000000000, "rank": 56, "distance": 9, "time": 2765.5}}, "day": 12, "month": 5, "livingplace": "Martigny"}}, "location": "Aigle"}, "Tour du Chablais #5 Les Mosses": {"race": "Tour du Chablais #5 Les Mosses", "longitude": 6.931504599999999, "latitude": 46.3603257, "date": {"mer. 25.05.2011": {"weekday": "wednesday", "year": 2011, "categories": {"M-M50": {"pace": 344000000000, "rank": 60, "distance": 8, "time": 2757.6}}, "day": 25, "month": 5, "livingplace": "Martigny"}}, "location": "Roche VD"}, "Tour du Chablais #1 Lavey": {"race": "Tour du Chablais #1 Lavey", "longitude": 6.9916269, "latitude": 46.2957462, "date": {"mer. 27.04.2011": {"weekday": "wednesday", "year": 2011, "categories": {"M-M50": {"pace": 310000000000, "rank": 66, "distance": 9, "time": 2797.1}}, "day": 27, "month": 4, "livingplace": "Martigny"}}, "location": "Ollon VD"}, "Tour du Chablais #3 Bex": {"race": "Tour du Chablais #3 Bex", "longitude": 7.0223787, "latitude": 46.1782231, "date": {"mer. 21.04.2010": {"weekday": "wednesday", "year": 2010, "categories": {"M-M50": {"pace": 296000000000, "rank": 46, "distance": 10, "time": 2966.4}}, "day": 21, "month": 4, "livingplace": "Martigny"}}, "location": "Evionnaz"}, "Tour du Chablais #3 Le Bouveret": {"race": "Tour du Chablais #3 Le Bouveret", "longitude": 7.0223787, "latitude": 46.1782231, "date": {"mer. 11.05.2011": {"weekday": "wednesday", "year": 2011, "categories": {"M-M50": {"pace": 309000000000, "rank": 69, "distance": 10, "time": 3094.2}}, "day": 11, "month": 5, "livingplace": "Martigny"}}, "location": "Evionnaz"}, "Tour du Chablais #2 St-Gingolph": {"race": "Tour du Chablais #2 St-Gingolph", "longitude": 6.854975199999999, "latitude": 46.3835529, "date": {"mer. 14.04.2010": {"weekday": "wednesday", "year": 2010, "categories": {"M-M50": {"pace": 328000000000, "rank": 52, "distance": 8, "time": 2745.2}}, "day": 14, "month": 4, "livingplace": "Martigny"}}, "location": "Bouveret"}, "Tour du Chablais #2 Rennaz": {"race": "Tour du Chablais #2 Rennaz", "longitude": 6.854975199999999, "latitude": 46.3835529, "date": {"mer. 04.05.2011": {"weekday": "wednesday", "year": 2011, "categories": {"M-M50": {"pace": 302000000000, "rank": 71, "distance": 9, "time": 2825.3}}, "day": 4, "month": 5, "livingplace": "Martigny"}}, "location": "Bouveret"}}, "name": "Fort Jean-Marc", "birth": 1960}