{"sex": "F", "races": {"Tour du Chablais #5 Leysin": {"race": "Tour du Chablais #5 Leysin", "longitude": 6.931504599999999, "latitude": 46.3603257, "date": {"mer. 05.05.2010": {"weekday": "wednesday", "year": 2010, "categories": {"F-F50": {"pace": 361000000000, "rank": 14, "distance": 8, "time": 3052.4}}, "day": 5, "month": 5, "livingplace": "Haute Nendaz"}}, "location": "Roche VD"}, "Tour du Chablais #4 Yvorne": {"race": "Tour du Chablais #4 Yvorne", "date": {"mer. 28.04.2010": {"weekday": "wednesday", "year": 2010, "categories": {"F-F50": {"pace": 362000000000, "rank": 18, "distance": 8, "time": 3000.9}}, "day": 28, "month": 4, "livingplace": "Haute Nendaz"}}, "location": "Les Mosses"}, "Tour du Chablais #1 Roche": {"race": "Tour du Chablais #1 Roche", "longitude": 6.9916269, "latitude": 46.2957462, "date": {"mer. 07.04.2010": {"weekday": "wednesday", "year": 2010, "categories": {"F-F50": {"pace": 325000000000, "rank": 16, "distance": 9, "time": 2913.7}}, "day": 7, "month": 4, "livingplace": "Haute Nendaz"}}, "location": "Ollon VD"}, "Tour du Chablais #6 Montreux": {"race": "Tour du Chablais #6 Montreux", "longitude": 6.970566, "latitude": 46.3190253, "date": {"mer. 16.05.2012": {"weekday": "wednesday", "year": 2012, "categories": {"F-F50": {"pace": 321000000000, "rank": 14, "distance": 9, "time": 2969.3}}, "day": 16, "month": 5, "livingplace": "Sornard"}}, "location": "Aigle"}, "Tour du Chablais #2 Bex": {"race": "Tour du Chablais #2 Bex", "longitude": 6.854975199999999, "latitude": 46.3835529, "date": {"mer. 18.04.2012": {"weekday": "wednesday", "year": 2012, "categories": {"F-F50": {"pace": 343000000000, "rank": 23, "distance": 8, "time": 2745.5}}, "day": 18, "month": 4, "livingplace": "Haute Nendaz"}}, "location": "Bouveret"}, "Morat-Fribourg": {"race": "Morat-Fribourg", "longitude": 7.120184, "latitude": 46.92922110000001, "date": {"sam. 03.10.2009": {"weekday": "saturday", "year": 2009, "categories": {"C-W45": {"pace": 388000000000, "rank": 181, "distance": 17, "time": 6677.0}}, "day": 3, "month": 10, "livingplace": "Haute Nendaz"}, "sam. 04.10.2008": {"weekday": "saturday", "year": 2008, "categories": {"C-W45": {"pace": 373000000000, "rank": 179, "distance": 17, "time": 6413.9}}, "day": 4, "month": 10, "livingplace": "Haute Nendaz"}}, "location": "Murten"}, "Tour du Chablais #2 St-Gingolph": {"race": "Tour du Chablais #2 St-Gingolph", "longitude": 6.854975199999999, "latitude": 46.3835529, "date": {"mer. 14.04.2010": {"weekday": "wednesday", "year": 2010, "categories": {"F-F50": {"pace": 356000000000, "rank": 13, "distance": 8, "time": 2980.4}}, "day": 14, "month": 4, "livingplace": "Haute Nendaz"}}, "location": "Bouveret"}, "Schweizer Frauenlauf Bern": {"race": "Schweizer Frauenlauf Bern", "longitude": 7.4474468, "latitude": 46.9479739, "date": {"dim. 13.06.2010": {"weekday": "sunday", "year": 2010, "categories": {"10-W50": {"pace": 344000000000, "rank": 154, "distance": 10, "time": 3446.9}}, "day": 13, "month": 6, "livingplace": "Haute Nendaz"}, "dim. 10.06.2012": {"weekday": "sunday", "year": 2012, "categories": {"10-W50": {"pace": 339000000000, "rank": 160, "distance": 10, "time": 3390.1}}, "day": 10, "month": 6, "livingplace": "Sornard"}}, "location": "Bern"}, "Tour du Chablais #1 Lavey": {"race": "Tour du Chablais #1 Lavey", "longitude": 6.9916269, "latitude": 46.2957462, "date": {"mer. 27.04.2011": {"weekday": "wednesday", "year": 2011, "categories": {"F-F50": {"pace": 347000000000, "rank": 21, "distance": 9, "time": 3129.1}}, "day": 27, "month": 4, "livingplace": "Haute Nendaz"}}, "location": "Ollon VD"}, "Tour du Chablais #4 Champ\u00e9ry": {"race": "Tour du Chablais #4 Champ\u00e9ry", "date": {"mer. 02.05.2012": {"weekday": "wednesday", "year": 2012, "categories": {"F-F50": {"pace": 335000000000, "rank": 15, "distance": 8, "time": 2788.4}}, "day": 2, "month": 5, "livingplace": "Haute Nendaz"}}, "location": "Les Mosses"}, "Tour du Chablais #3 Bex": {"race": "Tour du Chablais #3 Bex", "longitude": 7.0223787, "latitude": 46.1782231, "date": {"mer. 21.04.2010": {"weekday": "wednesday", "year": 2010, "categories": {"F-F50": {"pace": 349000000000, "rank": 22, "distance": 10, "time": 3490.7}}, "day": 21, "month": 4, "livingplace": "Haute Nendaz"}}, "location": "Evionnaz"}, "Tour du Chablais #3 Le Bouveret": {"race": "Tour du Chablais #3 Le Bouveret", "longitude": 7.0223787, "latitude": 46.1782231, "date": {"mer. 11.05.2011": {"weekday": "wednesday", "year": 2011, "categories": {"F-F50": {"pace": 361000000000, "rank": 27, "distance": 10, "time": 3618.7}}, "day": 11, "month": 5, "livingplace": "Haute Nendaz"}}, "location": "Evionnaz"}, "Tour du Chablais #6 Mouthey": {"race": "Tour du Chablais #6 Mouthey", "longitude": 6.970566, "latitude": 46.3190253, "date": {"mer. 12.05.2010": {"weekday": "wednesday", "year": 2010, "categories": {"F-F50": {"pace": 326000000000, "rank": 17, "distance": 9, "time": 3000.7}}, "day": 12, "month": 5, "livingplace": "Haute Nendaz"}}, "location": "Aigle"}, "Aletsch-Halbmarathon, Bettmeralp": {"race": "Aletsch-Halbmarathon, Bettmeralp", "date": {"dim. 24.06.2012": {"weekday": "sunday", "year": 2012, "categories": {"F50": {"pace": 568000000000, "rank": 43, "distance": 21, "time": 12043.6}}, "day": 24, "month": 6, "livingplace": "Sornard"}}, "location": "Bettmeralp"}}, "name": "Fournier Brigitte", "birth": 1960}