{"sex": "F", "races": {"Schweizer Frauenlauf Bern": {"race": "Schweizer Frauenlauf Bern", "longitude": 7.4474468, "latitude": 46.9479739, "date": {"dim. 14.06.2015": {"weekday": "sunday", "year": 2015, "categories": {"10-W40": {"pace": 398000000000, "rank": 497, "distance": 10, "time": 3984.1}}, "day": 14, "month": 6, "livingplace": "Densburen"}}, "location": "Bern"}, "SwissCityMarathon - Lucerne, Luzern": {"race": "SwissCityMarathon - Lucerne, Luzern", "longitude": 8.3093072, "latitude": 47.05016819999999, "date": {"dim. 25.10.2015": {"weekday": "sunday", "year": 2015, "categories": {"H-W40": {"pace": 363000000000, "rank": 221, "distance": 21, "time": 7677.8}}, "day": 25, "month": 10, "livingplace": "Densburen"}}, "location": "Luzern"}, "Winterthur Marathon": {"race": "Winterthur Marathon", "longitude": -75.6037351, "latitude": 39.8088766, "date": {"dim. 31.05.2015": {"weekday": "sunday", "year": 2015, "categories": {"HM-F40": {"pace": 415000000000, "rank": 115, "distance": 21, "time": 8719.9}}, "day": 31, "month": 5, "livingplace": "Densburen"}}, "location": "Winterthur"}, "Hallwilerseelauf, Beinwil am See": {"race": "Hallwilerseelauf, Beinwil am See", "date": {"sam. 11.10.2014": {"weekday": "saturday", "year": 2014, "categories": {"7-KF": {"pace": 383000000000, "rank": 101, "distance": 7, "time": 2644.2}}, "day": 11, "month": 10, "livingplace": "Densburen"}, "sam. 10.10.2015": {"weekday": "saturday", "year": 2015, "categories": {"10-Frau": {"pace": 345000000000, "rank": 389, "distance": 10, "time": 3454.5}}, "day": 10, "month": 10, "livingplace": "Densburen"}}, "location": "Beinwil am See"}, "Kerzerslauf": {"race": "Kerzerslauf", "longitude": 7.1954365, "latitude": 46.97488999999999, "date": {"sam. 21.03.2015": {"weekday": "saturday", "year": 2015, "categories": {"15-F40": {"pace": 396000000000, "rank": 252, "distance": 15, "time": 5952.3}}, "day": 21, "month": 3, "livingplace": "Densburen"}}, "location": "Kerzers"}, "Basler Stadtlauf": {"race": "Basler Stadtlauf", "longitude": 7.5885761, "latitude": 47.5595986, "date": {"sam. 29.11.2014": {"weekday": "saturday", "year": 2014, "categories": {"F40": {"pace": 346000000000, "rank": 191, "distance": 6, "time": 1904.1}}, "day": 29, "month": 11, "livingplace": "Densburen"}}, "location": "Basel"}}, "name": "Frey Tanja", "birth": 1971}