{"sex": "F", "races": {"Schweizer Frauenlauf Bern": {"race": "Schweizer Frauenlauf Bern", "longitude": 7.4474468, "latitude": 46.9479739, "date": {"dim. 11.06.2006": {"weekday": "sunday", "year": 2006, "categories": {"10-W30": {"pace": 277000000000, "rank": 18, "distance": 10, "time": 2770.7}}, "day": 11, "month": 6, "livingplace": "Aarburg"}, "dim. 10.06.2007": {"weekday": "sunday", "year": 2007, "categories": {"10/W35": {"pace": 272000000000, "rank": 21, "distance": 10, "time": 2725.0}}, "day": 10, "month": 6, "livingplace": "Aarburg"}}, "location": "Bern"}, "SwissCityMarathon - Lucerne, Luzern": {"race": "SwissCityMarathon - Lucerne, Luzern", "longitude": 8.3093072, "latitude": 47.05016819999999, "date": {"dim. 25.10.2015": {"weekday": "sunday", "year": 2015, "categories": {"M-W40": {"pace": 301000000000, "rank": 6, "distance": 42, "time": 12739.5}}, "day": 25, "month": 10, "livingplace": "Aarburg"}}, "location": "Luzern"}, "IWB Basel Marathon": {"race": "IWB Basel Marathon", "longitude": 7.5885761, "latitude": 47.5595986, "date": {"dim. 28.09.2014": {"weekday": "sunday", "year": 2014, "categories": {"21-F40": {"pace": 277000000000, "rank": 4, "distance": 21, "time": 5862.8}}, "day": 28, "month": 9, "livingplace": "Aarburg"}}, "location": "Basel"}, "Hallwilerseelauf, Beinwil am See": {"race": "Hallwilerseelauf, Beinwil am See", "date": {"sam. 16.10.2010": {"weekday": "saturday", "year": 2010, "categories": {"21-F30": {"pace": 276000000000, "rank": 31, "distance": 21, "time": 5839.0}}, "day": 16, "month": 10, "livingplace": "Aarburg"}}, "location": "Beinwil am See"}, "Lenzburger Lauf": {"race": "Lenzburger Lauf", "longitude": 8.172154500000001, "latitude": 47.3904443, "date": {"sam. 25.05.2013": {"weekday": "saturday", "year": 2013, "categories": {"11-F40": {"pace": 275000000000, "rank": 5, "distance": 12, "time": 3198.4}}, "day": 25, "month": 5, "livingplace": "Weishaupt Cycles"}}, "location": "Lenzburg"}, "Gippinger Stauseelauf": {"race": "Gippinger Stauseelauf", "longitude": 8.2152586, "latitude": 47.5810513, "date": {"mar. 31.12.2002": {"weekday": "tuesday", "year": 2002, "categories": {"F30": {"pace": 286000000000, "rank": 23, "distance": 8, "time": 2147.6}}, "day": 31, "month": 12, "livingplace": "Aarburg"}}, "location": "Leuggern"}, "Langenthaler Stadtlauf": {"race": "Langenthaler Stadtlauf", "longitude": 7.790562299999999, "latitude": 47.2120786, "date": {"sam. 20.11.2010": {"weekday": "saturday", "year": 2010, "categories": {"W35": {"pace": 250000000000, "rank": 2, "distance": 6, "time": 1566.2}}, "day": 20, "month": 11, "livingplace": "Schweiz"}, "sam. 19.11.2011": {"weekday": "saturday", "year": 2011, "categories": {"W35": {"pace": 255000000000, "rank": 6, "distance": 6, "time": 1596.4}}, "day": 19, "month": 11, "livingplace": "Aarburg"}, "sam. 17.11.2007": {"weekday": "saturday", "year": 2007, "categories": {"JogF": {"pace": 248000000000, "rank": 7, "distance": 5, "time": 1244.9}}, "day": 17, "month": 11, "livingplace": "Trizo"}}, "location": "Langenthal"}, "Basler Stadtlauf": {"race": "Basler Stadtlauf", "longitude": 7.5885761, "latitude": 47.5595986, "date": {"sam. 24.11.2012": {"weekday": "saturday", "year": 2012, "categories": {"F40": {"pace": 268000000000, "rank": 23, "distance": 6, "time": 1476.0}}, "day": 24, "month": 11, "livingplace": "Aarburg"}}, "location": "Basel"}}, "name": "Frey Nicole", "birth": 1972}