{"sex": "M", "races": {"BCN Tour #4 Fleurier": {"race": "BCN Tour #4 Fleurier", "longitude": 6.832783800000001, "latitude": 47.1034892, "date": {"mer. 15.05.2013": {"weekday": "wednesday", "year": 2013, "categories": {"HS2": {"pace": 265000000000, "rank": 49, "distance": 9, "time": 2299.6}}, "day": 15, "month": 5, "livingplace": "Bole"}}, "location": "La Chaux-de-Fonds"}, "Groupe E Tour Fribourg #4 Siviriez": {"race": "Groupe E Tour Fribourg #4 Siviriez", "longitude": 6.877722, "latitude": 46.6585092, "date": {"mer. 19.09.2012": {"weekday": "wednesday", "year": 2012, "categories": {"HS2": {"pace": 286000000000, "rank": 20, "distance": 9, "time": 2690.4}}, "day": 19, "month": 9, "livingplace": "Colombier"}}, "location": "Siviriez"}, "Groupe E Tour Fribourg #1 Gurmels": {"race": "Groupe E Tour Fribourg #1 Gurmels", "longitude": 6.977279999999999, "latitude": 46.81832, "date": {"mer. 29.08.2012": {"weekday": "wednesday", "year": 2012, "categories": {"HS2": {"pace": 291000000000, "rank": 16, "distance": 8, "time": 2446.0}}, "day": 29, "month": 8, "livingplace": "Colombier"}}, "location": "Cousset"}, "BCN Tour La Chaux-de-Fonds": {"race": "BCN Tour La Chaux-de-Fonds", "longitude": 6.832783800000001, "latitude": 47.1034892, "date": {"mer. 11.05.2011": {"weekday": "wednesday", "year": 2011, "categories": {"HS2": {"pace": 330000000000, "rank": 101, "distance": 11, "time": 3533.8}}, "day": 11, "month": 5, "livingplace": "Colombier"}, "mer. 23.05.2012": {"weekday": "wednesday", "year": 2012, "categories": {"HS2": {"pace": 287000000000, "rank": 89, "distance": 11, "time": 3100.1}}, "day": 23, "month": 5, "livingplace": "Colombier"}}, "location": "La Chaux-de-Fonds"}, "BCN Tour Auvernier": {"race": "BCN Tour Auvernier", "longitude": 6.8589727, "latitude": 46.9668714, "date": {"mer. 20.04.2011": {"weekday": "wednesday", "year": 2011, "categories": {"HS2": {"pace": 288000000000, "rank": 79, "distance": 11, "time": 3120.0}}, "day": 20, "month": 4, "livingplace": "Colombier"}}, "location": "Colombier NE"}, "La Trotteuse-Tissot, La Chaux-de-Fonds": {"race": "La Trotteuse-Tissot, La Chaux-de-Fonds", "longitude": 6.832783800000001, "latitude": 47.1034892, "date": {"sam. 18.12.2010": {"weekday": "saturday", "year": 2010, "categories": {"GC-H40": {"pace": 298000000000, "rank": 55, "distance": 8, "time": 2391.0}}, "day": 18, "month": 12, "livingplace": "Colombier"}}, "location": "La Chaux-de-Fonds"}, "Groupe E Tour Fribourg #2 Plafayon": {"race": "Groupe E Tour Fribourg #2 Plafayon", "longitude": 7.1654493, "latitude": 46.6175845, "date": {"mer. 05.09.2012": {"weekday": "wednesday", "year": 2012, "categories": {"HS2": {"pace": 263000000000, "rank": 15, "distance": 9, "time": 2467.3}}, "day": 5, "month": 9, "livingplace": "Colombier"}}, "location": "Charmey (Gruy\u00e8re)"}, "BCN Tour Fontaine Cernier": {"race": "BCN Tour Fontaine Cernier", "longitude": 6.9175754, "latitude": 47.0624261, "date": {"mer. 27.04.2011": {"weekday": "wednesday", "year": 2011, "categories": {"HS2": {"pace": 271000000000, "rank": 78, "distance": 10, "time": 2793.7}}, "day": 27, "month": 4, "livingplace": "Colombier"}}, "location": "Ch\u00e9zard-St-Martin"}, "BCN Tour #6 Neuch\u00e2tel": {"race": "BCN Tour #6 Neuch\u00e2tel", "longitude": 6.9292732, "latitude": 46.9899874, "date": {"mer. 29.05.2013": {"weekday": "wednesday", "year": 2013, "categories": {"HS2": {"pace": 273000000000, "rank": 59, "distance": 11, "time": 3013.4}}, "day": 29, "month": 5, "livingplace": "Bole"}}, "location": "Neuch\u00e2tel"}, "Groupe E Tour Fribourg #5 Fribourg": {"race": "Groupe E Tour Fribourg #5 Fribourg", "longitude": 7.131657799999999, "latitude": 46.8128615, "date": {"mer. 26.09.2012": {"weekday": "wednesday", "year": 2012, "categories": {"HS2": {"pace": 281000000000, "rank": 24, "distance": 11, "time": 3012.9}}, "day": 26, "month": 9, "livingplace": "Colombier"}}, "location": "Givisiez"}, "20km de Lausanne": {"race": "20km de Lausanne", "longitude": 6.6322734, "latitude": 46.5196535, "date": {"sam. 27.04.2013": {"weekday": "saturday", "year": 2013, "categories": {"20-H45": {"pace": 347000000000, "rank": 307, "distance": 20, "time": 6948.4}}, "day": 27, "month": 4, "livingplace": "Meneurs allure 20 km"}}, "location": "Lausanne"}, "BCN Tour #5 Colombier": {"race": "BCN Tour #5 Colombier", "longitude": 6.6324944, "latitude": 46.9262933, "date": {"mer. 22.05.2013": {"weekday": "wednesday", "year": 2013, "categories": {"HS2": {"pace": 244000000000, "rank": 52, "distance": 11, "time": 2571.0}}, "day": 22, "month": 5, "livingplace": "Bole"}}, "location": "Couvet"}, "BCN Tour Neuch\u00e2tel": {"race": "BCN Tour Neuch\u00e2tel", "longitude": 6.9292732, "latitude": 46.9899874, "date": {"mer. 25.05.2011": {"weekday": "wednesday", "year": 2011, "categories": {"HS2": {"pace": 285000000000, "rank": 79, "distance": 11, "time": 3257.5}}, "day": 25, "month": 5, "livingplace": "Colombier"}, "mer. 26.05.2010": {"weekday": "wednesday", "year": 2010, "categories": {"HS2": {"pace": 298000000000, "rank": 71, "distance": 10, "time": 2892.2}}, "day": 26, "month": 5, "livingplace": "Colombier"}, "mer. 30.05.2012": {"weekday": "wednesday", "year": 2012, "categories": {"HS2": {"pace": 292000000000, "rank": 76, "distance": 11, "time": 3275.9}}, "day": 30, "month": 5, "livingplace": "Colombier"}}, "location": "Neuch\u00e2tel"}, "Sierre-Zinal, Sierre": {"race": "Sierre-Zinal, Sierre", "longitude": 7.533536199999999, "latitude": 46.29413110000001, "date": {"dim. 11.08.2013": {"weekday": "sunday", "year": 2013, "categories": {"V\u00e9t_I": {"pace": 544000000000, "rank": 168, "distance": 31, "time": 16882.1}}, "day": 11, "month": 8, "livingplace": "Bole"}}, "location": "Sierre"}, "Groupe E Tour Fribourg #3 Estavayer-le-Lac": {"race": "Groupe E Tour Fribourg #3 Estavayer-le-Lac", "longitude": 7.1954365, "latitude": 46.97488999999999, "date": {"mer. 12.09.2012": {"weekday": "wednesday", "year": 2012, "categories": {"HS2": {"pace": 258000000000, "rank": 13, "distance": 10, "time": 2549.6}}, "day": 12, "month": 9, "livingplace": "Colombier"}}, "location": "Kerzers"}, "BCN Tour Les Ponts-de-Martel": {"race": "BCN Tour Les Ponts-de-Martel", "longitude": 6.733554799999999, "latitude": 46.999113, "date": {"mer. 09.05.2012": {"weekday": "wednesday", "year": 2012, "categories": {"HS2": {"pace": 288000000000, "rank": 91, "distance": 10, "time": 2976.0}}, "day": 9, "month": 5, "livingplace": "Colombier"}}, "location": "Les Ponts-de-Martel"}, "BCN Tour Colombier": {"race": "BCN Tour Colombier", "longitude": 6.8589727, "latitude": 46.9668714, "date": {"mer. 21.04.2010": {"weekday": "wednesday", "year": 2010, "categories": {"HS2": {"pace": 297000000000, "rank": 76, "distance": 10, "time": 2977.0}}, "day": 21, "month": 4, "livingplace": "Colombier"}, "mer. 16.05.2012": {"weekday": "wednesday", "year": 2012, "categories": {"HS2": {"pace": 280000000000, "rank": 89, "distance": 11, "time": 3028.4}}, "day": 16, "month": 5, "livingplace": "Colombier"}, "mer. 23.04.2008": {"weekday": "wednesday", "year": 2008, "categories": {"HS2": {"pace": 281000000000, "rank": 53, "distance": 10, "time": 2871.6}}, "day": 23, "month": 4, "livingplace": "Colombier"}}, "location": "Colombier NE"}, "BCN Tour Le Locle": {"race": "BCN Tour Le Locle", "longitude": 6.733554799999999, "latitude": 46.999113, "date": {"mer. 05.05.2010": {"weekday": "wednesday", "year": 2010, "categories": {"HS2": {"pace": 278000000000, "rank": 70, "distance": 11, "time": 3032.4}}, "day": 5, "month": 5, "livingplace": "Colombier"}}, "location": "Les Ponts-de-Martel"}, "Course p\u00e9destre Thyon-Dixence, Thyon": {"race": "Course p\u00e9destre Thyon-Dixence, Thyon", "date": {"dim. 03.08.2008": {"weekday": "sunday", "year": 2008, "categories": {"V1": {"pace": 463000000000, "rank": 72, "distance": 16, "time": 7576.3}}, "day": 3, "month": 8, "livingplace": "Colombier"}, "dim. 07.08.2011": {"weekday": "sunday", "year": 2011, "categories": {"V1": {"pace": 525000000000, "rank": 69, "distance": 16, "time": 8595.8}}, "day": 7, "month": 8, "livingplace": "Colombier"}, "dim. 01.08.2010": {"weekday": "sunday", "year": 2010, "categories": {"V1": {"pace": 483000000000, "rank": 51, "distance": 16, "time": 7908.9}}, "day": 1, "month": 8, "livingplace": "Colombier"}, "dim. 02.08.2009": {"weekday": "sunday", "year": 2009, "categories": {"V1": {"pace": 423000000000, "rank": 34, "distance": 16, "time": 6918.3}}, "day": 2, "month": 8, "livingplace": "Colombier"}}, "location": "Thyon-Les Collons"}, "BCN Tour Les Ponts de Martel": {"race": "BCN Tour Les Ponts de Martel", "longitude": 6.6324944, "latitude": 46.9262933, "date": {"mer. 18.05.2011": {"weekday": "wednesday", "year": 2011, "categories": {"HS2": {"pace": 288000000000, "rank": 81, "distance": 13, "time": 3694.6}}, "day": 18, "month": 5, "livingplace": "Colombier"}}, "location": "Couvet"}, "BCN Tour #1 Corcelles": {"race": "BCN Tour #1 Corcelles", "longitude": 6.8589727, "latitude": 46.9668714, "date": {"mer. 24.04.2013": {"weekday": "wednesday", "year": 2013, "categories": {"HS2": {"pace": 272000000000, "rank": 70, "distance": 10, "time": 2671.9}}, "day": 24, "month": 4, "livingplace": "Bole"}}, "location": "Colombier NE"}, "BCN Tour M\u00f4tier": {"race": "BCN Tour M\u00f4tier", "longitude": 6.6324944, "latitude": 46.9262933, "date": {"mer. 19.05.2010": {"weekday": "wednesday", "year": 2010, "categories": {"HS2": {"pace": 262000000000, "rank": 59, "distance": 10, "time": 2603.3}}, "day": 19, "month": 5, "livingplace": "Colombier"}}, "location": "Couvet"}, "D\u00e9fi Val-de-Travers, Couvet": {"race": "D\u00e9fi Val-de-Travers, Couvet", "longitude": 6.6324944, "latitude": 46.9262933, "date": {"sam. 20.06.2009": {"weekday": "saturday", "year": 2009, "categories": {"SHS2": {"pace": 314000000000, "rank": 13, "distance": 20, "time": 6200.0}}, "day": 20, "month": 6, "livingplace": "Colombier"}, "sam. 19.06.2010": {"weekday": "saturday", "year": 2010, "categories": {"12-HSen2": {"pace": 325000000000, "rank": 4, "distance": 12, "time": 3973.4}}, "day": 19, "month": 6, "livingplace": "Colombier"}}, "location": "Couvet"}, "BCN Tour Couvet": {"race": "BCN Tour Couvet", "longitude": 6.9175754, "latitude": 47.0624261, "date": {"mer. 02.05.2012": {"weekday": "wednesday", "year": 2012, "categories": {"HS2": {"pace": 295000000000, "rank": 101, "distance": 11, "time": 3292.8}}, "day": 2, "month": 5, "livingplace": "Colombier"}}, "location": "Ch\u00e9zard-St-Martin"}, "BCN Tour Ponts-de-Martel": {"race": "BCN Tour Ponts-de-Martel", "longitude": 6.9175754, "latitude": 47.0624261, "date": {"mer. 28.04.2010": {"weekday": "wednesday", "year": 2010, "categories": {"HS2": {"pace": 282000000000, "rank": 70, "distance": 11, "time": 3168.6}}, "day": 28, "month": 4, "livingplace": "Colombier"}}, "location": "Ch\u00e9zard-St-Martin"}, "BCN Tour #2 La Chaux-de-Fonds": {"race": "BCN Tour #2 La Chaux-de-Fonds", "longitude": 6.9175754, "latitude": 47.0624261, "date": {"mer. 01.05.2013": {"weekday": "wednesday", "year": 2013, "categories": {"HS2": {"pace": 267000000000, "rank": 77, "distance": 11, "time": 2865.1}}, "day": 1, "month": 5, "livingplace": "Bole"}}, "location": "Ch\u00e9zard-St-Martin"}, "BCN Tour Le Landeron": {"race": "BCN Tour Le Landeron", "longitude": 6.8589727, "latitude": 46.9668714, "date": {"mer. 22.04.2009": {"weekday": "wednesday", "year": 2009, "categories": {"HS2": {"pace": 281000000000, "rank": 65, "distance": 11, "time": 3120.9}}, "day": 22, "month": 4, "livingplace": "Colombier"}}, "location": "Colombier NE"}, "Lausanne Marathon": {"race": "Lausanne Marathon", "longitude": 6.6322734, "latitude": 46.5196535, "date": {"dim. 31.10.2010": {"weekday": "sunday", "year": 2010, "categories": {"21-H3": {"pace": 275000000000, "rank": 181, "distance": 21, "time": 5818.8}}, "day": 31, "month": 10, "livingplace": "Colombier"}, "dim. 30.10.2011": {"weekday": "sunday", "year": 2011, "categories": {"21-H3": {"pace": 279000000000, "rank": 236, "distance": 21, "time": 5903.0}}, "day": 30, "month": 10, "livingplace": "Colombier"}}, "location": "Lausanne"}, "BCN Tour #3 Dombresson": {"race": "BCN Tour #3 Dombresson", "longitude": 6.733554799999999, "latitude": 46.999113, "date": {"mer. 08.05.2013": {"weekday": "wednesday", "year": 2013, "categories": {"HS2": {"pace": 262000000000, "rank": 66, "distance": 10, "time": 2603.4}}, "day": 8, "month": 5, "livingplace": "Bole"}}, "location": "Les Ponts-de-Martel"}, "BCN Tour La Br\u00e9vine": {"race": "BCN Tour La Br\u00e9vine", "longitude": 6.733554799999999, "latitude": 46.999113, "date": {"mer. 04.05.2011": {"weekday": "wednesday", "year": 2011, "categories": {"HS2": {"pace": 288000000000, "rank": 87, "distance": 10, "time": 2882.6}}, "day": 4, "month": 5, "livingplace": "Colombier"}}, "location": "Les Ponts-de-Martel"}, "BCN Tour La Chaux-de-fonds": {"race": "BCN Tour La Chaux-de-fonds", "longitude": 6.832783800000001, "latitude": 47.1034892, "date": {"mer. 12.05.2010": {"weekday": "wednesday", "year": 2010, "categories": {"HS2": {"pace": 350000000000, "rank": 91, "distance": 11, "time": 3747.4}}, "day": 12, "month": 5, "livingplace": "Colombier"}}, "location": "La Chaux-de-Fonds"}}, "name": "Fuchs Olivier", "birth": 1966}