{"sex": "M", "races": {"Pfingstlauf Wohlen AG": {"race": "Pfingstlauf Wohlen AG", "longitude": 8.2768762, "latitude": 47.3493653, "date": {"sam. 11.06.2011": {"weekday": "saturday", "year": 2011, "categories": {"8-10-M30": {"pace": 286000000000, "rank": 36, "distance": 10, "time": 2865.2}}, "day": 11, "month": 6, "livingplace": "Gebenstorf"}}, "location": "Wohlen AG"}, "Lucerne Marathon, Luzern": {"race": "Lucerne Marathon, Luzern", "longitude": 8.3093072, "latitude": 47.05016819999999, "date": {"dim. 28.10.2012": {"weekday": "sunday", "year": 2012, "categories": {"H-M30": {"pace": 299000000000, "rank": 495, "distance": 21, "time": 6313.1}}, "day": 28, "month": 10, "livingplace": "Gebenstorf"}}, "location": "Luzern"}, "Badener Limmat-Lauf, Baden": {"race": "Badener Limmat-Lauf, Baden", "longitude": 8.5303972, "latitude": 48.5699281, "date": {"sam. 26.03.2011": {"weekday": "saturday", "year": 2011, "categories": {"M30": {"pace": 302000000000, "rank": 75, "distance": 13, "time": 3994.7}}, "day": 26, "month": 3, "livingplace": "Gebenstorf"}}, "location": "Baden"}, "Lenzburger Lauf": {"race": "Lenzburger Lauf", "longitude": 8.172154500000001, "latitude": 47.3904443, "date": {"sam. 28.05.2011": {"weekday": "saturday", "year": 2011, "categories": {"11-M30": {"pace": 292000000000, "rank": 29, "distance": 12, "time": 3398.3}}, "day": 28, "month": 5, "livingplace": "Gebenstorf"}}, "location": "Lenzburg"}, "Hallwilerseelauf, Beinwil am See": {"race": "Hallwilerseelauf, Beinwil am See", "date": {"sam. 13.10.2012": {"weekday": "saturday", "year": 2012, "categories": {"10-Mann": {"pace": 267000000000, "rank": 142, "distance": 10, "time": 2670.1}}, "day": 13, "month": 10, "livingplace": "Gebenstorf"}, "sam. 15.10.2011": {"weekday": "saturday", "year": 2011, "categories": {"10-Mann": {"pace": 269000000000, "rank": 149, "distance": 10, "time": 2693.7}}, "day": 15, "month": 10, "livingplace": "Gebenstorf"}}, "location": "Beinwil am See"}, "Kerzerslauf": {"race": "Kerzerslauf", "longitude": 7.1954365, "latitude": 46.97488999999999, "date": {"sam. 17.03.2012": {"weekday": "saturday", "year": 2012, "categories": {"15-M20": {"pace": 299000000000, "rank": 397, "distance": 15, "time": 4498.5}}, "day": 17, "month": 3, "livingplace": "Gebenstorf"}}, "location": "Kerzers"}, "Z\u00fcrich Marathon, Teamrun und Cityrun": {"race": "Z\u00fcrich Marathon, Teamrun und Cityrun", "longitude": 8.541694, "latitude": 47.3768866, "date": {"dim. 22.04.2012": {"weekday": "sunday", "year": 2012, "categories": {"10-M30": {"pace": 341000000000, "rank": 273, "distance": 10, "time": 3413.9}}, "day": 22, "month": 4, "livingplace": "Gebenstorf"}}, "location": "Z\u00fcrich"}}, "name": "Fuchs Michael", "birth": 1980}