{"sex": "M", "races": {"Liestaler Stadtlauf": {"race": "Liestaler Stadtlauf", "longitude": 7.7334272, "latitude": 47.4866143, "date": {"mer. 25.08.2010": {"weekday": "wednesday", "year": 2010, "categories": {"M30": {"pace": 281000000000, "rank": 17, "distance": 12, "time": 3382.4}}, "day": 25, "month": 8, "livingplace": "Ziefen"}}, "location": "Liestal"}, "Birslauf Basel": {"race": "Birslauf Basel", "longitude": 7.5885761, "latitude": 47.5595986, "date": {"sam. 27.03.2010": {"weekday": "saturday", "year": 2010, "categories": {"M": {"pace": 243000000000, "rank": 67, "distance": 10, "time": 2435.7}}, "day": 27, "month": 3, "livingplace": "Ziefen"}}, "location": "Basel"}, "Birslauf (Herbst), Basel": {"race": "Birslauf (Herbst), Basel", "longitude": 7.5885761, "latitude": 47.5595986, "date": {"sam. 05.09.2009": {"weekday": "saturday", "year": 2009, "categories": {"M": {"pace": 260000000000, "rank": 110, "distance": 10, "time": 2608.9}}, "day": 5, "month": 9, "livingplace": "Ziefen"}}, "location": "Basel"}, "Hallwilerseelauf, Beinwil am See": {"race": "Hallwilerseelauf, Beinwil am See", "date": {"sam. 15.10.2011": {"weekday": "saturday", "year": 2011, "categories": {"10-Mann": {"pace": 226000000000, "rank": 45, "distance": 10, "time": 2269.8}}, "day": 15, "month": 10, "livingplace": "Ziefen"}}, "location": "Beinwil am See"}, "Int Greifenseelauf, Uster": {"race": "Int Greifenseelauf, Uster", "longitude": 8.717873899999999, "latitude": 47.3482747, "date": {"sam. 19.09.2009": {"weekday": "saturday", "year": 2009, "categories": {"H-M30": {"pace": 288000000000, "rank": 219, "distance": 21, "time": 6089.8}}, "day": 19, "month": 9, "livingplace": "Ziefen"}}, "location": "Uster"}, "ASICS Bremgarter Reusslauf": {"race": "ASICS Bremgarter Reusslauf", "longitude": 8.3397905, "latitude": 47.34917739999999, "date": {"sam. 27.02.2010": {"weekday": "saturday", "year": 2010, "categories": {"M30": {"pace": 246000000000, "rank": 131, "distance": 11, "time": 2711.2}}, "day": 27, "month": 2, "livingplace": "Ziefen"}}, "location": "Bremgarten AG"}, "Lucerne Marathon, Luzern": {"race": "Lucerne Marathon, Luzern", "longitude": 8.3093072, "latitude": 47.05016819999999, "date": {"dim. 30.10.2011": {"weekday": "sunday", "year": 2011, "categories": {"H-M30": {"pace": 246000000000, "rank": 85, "distance": 21, "time": 5208.9}}, "day": 30, "month": 10, "livingplace": "Ziefen"}}, "location": "Luzern"}, "SwissCityMarathon - Lucerne, Luzern": {"race": "SwissCityMarathon - Lucerne, Luzern", "longitude": 8.3093072, "latitude": 47.05016819999999, "date": {"dim. 27.10.2013": {"weekday": "sunday", "year": 2013, "categories": {"M-M30": {"pace": 269000000000, "rank": 43, "distance": 42, "time": 11380.7}}, "day": 27, "month": 10, "livingplace": "Ziefen"}}, "location": "Luzern"}, "Basler Marathon-Tage": {"race": "Basler Marathon-Tage", "longitude": 7.5885761, "latitude": 47.5595986, "date": {"sam. 27.10.2007": {"weekday": "saturday", "year": 2007, "categories": {"HM/MHK": {"pace": 310000000000, "rank": 42, "distance": 21, "time": 6554.1}}, "day": 27, "month": 10, "livingplace": "Ziefen"}}, "location": "Basel"}, "IWB Basel Marathon": {"race": "IWB Basel Marathon", "longitude": 7.5885761, "latitude": 47.5595986, "date": {"dim. 23.09.2012": {"weekday": "sunday", "year": 2012, "categories": {"H-21-M30": {"pace": 254000000000, "rank": 22, "distance": 21, "time": 5362.6}}, "day": 23, "month": 9, "livingplace": "Ziefen"}, "dim. 22.09.2013": {"weekday": "sunday", "year": 2013, "categories": {"H-21-M30": {"pace": 244000000000, "rank": 16, "distance": 21, "time": 5167.1}}, "day": 22, "month": 9, "livingplace": "Ziefen"}, "dim. 11.09.2011": {"weekday": "sunday", "year": 2011, "categories": {"H-21-M30": {"pace": 255000000000, "rank": 12, "distance": 21, "time": 5386.5}}, "day": 11, "month": 9, "livingplace": "Ziefen"}}, "location": "Basel"}, "Z\u00fcrich Marathon, Teamrun und Cityrun": {"race": "Z\u00fcrich Marathon, Teamrun und Cityrun", "longitude": 8.541694, "latitude": 47.3768866, "date": {"dim. 20.04.2008": {"weekday": "sunday", "year": 2008, "categories": {"M30": {"pace": 313000000000, "rank": 588, "distance": 42, "time": 13233.3}}, "day": 20, "month": 4, "livingplace": "Ziefen"}, "dim. 11.04.2010": {"weekday": "sunday", "year": 2010, "categories": {"M30": {"pace": 272000000000, "rank": 127, "distance": 42, "time": 11497.7}}, "day": 11, "month": 4, "livingplace": "Ziefen"}}, "location": "Z\u00fcrich"}, "Gippinger Stauseelauf": {"race": "Gippinger Stauseelauf", "longitude": 8.2152586, "latitude": 47.5810513, "date": {"ven. 31.12.2010": {"weekday": "friday", "year": 2010, "categories": {"7-M30": {"pace": 242000000000, "rank": 25, "distance": 8, "time": 1828.2}}, "day": 31, "month": 12, "livingplace": "Ziefen"}}, "location": "Leuggern"}, "crossrun, Therwil": {"race": "crossrun, Therwil", "longitude": 7.5532808, "latitude": 47.4990611, "date": {"dim. 28.08.2011": {"weekday": "sunday", "year": 2011, "categories": {"M30": {"pace": 250000000000, "rank": 6, "distance": 10, "time": 2500.7}}, "day": 28, "month": 8, "livingplace": "Ziefen"}}, "location": "Therwil"}}, "name": "Fusco Ivano", "birth": 1978}