{"sex": "M", "races": {"Course de l'Escalade, Gen\u00e8ve": {"race": "Course de l'Escalade, Gen\u00e8ve", "longitude": 6.1431577, "latitude": 46.2043907, "date": {"sam. 07.12.2013": {"weekday": "saturday", "year": 2013, "categories": {"Esc-Hom1": {"pace": 245000000000, "rank": 132, "distance": 7, "time": 1782.0}}, "day": 7, "month": 12, "livingplace": "Auvernier"}}, "location": "Gen\u00e8ve"}, "BCN Tour #5 Colombier": {"race": "BCN Tour #5 Colombier", "longitude": 6.6324944, "latitude": 46.9262933, "date": {"mer. 22.05.2013": {"weekday": "wednesday", "year": 2013, "categories": {"HE": {"pace": 278000000000, "rank": 192, "distance": 11, "time": 2927.9}}, "day": 22, "month": 5, "livingplace": "Auvernier"}}, "location": "Couvet"}, "BCN Tour Neuch\u00e2tel": {"race": "BCN Tour Neuch\u00e2tel", "longitude": 6.9292732, "latitude": 46.9899874, "date": {"mer. 30.05.2012": {"weekday": "wednesday", "year": 2012, "categories": {"HE": {"pace": 312000000000, "rank": 137, "distance": 11, "time": 3497.0}}, "day": 30, "month": 5, "livingplace": "Neuchatel"}}, "location": "Neuch\u00e2tel"}, "Course p\u00e9destre Thyon-Dixence, Thyon": {"race": "Course p\u00e9destre Thyon-Dixence, Thyon", "date": {"dim. 04.08.2013": {"weekday": "sunday", "year": 2013, "categories": {"HomElite": {"pace": 420000000000, "rank": 72, "distance": 16, "time": 6880.1}}, "day": 4, "month": 8, "livingplace": "Auvernier"}}, "location": "Thyon-Les Collons"}, "La Trotteuse-Tissot, La Chaux-de-Fonds": {"race": "La Trotteuse-Tissot, La Chaux-de-Fonds", "longitude": 6.832783800000001, "latitude": 47.1034892, "date": {"sam. 14.12.2013": {"weekday": "saturday", "year": 2013, "categories": {"GC-H20": {"pace": 250000000000, "rank": 36, "distance": 8, "time": 2007.5}}, "day": 14, "month": 12, "livingplace": "Auvernier"}}, "location": "La Chaux-de-Fonds"}, "Kerzerslauf": {"race": "Kerzerslauf", "longitude": 7.1954365, "latitude": 46.97488999999999, "date": {"sam. 15.03.2014": {"weekday": "saturday", "year": 2014, "categories": {"15-M20": {"pace": 248000000000, "rank": 134, "distance": 15, "time": 3728.5}}, "day": 15, "month": 3, "livingplace": "Auvernier"}}, "location": "Kerzers"}, "Morat-Fribourg": {"race": "Morat-Fribourg", "longitude": 7.120184, "latitude": 46.92922110000001, "date": {"sam. 05.10.2013": {"weekday": "saturday", "year": 2013, "categories": {"17-M20": {"pace": 270000000000, "rank": 510, "distance": 17, "time": 4717.2}}, "day": 5, "month": 10, "livingplace": "Auvernier"}}, "location": "Murten"}}, "name": "Gaberell Vincent", "birth": 1984}