{"sex": "M", "races": {"Tour du Chablais #2 Bex": {"race": "Tour du Chablais #2 Bex", "longitude": 6.854975199999999, "latitude": 46.3835529, "date": {"mer. 18.04.2012": {"weekday": "wednesday", "year": 2012, "categories": {"M-M40": {"pace": 309000000000, "rank": 126, "distance": 8, "time": 2479.0}}, "day": 18, "month": 4, "livingplace": "Monthey"}}, "location": "Bouveret"}, "Tour du Chablais #6 Montreux": {"race": "Tour du Chablais #6 Montreux", "longitude": 6.970566, "latitude": 46.3190253, "date": {"mer. 16.05.2012": {"weekday": "wednesday", "year": 2012, "categories": {"M-M40": {"pace": 302000000000, "rank": 144, "distance": 9, "time": 2801.7}}, "day": 16, "month": 5, "livingplace": "Monthey"}}, "location": "Aigle"}, "Tour du Chablais #4 Morgins": {"race": "Tour du Chablais #4 Morgins", "date": {"mer. 18.05.2011": {"weekday": "wednesday", "year": 2011, "categories": {"M-M20": {"pace": 348000000000, "rank": 206, "distance": 8, "time": 2909.7}}, "day": 18, "month": 5, "livingplace": "Monthey"}}, "location": "Les Mosses"}, "Tour du Chablais #2 St-Gingolph": {"race": "Tour du Chablais #2 St-Gingolph", "longitude": 6.854975199999999, "latitude": 46.3835529, "date": {"mer. 14.04.2010": {"weekday": "wednesday", "year": 2010, "categories": {"M-M20": {"pace": 334000000000, "rank": 145, "distance": 8, "time": 2796.4}}, "day": 14, "month": 4, "livingplace": "Choex"}}, "location": "Bouveret"}, "Tour du Chablais #1 Montreux": {"race": "Tour du Chablais #1 Montreux", "longitude": 6.9916269, "latitude": 46.2957462, "date": {"mer. 11.04.2012": {"weekday": "wednesday", "year": 2012, "categories": {"M-M40": {"pace": 323000000000, "rank": 134, "distance": 8, "time": 2460.3}}, "day": 11, "month": 4, "livingplace": "Monthey"}}, "location": "Ollon VD"}, "Tour du Chablais #5 Bex": {"race": "Tour du Chablais #5 Bex", "longitude": 6.931504599999999, "latitude": 46.3603257, "date": {"mer. 09.05.2012": {"weekday": "wednesday", "year": 2012, "categories": {"M-M40": {"pace": 300000000000, "rank": 104, "distance": 9, "time": 2665.1}}, "day": 9, "month": 5, "livingplace": "Monthey"}}, "location": "Roche VD"}, "Tour du Chablais #2 Rennaz": {"race": "Tour du Chablais #2 Rennaz", "longitude": 6.854975199999999, "latitude": 46.3835529, "date": {"mer. 04.05.2011": {"weekday": "wednesday", "year": 2011, "categories": {"M-M20": {"pace": 327000000000, "rank": 226, "distance": 9, "time": 3063.1}}, "day": 4, "month": 5, "livingplace": "Monthey"}}, "location": "Bouveret"}, "Tour du Chablais #4 Champ\u00e9ry": {"race": "Tour du Chablais #4 Champ\u00e9ry", "date": {"mer. 02.05.2012": {"weekday": "wednesday", "year": 2012, "categories": {"M-M40": {"pace": 319000000000, "rank": 123, "distance": 8, "time": 2650.2}}, "day": 2, "month": 5, "livingplace": "Monthey"}}, "location": "Les Mosses"}, "Tour du Chablais #6 Monthey": {"race": "Tour du Chablais #6 Monthey", "longitude": 6.970566, "latitude": 46.3190253, "date": {"mer. 08.05.2013": {"weekday": "wednesday", "year": 2013, "categories": {"M-M40": {"pace": 319000000000, "rank": 131, "distance": 9, "time": 2977.0}}, "day": 8, "month": 5, "livingplace": "Monthey"}}, "location": "Aigle"}, "Tour du Chablais #2 Yvorne": {"race": "Tour du Chablais #2 Yvorne", "longitude": 6.854975199999999, "latitude": 46.3835529, "date": {"mer. 10.04.2013": {"weekday": "wednesday", "year": 2013, "categories": {"M-M40": {"pace": 346000000000, "rank": 117, "distance": 8, "time": 2774.5}}, "day": 10, "month": 4, "livingplace": "Monthey"}}, "location": "Bouveret"}, "Tour du Chablais #4 Yvorne": {"race": "Tour du Chablais #4 Yvorne", "date": {"mer. 28.04.2010": {"weekday": "wednesday", "year": 2010, "categories": {"M-M20": {"pace": 342000000000, "rank": 180, "distance": 8, "time": 2836.3}}, "day": 28, "month": 4, "livingplace": "Choex"}}, "location": "Les Mosses"}, "Tour du Chablais #3 Bouveret": {"race": "Tour du Chablais #3 Bouveret", "longitude": 7.0223787, "latitude": 46.1782231, "date": {"mer. 17.04.2013": {"weekday": "wednesday", "year": 2013, "categories": {"M-M40": {"pace": 336000000000, "rank": 138, "distance": 10, "time": 3368.3}}, "day": 17, "month": 4, "livingplace": "Monthey"}}, "location": "Evionnaz"}, "Tour du Chablais #1 Roche": {"race": "Tour du Chablais #1 Roche", "longitude": 6.9916269, "latitude": 46.2957462, "date": {"mer. 03.04.2013": {"weekday": "wednesday", "year": 2013, "categories": {"M-M40": {"pace": 322000000000, "rank": 128, "distance": 9, "time": 2860.5}}, "day": 3, "month": 4, "livingplace": "Monthey"}, "mer. 07.04.2010": {"weekday": "wednesday", "year": 2010, "categories": {"M-M20": {"pace": 316000000000, "rank": 193, "distance": 9, "time": 2834.3}}, "day": 7, "month": 4, "livingplace": "Choex"}}, "location": "Ollon VD"}, "Tour du Chablais #3 Collombey-Muraz": {"race": "Tour du Chablais #3 Collombey-Muraz", "longitude": 7.0223787, "latitude": 46.1782231, "date": {"mer. 25.04.2012": {"weekday": "wednesday", "year": 2012, "categories": {"M-M40": {"pace": 310000000000, "rank": 121, "distance": 9, "time": 2787.6}}, "day": 25, "month": 4, "livingplace": "Monthey"}}, "location": "Evionnaz"}, "Morat-Fribourg": {"race": "Morat-Fribourg", "longitude": 7.120184, "latitude": 46.92922110000001, "date": {"sam. 06.10.2012": {"weekday": "saturday", "year": 2012, "categories": {"17-M40": {"pace": 338000000000, "rank": 602, "distance": 17, "time": 5903.3}}, "day": 6, "month": 10, "livingplace": "Monthey"}}, "location": "Murten"}, "Tour du Chablais #6 Aigle": {"race": "Tour du Chablais #6 Aigle", "longitude": 6.970566, "latitude": 46.3190253, "date": {"mer. 01.06.2011": {"weekday": "wednesday", "year": 2011, "categories": {"M-M20": {"pace": 314000000000, "rank": 217, "distance": 10, "time": 3209.0}}, "day": 1, "month": 6, "livingplace": "Monthey"}}, "location": "Aigle"}, "Tour du Chablais #6 Mouthey": {"race": "Tour du Chablais #6 Mouthey", "longitude": 6.970566, "latitude": 46.3190253, "date": {"mer. 12.05.2010": {"weekday": "wednesday", "year": 2010, "categories": {"M-M20": {"pace": 310000000000, "rank": 204, "distance": 9, "time": 2852.6}}, "day": 12, "month": 5, "livingplace": "Choex"}}, "location": "Aigle"}, "Montreux - Les Rochers de Naye": {"race": "Montreux - Les Rochers de Naye", "longitude": 6.9106799, "latitude": 46.4312213, "date": {"dim. 07.07.2013": {"weekday": "sunday", "year": 2013, "categories": {"C-HV\u00e9t1": {"pace": 586000000000, "rank": 14, "distance": 10, "time": 5568.3}}, "day": 7, "month": 7, "livingplace": "Monthey"}}, "location": "Montreux"}, "Tour du Chablais #1 Lavey": {"race": "Tour du Chablais #1 Lavey", "longitude": 6.9916269, "latitude": 46.2957462, "date": {"mer. 27.04.2011": {"weekday": "wednesday", "year": 2011, "categories": {"M-M20": {"pace": 334000000000, "rank": 226, "distance": 9, "time": 3006.6}}, "day": 27, "month": 4, "livingplace": "Monthey"}}, "location": "Ollon VD"}, "Tour du Chablais #5 Morgins": {"race": "Tour du Chablais #5 Morgins", "longitude": 6.931504599999999, "latitude": 46.3603257, "date": {"mer. 01.05.2013": {"weekday": "wednesday", "year": 2013, "categories": {"M-M40": {"pace": 331000000000, "rank": 103, "distance": 8, "time": 2522.3}}, "day": 1, "month": 5, "livingplace": "Monthey"}}, "location": "Roche VD"}, "Tour du Chablais #4 St  Maurice": {"race": "Tour du Chablais #4 St  Maurice", "date": {"mer. 24.04.2013": {"weekday": "wednesday", "year": 2013, "categories": {"M-M40": {"pace": 325000000000, "rank": 130, "distance": 10, "time": 3251.8}}, "day": 24, "month": 4, "livingplace": "Monthey"}}, "location": "Les Mosses"}, "Tour du Chablais #1 Martigny": {"race": "Tour du Chablais #1 Martigny", "longitude": 6.9916269, "latitude": 46.2957462, "date": {"mer. 23.04.2014": {"weekday": "wednesday", "year": 2014, "categories": {"M-M40": {"pace": 338000000000, "rank": 145, "distance": 9, "time": 2877.4}}, "day": 23, "month": 4, "livingplace": "Monthey"}}, "location": "Ollon VD"}}, "name": "Gachet G\u00e9rard", "birth": 1972}