{"sex": "M", "races": {"BCN Tour Ponts-de-Martel": {"race": "BCN Tour Ponts-de-Martel", "longitude": 6.9175754, "latitude": 47.0624261, "date": {"mer. 28.04.2010": {"weekday": "wednesday", "year": 2010, "categories": {"HE": {"pace": 270000000000, "rank": 25, "distance": 11, "time": 3031.1}}, "day": 28, "month": 4, "livingplace": "Le Locle"}}, "location": "Ch\u00e9zard-St-Martin"}, "Zermatt Marathon, Zermatt": {"race": "Zermatt Marathon, Zermatt", "date": {"sam. 04.07.2009": {"weekday": "saturday", "year": 2009, "categories": {"STM\u00e4": {"pace": 361000000000, "rank": 15, "distance": 42, "time": 15269.9}}, "day": 4, "month": 7, "livingplace": "Le Locle"}}, "location": "Zermatt"}, "D\u00e9fi Val-de-Travers, Couvet": {"race": "D\u00e9fi Val-de-Travers, Couvet", "longitude": 6.6324944, "latitude": 46.9262933, "date": {"sam. 21.06.2008": {"weekday": "saturday", "year": 2008, "categories": {"SH": {"pace": 341000000000, "rank": 7, "distance": 20, "time": 6730.7}}, "day": 21, "month": 6, "livingplace": "Le Locle"}, "sam. 20.06.2009": {"weekday": "saturday", "year": 2009, "categories": {"SH": {"pace": 298000000000, "rank": 9, "distance": 20, "time": 5886.1}}, "day": 20, "month": 6, "livingplace": "Le Locle"}}, "location": "Couvet"}, "Kerzerslauf": {"race": "Kerzerslauf", "longitude": 7.1954365, "latitude": 46.97488999999999, "date": {"sam. 21.03.2009": {"weekday": "saturday", "year": 2009, "categories": {"15-M20": {"pace": 268000000000, "rank": 242, "distance": 15, "time": 4020.4}}, "day": 21, "month": 3, "livingplace": "Le Locle"}}, "location": "Kerzers"}, "Morat-Fribourg": {"race": "Morat-Fribourg", "longitude": 7.120184, "latitude": 46.92922110000001, "date": {"sam. 04.10.2008": {"weekday": "saturday", "year": 2008, "categories": {"C-M20": {"pace": 283000000000, "rank": 624, "distance": 17, "time": 4871.4}}, "day": 4, "month": 10, "livingplace": "Le Locle"}}, "location": "Murten"}, "BCN Tour Le Landeron": {"race": "BCN Tour Le Landeron", "longitude": 6.8589727, "latitude": 46.9668714, "date": {"mer. 22.04.2009": {"weekday": "wednesday", "year": 2009, "categories": {"HE": {"pace": 272000000000, "rank": 36, "distance": 11, "time": 3024.1}}, "day": 22, "month": 4, "livingplace": "Le Locle"}}, "location": "Colombier NE"}, "BCN Tour La Chaux-de-fonds": {"race": "BCN Tour La Chaux-de-fonds", "longitude": 6.832783800000001, "latitude": 47.1034892, "date": {"mer. 12.05.2010": {"weekday": "wednesday", "year": 2010, "categories": {"HE": {"pace": 386000000000, "rank": 117, "distance": 11, "time": 4137.3}}, "day": 12, "month": 5, "livingplace": "Le Locle"}}, "location": "La Chaux-de-Fonds"}}, "name": "Gadomski J\u00e9r\u00e9my", "birth": 1988}