{"sex": "M", "races": {"Corrida Bulloise, Bulle": {"race": "Corrida Bulloise, Bulle", "longitude": 7.057726799999999, "latitude": 46.6154512, "date": {"sam. 16.11.2013": {"weekday": "saturday", "year": 2013, "categories": {"PopHomm": {"pace": 263000000000, "rank": 166, "distance": 6, "time": 1619.2}}, "day": 16, "month": 11, "livingplace": "Aigle"}, "sam. 15.11.2014": {"weekday": "saturday", "year": 2014, "categories": {"Pop-Hom": {"pace": 242000000000, "rank": 54, "distance": 6, "time": 1489.4}}, "day": 15, "month": 11, "livingplace": "Aigle"}}, "location": "Bulle"}, "Aletsch-Halbmarathon, Bettmeralp": {"race": "Aletsch-Halbmarathon, Bettmeralp", "date": {"dim. 28.06.2015": {"weekday": "sunday", "year": 2015, "categories": {"M20": {"pace": 396000000000, "rank": 102, "distance": 21, "time": 8372.8}}, "day": 28, "month": 6, "livingplace": "Aigle"}}, "location": "Bettmeralp"}, "Sierre-Zinal, Sierre": {"race": "Sierre-Zinal, Sierre", "longitude": 7.533536199999999, "latitude": 46.29413110000001, "date": {"dim. 09.08.2015": {"weekday": "sunday", "year": 2015, "categories": {"ElitesHo": {"pace": 455000000000, "rank": 207, "distance": 31, "time": 14115.4}}, "day": 9, "month": 8, "livingplace": "Aigle"}}, "location": "Sierre"}, "Groupe E Tour Fribourg #2, Charmey": {"race": "Groupe E Tour Fribourg #2, Charmey", "longitude": 7.1654493, "latitude": 46.6175845, "date": {"mer. 27.08.2014": {"weekday": "wednesday", "year": 2014, "categories": {"H-Elite": {"pace": 284000000000, "rank": 28, "distance": 10, "time": 2747.3}}, "day": 27, "month": 8, "livingplace": "Aigle"}}, "location": "Charmey (Gruy\u00e8re)"}, "Lausanne Marathon": {"race": "Lausanne Marathon", "longitude": 6.6322734, "latitude": 46.5196535, "date": {"sam. 24.10.2015": {"weekday": "saturday", "year": 2015, "categories": {"42-H20": {"pace": 340000000000, "rank": 86, "distance": 42, "time": 14374.7}}, "day": 24, "month": 10, "livingplace": "Aigle"}}, "location": "Lausanne"}, "Morat-Fribourg": {"race": "Morat-Fribourg", "longitude": 7.120184, "latitude": 46.92922110000001, "date": {"sam. 04.10.2014": {"weekday": "saturday", "year": 2014, "categories": {"17-M20": {"pace": 290000000000, "rank": 751, "distance": 17, "time": 4980.1}}, "day": 4, "month": 10, "livingplace": "Aigle"}}, "location": "Murten"}, "Montreux - Les Rochers de Naye": {"race": "Montreux - Les Rochers de Naye", "longitude": 6.9106799, "latitude": 46.4312213, "date": {"dim. 05.07.2015": {"weekday": "sunday", "year": 2015, "categories": {"M-HElite": {"pace": 427000000000, "rank": 61, "distance": 19, "time": 8035.8}}, "day": 5, "month": 7, "livingplace": "Aigle"}}, "location": "Montreux"}, "20km de Lausanne": {"race": "20km de Lausanne", "longitude": 6.6322734, "latitude": 46.5196535, "date": {"sam. 25.04.2015": {"weekday": "saturday", "year": 2015, "categories": {"20-H20": {"pace": 253000000000, "rank": 97, "distance": 20, "time": 5076.1}}, "day": 25, "month": 4, "livingplace": "Aigle"}}, "location": "Lausanne"}, "Course p\u00e9destre Thyon-Dixence, Thyon": {"race": "Course p\u00e9destre Thyon-Dixence, Thyon", "date": {"dim. 03.08.2014": {"weekday": "sunday", "year": 2014, "categories": {"HomElite": {"pace": 385000000000, "rank": 42, "distance": 16, "time": 6302.2}}, "day": 3, "month": 8, "livingplace": "Aigle"}}, "location": "Thyon-Les Collons"}}, "name": "Gaillard Lucien", "birth": 1988}