{"sex": "F", "races": {"Tour du Chablais #6 Montreux": {"race": "Tour du Chablais #6 Montreux", "longitude": 6.970566, "latitude": 46.3190253, "date": {"mer. 16.05.2012": {"weekday": "wednesday", "year": 2012, "categories": {"F-F50": {"pace": 337000000000, "rank": 23, "distance": 9, "time": 3124.2}}, "day": 16, "month": 5, "livingplace": "Martigny"}}, "location": "Aigle"}, "Tour du Chablais #1 Montreux": {"race": "Tour du Chablais #1 Montreux", "longitude": 6.9916269, "latitude": 46.2957462, "date": {"mer. 11.04.2012": {"weekday": "wednesday", "year": 2012, "categories": {"F-F50": {"pace": 354000000000, "rank": 20, "distance": 8, "time": 2695.8}}, "day": 11, "month": 4, "livingplace": "Martigny"}}, "location": "Ollon VD"}, "Tour du Chablais #2 Yvorne": {"race": "Tour du Chablais #2 Yvorne", "longitude": 6.854975199999999, "latitude": 46.3835529, "date": {"mer. 10.04.2013": {"weekday": "wednesday", "year": 2013, "categories": {"F-F50": {"pace": 380000000000, "rank": 22, "distance": 8, "time": 3042.6}}, "day": 10, "month": 4, "livingplace": "Martigny"}}, "location": "Bouveret"}, "Tour du Chablais #2 Bex": {"race": "Tour du Chablais #2 Bex", "longitude": 6.854975199999999, "latitude": 46.3835529, "date": {"mer. 18.04.2012": {"weekday": "wednesday", "year": 2012, "categories": {"F-F50": {"pace": 338000000000, "rank": 16, "distance": 8, "time": 2707.5}}, "day": 18, "month": 4, "livingplace": "Martigny"}}, "location": "Bouveret"}, "Tour du Chablais #3 Bouveret": {"race": "Tour du Chablais #3 Bouveret", "longitude": 7.0223787, "latitude": 46.1782231, "date": {"mer. 17.04.2013": {"weekday": "wednesday", "year": 2013, "categories": {"F-F50": {"pace": 356000000000, "rank": 30, "distance": 10, "time": 3562.9}}, "day": 17, "month": 4, "livingplace": "Martigny"}}, "location": "Evionnaz"}, "Tour du Chablais #1 Roche": {"race": "Tour du Chablais #1 Roche", "longitude": 6.9916269, "latitude": 46.2957462, "date": {"mer. 03.04.2013": {"weekday": "wednesday", "year": 2013, "categories": {"F-F50": {"pace": 347000000000, "rank": 28, "distance": 9, "time": 3077.2}}, "day": 3, "month": 4, "livingplace": "Martigny"}}, "location": "Ollon VD"}, "Tour du Chablais #3 Collombey-Muraz": {"race": "Tour du Chablais #3 Collombey-Muraz", "longitude": 7.0223787, "latitude": 46.1782231, "date": {"mer. 25.04.2012": {"weekday": "wednesday", "year": 2012, "categories": {"F-F50": {"pace": 351000000000, "rank": 26, "distance": 9, "time": 3152.4}}, "day": 25, "month": 4, "livingplace": "Martigny"}}, "location": "Evionnaz"}, "Morat-Fribourg": {"race": "Morat-Fribourg", "longitude": 7.120184, "latitude": 46.92922110000001, "date": {"sam. 01.10.2011": {"weekday": "saturday", "year": 2011, "categories": {"17-W45": {"pace": 389000000000, "rank": 177, "distance": 17, "time": 6695.9}}, "day": 1, "month": 10, "livingplace": "Martigny"}}, "location": "Murten"}, "Tour du Chablais #6 Aigle": {"race": "Tour du Chablais #6 Aigle", "longitude": 6.970566, "latitude": 46.3190253, "date": {"mer. 01.06.2011": {"weekday": "wednesday", "year": 2011, "categories": {"F-F40": {"pace": 357000000000, "rank": 65, "distance": 10, "time": 3646.1}}, "day": 1, "month": 6, "livingplace": "Martigny"}}, "location": "Aigle"}, "Tour du Chablais #4 Morgins": {"race": "Tour du Chablais #4 Morgins", "date": {"mer. 18.05.2011": {"weekday": "wednesday", "year": 2011, "categories": {"F-F40": {"pace": 396000000000, "rank": 81, "distance": 8, "time": 3306.9}}, "day": 18, "month": 5, "livingplace": "Martigny"}}, "location": "Les Mosses"}, "Tour du Chablais #4 Champ\u00e9ry": {"race": "Tour du Chablais #4 Champ\u00e9ry", "date": {"mer. 02.05.2012": {"weekday": "wednesday", "year": 2012, "categories": {"F-F50": {"pace": 339000000000, "rank": 17, "distance": 8, "time": 2814.8}}, "day": 2, "month": 5, "livingplace": "Martigny"}}, "location": "Les Mosses"}, "Tour du Chablais #5 Les Mosses": {"race": "Tour du Chablais #5 Les Mosses", "longitude": 6.931504599999999, "latitude": 46.3603257, "date": {"mer. 25.05.2011": {"weekday": "wednesday", "year": 2011, "categories": {"F-F40": {"pace": 403000000000, "rank": 70, "distance": 8, "time": 3228.9}}, "day": 25, "month": 5, "livingplace": "Martigny"}}, "location": "Roche VD"}, "Tour du Chablais #5 Bex": {"race": "Tour du Chablais #5 Bex", "longitude": 6.931504599999999, "latitude": 46.3603257, "date": {"mer. 09.05.2012": {"weekday": "wednesday", "year": 2012, "categories": {"F-F50": {"pace": 339000000000, "rank": 23, "distance": 9, "time": 3004.5}}, "day": 9, "month": 5, "livingplace": "Martigny"}}, "location": "Roche VD"}, "Tour du Chablais #5 Morgins": {"race": "Tour du Chablais #5 Morgins", "longitude": 6.931504599999999, "latitude": 46.3603257, "date": {"mer. 01.05.2013": {"weekday": "wednesday", "year": 2013, "categories": {"F-F50": {"pace": 360000000000, "rank": 20, "distance": 8, "time": 2741.4}}, "day": 1, "month": 5, "livingplace": "Martigny"}}, "location": "Roche VD"}, "Tour du Chablais #4 St  Maurice": {"race": "Tour du Chablais #4 St  Maurice", "date": {"mer. 24.04.2013": {"weekday": "wednesday", "year": 2013, "categories": {"F-F50": {"pace": 346000000000, "rank": 22, "distance": 10, "time": 3463.2}}, "day": 24, "month": 4, "livingplace": "Martigny"}}, "location": "Les Mosses"}}, "name": "Gay Pierrette", "birth": 1962}