{"sex": "M", "races": {"Tour du Chablais #5 Morgins": {"race": "Tour du Chablais #5 Morgins", "longitude": 6.931504599999999, "latitude": 46.3603257, "date": {"mer. 01.05.2013": {"weekday": "wednesday", "year": 2013, "categories": {"M-M20": {"pace": 255000000000, "rank": 51, "distance": 8, "time": 1939.9}}, "day": 1, "month": 5, "livingplace": "Evionnaz"}}, "location": "Roche VD"}, "Tour du Chablais #2 Yvorne": {"race": "Tour du Chablais #2 Yvorne", "longitude": 6.854975199999999, "latitude": 46.3835529, "date": {"mer. 10.04.2013": {"weekday": "wednesday", "year": 2013, "categories": {"M-M20": {"pace": 269000000000, "rank": 66, "distance": 8, "time": 2156.5}}, "day": 10, "month": 4, "livingplace": "Evionnaz"}}, "location": "Bouveret"}, "Tour du Chablais #6 Monthey": {"race": "Tour du Chablais #6 Monthey", "longitude": 6.970566, "latitude": 46.3190253, "date": {"mer. 08.05.2013": {"weekday": "wednesday", "year": 2013, "categories": {"M-M20": {"pace": 236000000000, "rank": 43, "distance": 9, "time": 2210.0}}, "day": 8, "month": 5, "livingplace": "Evionnaz"}}, "location": "Aigle"}, "Tour du Chablais #3 Bouveret": {"race": "Tour du Chablais #3 Bouveret", "longitude": 7.0223787, "latitude": 46.1782231, "date": {"mer. 17.04.2013": {"weekday": "wednesday", "year": 2013, "categories": {"M-M20": {"pace": 249000000000, "rank": 61, "distance": 10, "time": 2491.3}}, "day": 17, "month": 4, "livingplace": "Evionnaz"}}, "location": "Evionnaz"}, "Tour du Chablais #1 Roche": {"race": "Tour du Chablais #1 Roche", "longitude": 6.9916269, "latitude": 46.2957462, "date": {"mer. 03.04.2013": {"weekday": "wednesday", "year": 2013, "categories": {"M-M20": {"pace": 254000000000, "rank": 67, "distance": 9, "time": 2251.1}}, "day": 3, "month": 4, "livingplace": "Evionnaz"}}, "location": "Ollon VD"}, "Lausanne Marathon": {"race": "Lausanne Marathon", "longitude": 6.6322734, "latitude": 46.5196535, "date": {"dim. 30.10.2011": {"weekday": "sunday", "year": 2011, "categories": {"21-H1": {"pace": 252000000000, "rank": 67, "distance": 21, "time": 5334.9}}, "day": 30, "month": 10, "livingplace": "Evionnaz"}}, "location": "Lausanne"}, "Morat-Fribourg": {"race": "Morat-Fribourg", "longitude": 7.120184, "latitude": 46.92922110000001, "date": {"sam. 06.10.2007": {"weekday": "saturday", "year": 2007, "categories": {"C/M20": {"pace": 273000000000, "rank": 451, "distance": 17, "time": 4702.9}}, "day": 6, "month": 10, "livingplace": "Monthey"}, "sam. 01.10.2011": {"weekday": "saturday", "year": 2011, "categories": {"17-M20": {"pace": 260000000000, "rank": 282, "distance": 17, "time": 4471.7}}, "day": 1, "month": 10, "livingplace": "Evionnaz"}, "sam. 05.10.2013": {"weekday": "saturday", "year": 2013, "categories": {"17-M20": {"pace": 261000000000, "rank": 346, "distance": 17, "time": 4559.1}}, "day": 5, "month": 10, "livingplace": "Evionnaz"}}, "location": "Murten"}, "Tour du Chablais #4 St  Maurice": {"race": "Tour du Chablais #4 St  Maurice", "date": {"mer. 24.04.2013": {"weekday": "wednesday", "year": 2013, "categories": {"M-M20": {"pace": 244000000000, "rank": 50, "distance": 10, "time": 2443.9}}, "day": 24, "month": 4, "livingplace": "Evionnaz"}}, "location": "Les Mosses"}}, "name": "Genet Patrice", "birth": 1983}