{"sex": "M", "races": {"Tour du Chablais #2 Yvorne": {"race": "Tour du Chablais #2 Yvorne", "longitude": 6.854975199999999, "latitude": 46.3835529, "date": {"mer. 10.04.2013": {"weekday": "wednesday", "year": 2013, "categories": {"M-M50": {"pace": 312000000000, "rank": 35, "distance": 8, "time": 2498.5}}, "day": 10, "month": 4, "livingplace": "Noes"}}, "location": "Bouveret"}, "Tour du Chablais #6 Monthey": {"race": "Tour du Chablais #6 Monthey", "longitude": 6.970566, "latitude": 46.3190253, "date": {"mer. 08.05.2013": {"weekday": "wednesday", "year": 2013, "categories": {"M-M50": {"pace": 272000000000, "rank": 36, "distance": 9, "time": 2540.5}}, "day": 8, "month": 5, "livingplace": "Noes"}}, "location": "Aigle"}, "Tour du Chablais #1 Roche": {"race": "Tour du Chablais #1 Roche", "longitude": 6.9916269, "latitude": 46.2957462, "date": {"mer. 03.04.2013": {"weekday": "wednesday", "year": 2013, "categories": {"M-M50": {"pace": 274000000000, "rank": 42, "distance": 9, "time": 2428.5}}, "day": 3, "month": 4, "livingplace": "Noes"}}, "location": "Ollon VD"}, "Tour du Chablais #5 Bex": {"race": "Tour du Chablais #5 Bex", "longitude": 6.931504599999999, "latitude": 46.3603257, "date": {"mer. 09.05.2012": {"weekday": "wednesday", "year": 2012, "categories": {"M-M50": {"pace": 270000000000, "rank": 29, "distance": 9, "time": 2399.1}}, "day": 9, "month": 5, "livingplace": "Noes"}}, "location": "Roche VD"}, "Morat-Fribourg": {"race": "Morat-Fribourg", "longitude": 7.120184, "latitude": 46.92922110000001, "date": {"sam. 06.10.2007": {"weekday": "saturday", "year": 2007, "categories": {"C/M45": {"pace": 304000000000, "rank": 329, "distance": 17, "time": 5224.9}}, "day": 6, "month": 10, "livingplace": "Noes"}, "sam. 02.10.2010": {"weekday": "saturday", "year": 2010, "categories": {"17-M45": {"pace": 295000000000, "rank": 223, "distance": 17, "time": 5078.9}}, "day": 2, "month": 10, "livingplace": "Noes"}, "sam. 06.10.2012": {"weekday": "saturday", "year": 2012, "categories": {"17-M50": {"pace": 290000000000, "rank": 129, "distance": 17, "time": 5062.0}}, "day": 6, "month": 10, "livingplace": "Noes"}}, "location": "Murten"}, "Tour du Chablais #6 Aigle": {"race": "Tour du Chablais #6 Aigle", "longitude": 6.970566, "latitude": 46.3190253, "date": {"mer. 01.06.2011": {"weekday": "wednesday", "year": 2011, "categories": {"M-M50": {"pace": 295000000000, "rank": 56, "distance": 10, "time": 3011.0}}, "day": 1, "month": 6, "livingplace": "Noes"}}, "location": "Aigle"}, "Tour du Chablais #4 Morgins": {"race": "Tour du Chablais #4 Morgins", "date": {"mer. 18.05.2011": {"weekday": "wednesday", "year": 2011, "categories": {"M-M50": {"pace": 313000000000, "rank": 48, "distance": 8, "time": 2616.7}}, "day": 18, "month": 5, "livingplace": "Noes"}}, "location": "Les Mosses"}, "Tour du Chablais #1 Lavey": {"race": "Tour du Chablais #1 Lavey", "longitude": 6.9916269, "latitude": 46.2957462, "date": {"mer. 27.04.2011": {"weekday": "wednesday", "year": 2011, "categories": {"M-M50": {"pace": 303000000000, "rank": 62, "distance": 9, "time": 2734.3}}, "day": 27, "month": 4, "livingplace": "Noes"}}, "location": "Ollon VD"}, "Sierre-Zinal, Sierre": {"race": "Sierre-Zinal, Sierre", "longitude": 7.533536199999999, "latitude": 46.29413110000001, "date": {"dim. 12.08.2012": {"weekday": "sunday", "year": 2012, "categories": {"V\u00e9t_II": {"pace": 494000000000, "rank": 24, "distance": 31, "time": 15333.1}}, "day": 12, "month": 8, "livingplace": "Noes"}, "dim. 11.08.2013": {"weekday": "sunday", "year": 2013, "categories": {"V\u00e9t_II": {"pace": 508000000000, "rank": 40, "distance": 31, "time": 15772.9}}, "day": 11, "month": 8, "livingplace": "Noes"}}, "location": "Sierre"}, "Tour du Chablais #5 Morgins": {"race": "Tour du Chablais #5 Morgins", "longitude": 6.931504599999999, "latitude": 46.3603257, "date": {"mer. 01.05.2013": {"weekday": "wednesday", "year": 2013, "categories": {"M-M50": {"pace": 298000000000, "rank": 28, "distance": 8, "time": 2270.9}}, "day": 1, "month": 5, "livingplace": "Noes"}}, "location": "Roche VD"}, "Tour du Chablais #3 Le Bouveret": {"race": "Tour du Chablais #3 Le Bouveret", "longitude": 7.0223787, "latitude": 46.1782231, "date": {"mer. 11.05.2011": {"weekday": "wednesday", "year": 2011, "categories": {"M-M50": {"pace": 294000000000, "rank": 54, "distance": 10, "time": 2946.7}}, "day": 11, "month": 5, "livingplace": "Noes"}}, "location": "Evionnaz"}, "Tour du Chablais #4 St  Maurice": {"race": "Tour du Chablais #4 St  Maurice", "date": {"mer. 24.04.2013": {"weekday": "wednesday", "year": 2013, "categories": {"M-M50": {"pace": 284000000000, "rank": 36, "distance": 10, "time": 2848.4}}, "day": 24, "month": 4, "livingplace": "Noes"}}, "location": "Les Mosses"}, "Tour du Chablais #2 Rennaz": {"race": "Tour du Chablais #2 Rennaz", "longitude": 6.854975199999999, "latitude": 46.3835529, "date": {"mer. 04.05.2011": {"weekday": "wednesday", "year": 2011, "categories": {"M-M50": {"pace": 295000000000, "rank": 62, "distance": 9, "time": 2761.8}}, "day": 4, "month": 5, "livingplace": "Noes"}}, "location": "Bouveret"}}, "name": "Genoud Jean-Fran\u00e7ois", "birth": 1961}