{"sex": "M", "races": {"Groupe E Tour Fribourg #1, Cousset": {"race": "Groupe E Tour Fribourg #1, Cousset", "longitude": 6.977279999999999, "latitude": 46.81832, "date": {"mer. 20.08.2014": {"weekday": "wednesday", "year": 2014, "categories": {"H-Sen2": {"pace": 383000000000, "rank": 69, "distance": 9, "time": 3608.2}}, "day": 20, "month": 8, "livingplace": "Les Paccots"}}, "location": "Cousset"}, "Tour du Chablais #6 Aigle": {"race": "Tour du Chablais #6 Aigle", "longitude": 6.970566, "latitude": 46.3190253, "date": {"mer. 01.06.2011": {"weekday": "wednesday", "year": 2011, "categories": {"M-M40": {"pace": 239000000000, "rank": 24, "distance": 10, "time": 2447.3}}, "day": 1, "month": 6, "livingplace": "Les Paccots"}}, "location": "Aigle"}, "Groupe E Tour Fribourg #1 Siviriez": {"race": "Groupe E Tour Fribourg #1 Siviriez", "longitude": 6.977279999999999, "latitude": 46.81832, "date": {"mer. 21.08.2013": {"weekday": "wednesday", "year": 2013, "categories": {"HS2": {"pace": 284000000000, "rank": 25, "distance": 10, "time": 2791.1}}, "day": 21, "month": 8, "livingplace": "Les Paccots"}}, "location": "Cousset"}, "Tour du Chablais #5 Les Mosses": {"race": "Tour du Chablais #5 Les Mosses", "longitude": 6.931504599999999, "latitude": 46.3603257, "date": {"mer. 25.05.2011": {"weekday": "wednesday", "year": 2011, "categories": {"M-M40": {"pace": 270000000000, "rank": 31, "distance": 8, "time": 2161.3}}, "day": 25, "month": 5, "livingplace": "Les Paccots"}}, "location": "Roche VD"}, "Tour du Chablais #1 Lavey": {"race": "Tour du Chablais #1 Lavey", "longitude": 6.9916269, "latitude": 46.2957462, "date": {"mer. 27.04.2011": {"weekday": "wednesday", "year": 2011, "categories": {"M-M40": {"pace": 251000000000, "rank": 34, "distance": 9, "time": 2261.6}}, "day": 27, "month": 4, "livingplace": "Les Paccots"}}, "location": "Ollon VD"}, "Groupe E Tour Fribourg #3 Charmey": {"race": "Groupe E Tour Fribourg #3 Charmey", "longitude": 7.1954365, "latitude": 46.97488999999999, "date": {"mer. 04.09.2013": {"weekday": "wednesday", "year": 2013, "categories": {"HS2": {"pace": 369000000000, "rank": 67, "distance": 11, "time": 4019.3}}, "day": 4, "month": 9, "livingplace": "Les Paccots"}}, "location": "Kerzers"}, "Groupe E Tour Fribourg #5 Fribourg": {"race": "Groupe E Tour Fribourg #5 Fribourg", "longitude": 7.131657799999999, "latitude": 46.8128615, "date": {"mer. 18.09.2013": {"weekday": "wednesday", "year": 2013, "categories": {"HS2": {"pace": 273000000000, "rank": 29, "distance": 10, "time": 2731.5}}, "day": 18, "month": 9, "livingplace": "Les Paccots"}}, "location": "Givisiez"}, "Tour du Chablais #3 Le Bouveret": {"race": "Tour du Chablais #3 Le Bouveret", "longitude": 7.0223787, "latitude": 46.1782231, "date": {"mer. 11.05.2011": {"weekday": "wednesday", "year": 2011, "categories": {"M-M40": {"pace": 248000000000, "rank": 33, "distance": 10, "time": 2482.4}}, "day": 11, "month": 5, "livingplace": "Les Paccots"}}, "location": "Evionnaz"}, "Tour du Chablais #4 Morgins": {"race": "Tour du Chablais #4 Morgins", "date": {"mer. 18.05.2011": {"weekday": "wednesday", "year": 2011, "categories": {"M-M40": {"pace": 261000000000, "rank": 31, "distance": 8, "time": 2187.4}}, "day": 18, "month": 5, "livingplace": "Les Paccots"}}, "location": "Les Mosses"}, "Tour du Chablais #2 Rennaz": {"race": "Tour du Chablais #2 Rennaz", "longitude": 6.854975199999999, "latitude": 46.3835529, "date": {"mer. 04.05.2011": {"weekday": "wednesday", "year": 2011, "categories": {"M-M40": {"pace": 244000000000, "rank": 29, "distance": 9, "time": 2287.0}}, "day": 4, "month": 5, "livingplace": "Les Paccots"}}, "location": "Bouveret"}}, "name": "Genoud Alexandre", "birth": 1969}