{"sex": "F", "races": {"Tour du Pays de Vaud #3 - Chavornay": {"race": "Tour du Pays de Vaud #3 - Chavornay", "longitude": 6.641183, "latitude": 46.7784736, "date": {"mer. 28.08.2013": {"weekday": "wednesday", "year": 2013, "categories": {"D-Sen2": {"pace": 236000000000, "rank": 1, "distance": 9, "time": 2103.9}}, "day": 28, "month": 8, "livingplace": "Cossonay Ville"}}, "location": "Yverdon-les-Bains"}, "Lucerne Marathon, Luzern": {"race": "Lucerne Marathon, Luzern", "longitude": 8.3093072, "latitude": 47.05016819999999, "date": {"dim. 30.10.2011": {"weekday": "sunday", "year": 2011, "categories": {"M-F40": {"pace": 263000000000, "rank": 1, "distance": 42, "time": 11139.4}}, "day": 30, "month": 10, "livingplace": "Cossonay"}}, "location": "Luzern"}, "Tour du Pays de Vaud #4 - La Sarraz": {"race": "Tour du Pays de Vaud #4 - La Sarraz", "longitude": 6.5707689, "latitude": 46.7088129, "date": {"mer. 29.08.2012": {"weekday": "wednesday", "year": 2012, "categories": {"D-Sen2": {"pace": 236000000000, "rank": 1, "distance": 9, "time": 2013.9}}, "day": 29, "month": 8, "livingplace": "Cossonay Ville"}, "mer. 04.09.2013": {"weekday": "wednesday", "year": 2013, "categories": {"D-Sen2": {"pace": 239000000000, "rank": 1, "distance": 9, "time": 2037.4}}, "day": 4, "month": 9, "livingplace": "Cossonay Ville"}}, "location": "Chavornay"}, "Tour du Pays de Vaud etape 5 - La Sarraz": {"race": "Tour du Pays de Vaud etape 5 - La Sarraz", "longitude": 6.539251200000001, "latitude": 46.5993131, "date": {"mer. 10.09.2008": {"weekday": "wednesday", "year": 2008, "categories": {"DamSen1": {"pace": 246000000000, "rank": 3, "distance": 9, "time": 2116.1}}, "day": 10, "month": 9, "livingplace": "Cossonay Ville"}}, "location": "Penthaz"}, "Kerzerslauf": {"race": "Kerzerslauf", "longitude": 7.1954365, "latitude": 46.97488999999999, "date": {"sam. 19.03.2011": {"weekday": "saturday", "year": 2011, "categories": {"15-F40": {"pace": 255000000000, "rank": 11, "distance": 15, "time": 3827.3}}, "day": 19, "month": 3, "livingplace": "Cossonay"}, "sam. 16.03.2013": {"weekday": "saturday", "year": 2013, "categories": {"15-F40": {"pace": 250000000000, "rank": 8, "distance": 15, "time": 3759.5}}, "day": 16, "month": 3, "livingplace": "Cossonay Ville"}, "sam. 21.03.2015": {"weekday": "saturday", "year": 2015, "categories": {"15-F45": {"pace": 239000000000, "rank": 1, "distance": 15, "time": 3591.1}}, "day": 21, "month": 3, "livingplace": "Cossonay"}}, "location": "Kerzers"}, "20km de Lausanne": {"race": "20km de Lausanne", "longitude": 6.6322734, "latitude": 46.5196535, "date": {"sam. 25.04.2009": {"weekday": "saturday", "year": 2009, "categories": {"20-F30": {"pace": 250000000000, "rank": 5, "distance": 20, "time": 5006.2}}, "day": 25, "month": 4, "livingplace": "Cossonay"}, "sam. 30.04.2011": {"weekday": "saturday", "year": 2011, "categories": {"20-F40": {"pace": 244000000000, "rank": 1, "distance": 20, "time": 4885.2}}, "day": 30, "month": 4, "livingplace": "Cossonay"}, "sam. 25.04.2015": {"weekday": "saturday", "year": 2015, "categories": {"20-F45": {"pace": 237000000000, "rank": 1, "distance": 20, "time": 4749.4}}, "day": 25, "month": 4, "livingplace": "Cossonay Ville"}, "sam. 28.04.2012": {"weekday": "saturday", "year": 2012, "categories": {"20-F40": {"pace": 245000000000, "rank": 1, "distance": 20, "time": 4907.9}}, "day": 28, "month": 4, "livingplace": "Cossonay"}, "sam. 26.04.2014": {"weekday": "saturday", "year": 2014, "categories": {"20-F40": {"pace": 235000000000, "rank": 2, "distance": 20, "time": 4700.3}}, "day": 26, "month": 4, "livingplace": "Cossonay Ville"}}, "location": "Lausanne"}, "Tour du Pays de Vaud #2, Mezi\u00e8res": {"race": "Tour du Pays de Vaud #2, Mezi\u00e8res", "longitude": 6.7702883, "latitude": 46.5955273, "date": {"mer. 20.08.2014": {"weekday": "wednesday", "year": 2014, "categories": {"D-Sen2": {"pace": 254000000000, "rank": 1, "distance": 8, "time": 2062.3}}, "day": 20, "month": 8, "livingplace": "Cossonay Ville"}}, "location": "M\u00e9zi\u00e8res VD"}, "Tour du Pays de Vaud #1, Penthaz": {"race": "Tour du Pays de Vaud #1, Penthaz", "longitude": 6.539251200000001, "latitude": 46.5993131, "date": {"mer. 13.08.2014": {"weekday": "wednesday", "year": 2014, "categories": {"D-Sen2": {"pace": 232000000000, "rank": 1, "distance": 9, "time": 1987.3}}, "day": 13, "month": 8, "livingplace": "Cossonay Ville"}}, "location": "Penthaz"}, "Tour du Pays de Vaud #2 - Genolier": {"race": "Tour du Pays de Vaud #2 - Genolier", "longitude": 6.7702883, "latitude": 46.5955273, "date": {"mer. 15.08.2012": {"weekday": "wednesday", "year": 2012, "categories": {"D-Sen2": {"pace": 239000000000, "rank": 2, "distance": 9, "time": 2035.1}}, "day": 15, "month": 8, "livingplace": "Cossonay Ville"}, "mer. 17.08.2011": {"weekday": "wednesday", "year": 2011, "categories": {"D-Sen2": {"pace": 241000000000, "rank": 2, "distance": 9, "time": 2055.2}}, "day": 17, "month": 8, "livingplace": "Cossonay Ville"}}, "location": "M\u00e9zi\u00e8res VD"}, "Les Traine-Savates, Cheseaux-sur-Lausanne": {"race": "Les Traine-Savates, Cheseaux-sur-Lausanne", "longitude": 6.6047712, "latitude": 46.585452, "date": {"sam. 18.04.2015": {"weekday": "saturday", "year": 2015, "categories": {"10-W40": {"pace": 232000000000, "rank": 2, "distance": 10, "time": 2395.8}}, "day": 18, "month": 4, "livingplace": "Cossonay"}, "sam. 14.04.2012": {"weekday": "saturday", "year": 2012, "categories": {"10-W40": {"pace": 237000000000, "rank": 2, "distance": 10, "time": 2464.8}}, "day": 14, "month": 4, "livingplace": "Cossonay"}, "sam. 09.04.2011": {"weekday": "saturday", "year": 2011, "categories": {"10-W40": {"pace": 241000000000, "rank": 2, "distance": 10, "time": 2515.1}}, "day": 9, "month": 4, "livingplace": "Cossonay"}}, "location": "Cheseaux-sur-Lausanne"}, "Tour du Pays de Vaud #3 - Mezi\u00e8res": {"race": "Tour du Pays de Vaud #3 - Mezi\u00e8res", "longitude": 6.641183, "latitude": 46.7784736, "date": {"mer. 22.08.2012": {"weekday": "wednesday", "year": 2012, "categories": {"D-Sen2": {"pace": 252000000000, "rank": 1, "distance": 8, "time": 2119.8}}, "day": 22, "month": 8, "livingplace": "Cossonay Ville"}}, "location": "Yverdon-les-Bains"}, "Tour du Pays de Vaud #2 - Mezi\u00e8res": {"race": "Tour du Pays de Vaud #2 - Mezi\u00e8res", "longitude": 6.7702883, "latitude": 46.5955273, "date": {"mer. 21.08.2013": {"weekday": "wednesday", "year": 2013, "categories": {"D-Sen2": {"pace": 255000000000, "rank": 1, "distance": 8, "time": 2073.3}}, "day": 21, "month": 8, "livingplace": "Cossonay Ville"}}, "location": "M\u00e9zi\u00e8res VD"}, "Tour du Pays de Vaud #4, La Sarraz": {"race": "Tour du Pays de Vaud #4, La Sarraz", "longitude": 6.5707689, "latitude": 46.7088129, "date": {"mer. 03.09.2014": {"weekday": "wednesday", "year": 2014, "categories": {"D-Sen2": {"pace": 235000000000, "rank": 1, "distance": 9, "time": 2003.4}}, "day": 3, "month": 9, "livingplace": "Cossonay Ville"}}, "location": "Chavornay"}, "Tour du Pays de Vaud etape 2 - Genolier": {"race": "Tour du Pays de Vaud etape 2 - Genolier", "longitude": 6.7702883, "latitude": 46.5955273, "date": {"mer. 20.08.2008": {"weekday": "wednesday", "year": 2008, "categories": {"DamSen1": {"pace": 258000000000, "rank": 2, "distance": 8, "time": 2143.4}}, "day": 20, "month": 8, "livingplace": "Cossonay Ville"}}, "location": "M\u00e9zi\u00e8res VD"}, "Tour du Pays de Vaud printanier #3 - Yens": {"race": "Tour du Pays de Vaud printanier #3 - Yens", "longitude": 6.5728678, "latitude": 46.7829756, "date": {"mer. 18.06.2014": {"weekday": "wednesday", "year": 2014, "categories": {"D-Sen2": {"pace": 237000000000, "rank": 1, "distance": 9, "time": 2163.6}}, "day": 18, "month": 6, "livingplace": "Cossonay Ville"}}, "location": "Champvent"}, "Tour du Chablais #6 Monthey": {"race": "Tour du Chablais #6 Monthey", "longitude": 6.970566, "latitude": 46.3190253, "date": {"mer. 08.05.2013": {"weekday": "wednesday", "year": 2013, "categories": {"F-F40": {"pace": 227000000000, "rank": 2, "distance": 9, "time": 2117.3}}, "day": 8, "month": 5, "livingplace": "Cossonay Ville"}}, "location": "Aigle"}, "D\u00e9fi Val-de-Travers, Couvet": {"race": "D\u00e9fi Val-de-Travers, Couvet", "longitude": 6.6324944, "latitude": 46.9262933, "date": {"sam. 19.06.2010": {"weekday": "saturday", "year": 2010, "categories": {"21-FSen2": {"pace": 309000000000, "rank": 2, "distance": 20, "time": 6088.6}}, "day": 19, "month": 6, "livingplace": "Cossonay"}}, "location": "Couvet"}, "Tour du pays de Vaud #1 - Mezi\u00e8res": {"race": "Tour du pays de Vaud #1 - Mezi\u00e8res", "longitude": 6.641183, "latitude": 46.7784736, "date": {"mer. 10.08.2011": {"weekday": "wednesday", "year": 2011, "categories": {"D-Sen2": {"pace": 244000000000, "rank": 1, "distance": 9, "time": 2074.6}}, "day": 10, "month": 8, "livingplace": "Cossonay Ville"}}, "location": "Yverdon-les-Bains"}, "Morat-Fribourg": {"race": "Morat-Fribourg", "longitude": 7.120184, "latitude": 46.92922110000001, "date": {"sam. 01.10.2011": {"weekday": "saturday", "year": 2011, "categories": {"17-W40": {"pace": 249000000000, "rank": 5, "distance": 17, "time": 4277.0}}, "day": 1, "month": 10, "livingplace": "Cossonay"}, "sam. 05.10.2013": {"weekday": "saturday", "year": 2013, "categories": {"17-W40": {"pace": 247000000000, "rank": 9, "distance": 17, "time": 4318.4}}, "day": 5, "month": 10, "livingplace": "Cossonay Ville"}}, "location": "Murten"}, "Montreux - Les Rochers de Naye": {"race": "Montreux - Les Rochers de Naye", "longitude": 6.9106799, "latitude": 46.4312213, "date": {"dim. 11.07.2010": {"weekday": "sunday", "year": 2010, "categories": {"M-F-Spez": {"pace": 420000000000, "rank": 3, "distance": 19, "time": 7900.7}}, "day": 11, "month": 7, "livingplace": "Cossonay Ville"}}, "location": "Montreux"}, "Tour du pays de Vaud #5 - Penthaz": {"race": "Tour du pays de Vaud #5 - Penthaz", "longitude": 6.539251200000001, "latitude": 46.5993131, "date": {"mer. 07.09.2011": {"weekday": "wednesday", "year": 2011, "categories": {"D-Sen2": {"pace": 265000000000, "rank": 2, "distance": 8, "time": 2219.8}}, "day": 7, "month": 9, "livingplace": "Cossonay Ville"}}, "location": "Penthaz"}, "Tour du pays de Vaud #6 - St  Prex": {"race": "Tour du pays de Vaud #6 - St  Prex", "longitude": 6.458343500000001, "latitude": 46.4829113, "date": {"mer. 14.09.2011": {"weekday": "wednesday", "year": 2011, "categories": {"D-Sen2": {"pace": 237000000000, "rank": 1, "distance": 9, "time": 2043.1}}, "day": 14, "month": 9, "livingplace": "Cossonay Ville"}}, "location": "St-Prex"}, "Glacier 3000 Run, Gstaad": {"race": "Glacier 3000 Run, Gstaad", "longitude": 7.2865728, "latitude": 46.4717588, "date": {"sam. 09.08.2014": {"weekday": "saturday", "year": 2014, "categories": {"F40": {"pace": 456000000000, "rank": 4, "distance": 26, "time": 11861.8}}, "day": 9, "month": 8, "livingplace": "La Foulee de Bussigny"}}, "location": "Gstaad"}, "Tour du pays de Vaud #1 - Penthaz": {"race": "Tour du pays de Vaud #1 - Penthaz", "longitude": 6.539251200000001, "latitude": 46.5993131, "date": {"mer. 14.08.2013": {"weekday": "wednesday", "year": 2013, "categories": {"D-Sen2": {"pace": 234000000000, "rank": 1, "distance": 9, "time": 1998.5}}, "day": 14, "month": 8, "livingplace": "Cossonay Ville"}, "mer. 08.08.2012": {"weekday": "wednesday", "year": 2012, "categories": {"D-Sen2": {"pace": 235000000000, "rank": 1, "distance": 9, "time": 2012.7}}, "day": 8, "month": 8, "livingplace": "Cossonay Ville"}}, "location": "Penthaz"}, "Tour du Pays de Vaud #3, Chavornay": {"race": "Tour du Pays de Vaud #3, Chavornay", "longitude": 6.641183, "latitude": 46.7784736, "date": {"mer. 27.08.2014": {"weekday": "wednesday", "year": 2014, "categories": {"D-Sen2": {"pace": 245000000000, "rank": 1, "distance": 9, "time": 2108.7}}, "day": 27, "month": 8, "livingplace": "Cossonay Ville"}}, "location": "Yverdon-les-Bains"}, "Zermatt Marathon, Zermatt": {"race": "Zermatt Marathon, Zermatt", "date": {"sam. 09.07.2011": {"weekday": "saturday", "year": 2011, "categories": {"U-F40": {"pace": 402000000000, "rank": 3, "distance": 46, "time": 18325.3}}, "day": 9, "month": 7, "livingplace": "Cossonay"}}, "location": "Zermatt"}}, "name": "Genoud Carole", "birth": 1970}