{"sex": "M", "races": {"Z\u00fcrich Marathon, Teamrun und Cityrun": {"race": "Z\u00fcrich Marathon, Teamrun und Cityrun", "longitude": 8.541694, "latitude": 47.3768866, "date": {"dim. 06.04.2014": {"weekday": "sunday", "year": 2014, "categories": {"10-M20": {"pace": 245000000000, "rank": 23, "distance": 10, "time": 2406.6}}, "day": 6, "month": 4, "livingplace": "Koniz"}}, "location": "Z\u00fcrich"}, "Schlosslauf Rapperswil-Jona": {"race": "Schlosslauf Rapperswil-Jona", "longitude": 8.818437399999999, "latitude": 47.2266239, "date": {"dim. 09.10.2011": {"weekday": "sunday", "year": 2011, "categories": {"5-Men": {"pace": 230000000000, "rank": 13, "distance": 5, "time": 1248.6}}, "day": 9, "month": 10, "livingplace": "Koniz"}}, "location": "Rapperswil SG"}, "Z\u00fcrcher Silvesterlauf, Z\u00fcrich": {"race": "Z\u00fcrcher Silvesterlauf, Z\u00fcrich", "longitude": 8.541694, "latitude": 47.3768866, "date": {"dim. 16.12.2007": {"weekday": "sunday", "year": 2007, "categories": {"MenHK-8": {"pace": 245000000000, "rank": 131, "distance": 9, "time": 2111.9}}, "day": 16, "month": 12, "livingplace": "Koniz"}, "dim. 13.12.2009": {"weekday": "sunday", "year": 2009, "categories": {"8-MenHK": {"pace": 246000000000, "rank": 134, "distance": 9, "time": 2123.6}}, "day": 13, "month": 12, "livingplace": "Koniz"}}, "location": "Z\u00fcrich"}, "Kerzerslauf": {"race": "Kerzerslauf", "longitude": 7.1954365, "latitude": 46.97488999999999, "date": {"sam. 19.03.2011": {"weekday": "saturday", "year": 2011, "categories": {"15-M20": {"pace": 268000000000, "rank": 212, "distance": 15, "time": 4022.8}}, "day": 19, "month": 3, "livingplace": "Koniz"}}, "location": "Kerzers"}, "Lucerne Marathon, Luzern": {"race": "Lucerne Marathon, Luzern", "longitude": 8.3093072, "latitude": 47.05016819999999, "date": {"dim. 30.10.2011": {"weekday": "sunday", "year": 2011, "categories": {"H-M20": {"pace": 249000000000, "rank": 48, "distance": 21, "time": 5262.2}}, "day": 30, "month": 10, "livingplace": "Koniz"}}, "location": "Luzern"}, "Flughafenlauf, Kloten": {"race": "Flughafenlauf, Kloten", "date": {"jeu. 02.06.2011": {"weekday": "thursday", "year": 2011, "categories": {"A": {"pace": 248000000000, "rank": 18, "distance": 17, "time": 4228.8}}, "day": 2, "month": 6, "livingplace": "Koniz"}}, "location": "Kloten"}, "Steinh\u00f6lzlilauf, Liebefeld": {"race": "Steinh\u00f6lzlilauf, Liebefeld", "longitude": 7.416668, "latitude": 46.933331, "date": {"dim. 02.12.2007": {"weekday": "sunday", "year": 2007, "categories": {"HauptM": {"pace": 262000000000, "rank": 18, "distance": 11, "time": 2752.8}}, "day": 2, "month": 12, "livingplace": "Bern"}}, "location": "Liebefeld"}, "20km de Lausanne": {"race": "20km de Lausanne", "longitude": 6.6322734, "latitude": 46.5196535, "date": {"sam. 28.04.2007": {"weekday": "saturday", "year": 2007, "categories": {"20H20": {"pace": 290000000000, "rank": 126, "distance": 20, "time": 5803.3}}, "day": 28, "month": 4, "livingplace": "Koeniz"}}, "location": "Lausanne"}, "Murilauf, Muri b  Bern": {"race": "Murilauf, Muri b  Bern", "longitude": 7.498472799999999, "latitude": 46.9350521, "date": {"dim. 01.07.2012": {"weekday": "sunday", "year": 2012, "categories": {"10-M91": {"pace": 248000000000, "rank": 7, "distance": 10, "time": 2489.5}}, "day": 1, "month": 7, "livingplace": "Koniz"}}, "location": "Muri b. Bern"}}, "name": "Gerber Marcel", "birth": 1986}