{"sex": "F", "races": {"Tour du Chablais #5 Leysin": {"race": "Tour du Chablais #5 Leysin", "longitude": 6.931504599999999, "latitude": 46.3603257, "date": {"mer. 05.05.2010": {"weekday": "wednesday", "year": 2010, "categories": {"F-F20": {"pace": 253000000000, "rank": 2, "distance": 8, "time": 2145.2}}, "day": 5, "month": 5, "livingplace": "Collombey"}}, "location": "Roche VD"}, "Tour du Chablais #4 Yvorne": {"race": "Tour du Chablais #4 Yvorne", "date": {"mer. 28.04.2010": {"weekday": "wednesday", "year": 2010, "categories": {"F-F20": {"pace": 243000000000, "rank": 1, "distance": 8, "time": 2018.0}}, "day": 28, "month": 4, "livingplace": "Collombey"}}, "location": "Les Mosses"}, "Tour du Chablais #3 Bex": {"race": "Tour du Chablais #3 Bex", "longitude": 7.0223787, "latitude": 46.1782231, "date": {"mer. 21.04.2010": {"weekday": "wednesday", "year": 2010, "categories": {"F-F20": {"pace": 233000000000, "rank": 1, "distance": 10, "time": 2330.0}}, "day": 21, "month": 4, "livingplace": "Collombey"}}, "location": "Evionnaz"}, "Tour du Chablais #1 Roche": {"race": "Tour du Chablais #1 Roche", "longitude": 6.9916269, "latitude": 46.2957462, "date": {"mer. 07.04.2010": {"weekday": "wednesday", "year": 2010, "categories": {"F-F20": {"pace": 229000000000, "rank": 2, "distance": 9, "time": 2051.3}}, "day": 7, "month": 4, "livingplace": "Collombey"}}, "location": "Ollon VD"}, "Tour du Chablais #2 St-Gingolph": {"race": "Tour du Chablais #2 St-Gingolph", "longitude": 6.854975199999999, "latitude": 46.3835529, "date": {"mer. 14.04.2010": {"weekday": "wednesday", "year": 2010, "categories": {"F-F20": {"pace": 252000000000, "rank": 3, "distance": 8, "time": 2105.1}}, "day": 14, "month": 4, "livingplace": "Collombey"}}, "location": "Bouveret"}, "Tour du Chablais #6 Mouthey": {"race": "Tour du Chablais #6 Mouthey", "longitude": 6.970566, "latitude": 46.3190253, "date": {"mer. 12.05.2010": {"weekday": "wednesday", "year": 2010, "categories": {"F-F20": {"pace": 227000000000, "rank": 4, "distance": 9, "time": 2094.5}}, "day": 12, "month": 5, "livingplace": "Collombey"}}, "location": "Aigle"}}, "name": "Gex-Fabry Christine", "birth": 1972}