{"sex": "M", "races": {"Tour du Chablais #1 Montreux": {"race": "Tour du Chablais #1 Montreux", "longitude": 6.9916269, "latitude": 46.2957462, "date": {"mer. 11.04.2012": {"weekday": "wednesday", "year": 2012, "categories": {"M-M20": {"pace": 202000000000, "rank": 2, "distance": 8, "time": 1541.6}}, "day": 11, "month": 4, "livingplace": "Collombey"}}, "location": "Ollon VD"}, "Course p\u00e9destre Thyon-Dixence, Thyon": {"race": "Course p\u00e9destre Thyon-Dixence, Thyon", "date": {"dim. 05.08.2012": {"weekday": "sunday", "year": 2012, "categories": {"HomElite": {"pace": 298000000000, "rank": 8, "distance": 16, "time": 4875.2}}, "day": 5, "month": 8, "livingplace": "Collombey"}}, "location": "Thyon-Les Collons"}, "Tour du Chablais #6 Monthey": {"race": "Tour du Chablais #6 Monthey", "longitude": 6.970566, "latitude": 46.3190253, "date": {"mer. 08.05.2013": {"weekday": "wednesday", "year": 2013, "categories": {"M-M40": {"pace": 208000000000, "rank": 3, "distance": 9, "time": 1940.0}}, "day": 8, "month": 5, "livingplace": "Collombey"}}, "location": "Aigle"}, "A travers Carouge - Run to Run": {"race": "A travers Carouge - Run to Run", "longitude": 6.1378539, "latitude": 46.1829674, "date": {"sam. 20.09.2008": {"weekday": "saturday", "year": 2008, "categories": {"M35/10": {"pace": 193000000000, "rank": 4, "distance": 10, "time": 1932.1}}, "day": 20, "month": 9, "livingplace": "CABV Martigny"}}, "location": "Carouge GE"}, "Tour du Chablais #1 Roche": {"race": "Tour du Chablais #1 Roche", "longitude": 6.9916269, "latitude": 46.2957462, "date": {"mer. 07.04.2010": {"weekday": "wednesday", "year": 2010, "categories": {"M-M20": {"pace": 229000000000, "rank": 31, "distance": 9, "time": 2052.7}}, "day": 7, "month": 4, "livingplace": "Collombey"}}, "location": "Ollon VD"}, "Tour du Chablais #3 Collombey-Muraz": {"race": "Tour du Chablais #3 Collombey-Muraz", "longitude": 7.0223787, "latitude": 46.1782231, "date": {"mer. 25.04.2012": {"weekday": "wednesday", "year": 2012, "categories": {"M-M20": {"pace": 198000000000, "rank": 4, "distance": 9, "time": 1782.8}}, "day": 25, "month": 4, "livingplace": "Collombey"}}, "location": "Evionnaz"}, "Tour du Chablais #2 Bex": {"race": "Tour du Chablais #2 Bex", "longitude": 6.854975199999999, "latitude": 46.3835529, "date": {"mer. 18.04.2012": {"weekday": "wednesday", "year": 2012, "categories": {"M-M20": {"pace": 203000000000, "rank": 3, "distance": 8, "time": 1631.9}}, "day": 18, "month": 4, "livingplace": "Collombey"}}, "location": "Bouveret"}, "Tour du Chablais #6 Montreux": {"race": "Tour du Chablais #6 Montreux", "longitude": 6.970566, "latitude": 46.3190253, "date": {"mer. 16.05.2012": {"weekday": "wednesday", "year": 2012, "categories": {"M-M20": {"pace": 203000000000, "rank": 5, "distance": 9, "time": 1885.8}}, "day": 16, "month": 5, "livingplace": "Collombey"}}, "location": "Aigle"}, "Montreux - Les Rochers de Naye": {"race": "Montreux - Les Rochers de Naye", "longitude": 6.9106799, "latitude": 46.4312213, "date": {"dim. 08.07.2012": {"weekday": "sunday", "year": 2012, "categories": {"M-HElite": {"pace": 311000000000, "rank": 3, "distance": 19, "time": 5850.4}}, "day": 8, "month": 7, "livingplace": "Collombey"}, "dim. 11.07.2010": {"weekday": "sunday", "year": 2010, "categories": {"M-V\u00e9t1": {"pace": 326000000000, "rank": 8, "distance": 19, "time": 6135.8}}, "day": 11, "month": 7, "livingplace": "Martigny"}, "dim. 26.06.2005": {"weekday": "sunday", "year": 2005, "categories": {"Sen": {"pace": 367000000000, "rank": 12, "distance": 19, "time": 6902.1}}, "day": 26, "month": 6, "livingplace": "Collombey"}}, "location": "Montreux"}, "Tour du Chablais #4 Morgins": {"race": "Tour du Chablais #4 Morgins", "date": {"mer. 18.05.2011": {"weekday": "wednesday", "year": 2011, "categories": {"M-M20": {"pace": 211000000000, "rank": 3, "distance": 8, "time": 1765.9}}, "day": 18, "month": 5, "livingplace": "Collombey"}}, "location": "Les Mosses"}, "Tour du Chablais #6 Mouthey": {"race": "Tour du Chablais #6 Mouthey", "longitude": 6.970566, "latitude": 46.3190253, "date": {"mer. 12.05.2010": {"weekday": "wednesday", "year": 2010, "categories": {"M-M20": {"pace": 199000000000, "rank": 6, "distance": 9, "time": 1834.1}}, "day": 12, "month": 5, "livingplace": "Collombey"}}, "location": "Aigle"}, "Tour du Chablais #6 Aigle": {"race": "Tour du Chablais #6 Aigle", "longitude": 6.970566, "latitude": 46.3190253, "date": {"mer. 01.06.2011": {"weekday": "wednesday", "year": 2011, "categories": {"M-M20": {"pace": 195000000000, "rank": 6, "distance": 10, "time": 1998.0}}, "day": 1, "month": 6, "livingplace": "Collombey"}}, "location": "Aigle"}, "Tour du Chablais #4 Champ\u00e9ry": {"race": "Tour du Chablais #4 Champ\u00e9ry", "date": {"mer. 02.05.2012": {"weekday": "wednesday", "year": 2012, "categories": {"M-M20": {"pace": 204000000000, "rank": 4, "distance": 8, "time": 1695.5}}, "day": 2, "month": 5, "livingplace": "Collombey"}}, "location": "Les Mosses"}, "Tour du Chablais #5 Les Mosses": {"race": "Tour du Chablais #5 Les Mosses", "longitude": 6.931504599999999, "latitude": 46.3603257, "date": {"mer. 25.05.2011": {"weekday": "wednesday", "year": 2011, "categories": {"M-M20": {"pace": 211000000000, "rank": 4, "distance": 8, "time": 1690.3}}, "day": 25, "month": 5, "livingplace": "Collombey"}}, "location": "Roche VD"}, "Tour du Chablais #1 Lavey": {"race": "Tour du Chablais #1 Lavey", "longitude": 6.9916269, "latitude": 46.2957462, "date": {"mer. 27.04.2011": {"weekday": "wednesday", "year": 2011, "categories": {"M-M20": {"pace": 197000000000, "rank": 4, "distance": 9, "time": 1777.1}}, "day": 27, "month": 4, "livingplace": "Collombey"}}, "location": "Ollon VD"}, "Tour du Chablais #5 Bex": {"race": "Tour du Chablais #5 Bex", "longitude": 6.931504599999999, "latitude": 46.3603257, "date": {"mer. 09.05.2012": {"weekday": "wednesday", "year": 2012, "categories": {"M-M20": {"pace": 194000000000, "rank": 4, "distance": 9, "time": 1720.2}}, "day": 9, "month": 5, "livingplace": "Collombey"}}, "location": "Roche VD"}, "Tour du Chablais #3 Bex": {"race": "Tour du Chablais #3 Bex", "longitude": 7.0223787, "latitude": 46.1782231, "date": {"mer. 21.04.2010": {"weekday": "wednesday", "year": 2010, "categories": {"M-M20": {"pace": 233000000000, "rank": 25, "distance": 10, "time": 2330.6}}, "day": 21, "month": 4, "livingplace": "Collombey"}}, "location": "Evionnaz"}, "Tour du Chablais #3 Le Bouveret": {"race": "Tour du Chablais #3 Le Bouveret", "longitude": 7.0223787, "latitude": 46.1782231, "date": {"mer. 11.05.2011": {"weekday": "wednesday", "year": 2011, "categories": {"M-M20": {"pace": 200000000000, "rank": 3, "distance": 10, "time": 2008.9}}, "day": 11, "month": 5, "livingplace": "Collombey"}}, "location": "Evionnaz"}, "Tour du Chablais #2 Rennaz": {"race": "Tour du Chablais #2 Rennaz", "longitude": 6.854975199999999, "latitude": 46.3835529, "date": {"mer. 04.05.2011": {"weekday": "wednesday", "year": 2011, "categories": {"M-M20": {"pace": 209000000000, "rank": 8, "distance": 9, "time": 1956.8}}, "day": 4, "month": 5, "livingplace": "Collombey"}}, "location": "Bouveret"}}, "name": "Gex-Fabry Alexis", "birth": 1973}