{"sex": "F", "races": {"Schweizer Frauenlauf Bern": {"race": "Schweizer Frauenlauf Bern", "longitude": 7.4474468, "latitude": 46.9479739, "date": {"dim. 10.06.2012": {"weekday": "sunday", "year": 2012, "categories": {"5-W45": {"pace": 351000000000, "rank": 321, "distance": 5, "time": 1756.2}}, "day": 10, "month": 6, "livingplace": "Vouvry"}}, "location": "Bern"}, "Tour du Chablais #5 Leysin": {"race": "Tour du Chablais #5 Leysin", "longitude": 6.931504599999999, "latitude": 46.3603257, "date": {"mer. 05.05.2010": {"weekday": "wednesday", "year": 2010, "categories": {"F-F40": {"pace": 393000000000, "rank": 49, "distance": 8, "time": 3323.7}}, "day": 5, "month": 5, "livingplace": "Vouvry"}}, "location": "Roche VD"}, "Tour du Chablais #4 Yvorne": {"race": "Tour du Chablais #4 Yvorne", "date": {"mer. 28.04.2010": {"weekday": "wednesday", "year": 2010, "categories": {"F-F40": {"pace": 391000000000, "rank": 71, "distance": 8, "time": 3243.9}}, "day": 28, "month": 4, "livingplace": "Vouvry"}}, "location": "Les Mosses"}, "Tour du Chablais #3 Bex": {"race": "Tour du Chablais #3 Bex", "longitude": 7.0223787, "latitude": 46.1782231, "date": {"mer. 21.04.2010": {"weekday": "wednesday", "year": 2010, "categories": {"F-F40": {"pace": 374000000000, "rank": 63, "distance": 10, "time": 3744.0}}, "day": 21, "month": 4, "livingplace": "Vouvry"}}, "location": "Evionnaz"}, "Tour du Chablais #1 Roche": {"race": "Tour du Chablais #1 Roche", "longitude": 6.9916269, "latitude": 46.2957462, "date": {"mer. 07.04.2010": {"weekday": "wednesday", "year": 2010, "categories": {"F-F40": {"pace": 371000000000, "rank": 64, "distance": 9, "time": 3327.9}}, "day": 7, "month": 4, "livingplace": "Vouvry"}}, "location": "Ollon VD"}, "Tour du Chablais #2 St-Gingolph": {"race": "Tour du Chablais #2 St-Gingolph", "longitude": 6.854975199999999, "latitude": 46.3835529, "date": {"mer. 14.04.2010": {"weekday": "wednesday", "year": 2010, "categories": {"F-F40": {"pace": 399000000000, "rank": 68, "distance": 8, "time": 3338.9}}, "day": 14, "month": 4, "livingplace": "Vouvry"}}, "location": "Bouveret"}, "Tour du Chablais #2 Rennaz": {"race": "Tour du Chablais #2 Rennaz", "longitude": 6.854975199999999, "latitude": 46.3835529, "date": {"mer. 04.05.2011": {"weekday": "wednesday", "year": 2011, "categories": {"F-F40": {"pace": 387000000000, "rank": 87, "distance": 9, "time": 3625.6}}, "day": 4, "month": 5, "livingplace": "Vouvry"}}, "location": "Bouveret"}, "Tour du Chablais #6 Mouthey": {"race": "Tour du Chablais #6 Mouthey", "longitude": 6.970566, "latitude": 46.3190253, "date": {"mer. 12.05.2010": {"weekday": "wednesday", "year": 2010, "categories": {"F-F40": {"pace": 367000000000, "rank": 78, "distance": 9, "time": 3380.0}}, "day": 12, "month": 5, "livingplace": "Vouvry"}}, "location": "Aigle"}}, "name": "Gex Gabrielle", "birth": 1966}