{"sex": "M", "races": {"Tour du Chablais #1 Montreux": {"race": "Tour du Chablais #1 Montreux", "longitude": 6.9916269, "latitude": 46.2957462, "date": {"mer. 11.04.2012": {"weekday": "wednesday", "year": 2012, "categories": {"M-M50": {"pace": 428000000000, "rank": 100, "distance": 8, "time": 3252.8}}, "day": 11, "month": 4, "livingplace": "Aigle"}}, "location": "Ollon VD"}, "Tour du Chablais #6 Monthey": {"race": "Tour du Chablais #6 Monthey", "longitude": 6.970566, "latitude": 46.3190253, "date": {"mer. 08.05.2013": {"weekday": "wednesday", "year": 2013, "categories": {"M-M50": {"pace": 388000000000, "rank": 91, "distance": 9, "time": 3620.0}}, "day": 8, "month": 5, "livingplace": "Aigle"}}, "location": "Aigle"}, "Tour du Chablais #2 Bex": {"race": "Tour du Chablais #2 Bex", "longitude": 6.854975199999999, "latitude": 46.3835529, "date": {"mer. 18.04.2012": {"weekday": "wednesday", "year": 2012, "categories": {"M-M50": {"pace": 436000000000, "rank": 94, "distance": 8, "time": 3493.5}}, "day": 18, "month": 4, "livingplace": "Aigle"}}, "location": "Bouveret"}, "Tour du Chablais #1 Martigny": {"race": "Tour du Chablais #1 Martigny", "longitude": 6.9916269, "latitude": 46.2957462, "date": {"mer. 23.04.2014": {"weekday": "wednesday", "year": 2014, "categories": {"M-M50": {"pace": 409000000000, "rank": 109, "distance": 9, "time": 3478.7}}, "day": 23, "month": 4, "livingplace": "Aigle"}}, "location": "Ollon VD"}, "Morat-Fribourg": {"race": "Morat-Fribourg", "longitude": 7.120184, "latitude": 46.92922110000001, "date": {"sam. 01.10.2011": {"weekday": "saturday", "year": 2011, "categories": {"17-M50": {"pace": 427000000000, "rank": 510, "distance": 17, "time": 7338.1}}, "day": 1, "month": 10, "livingplace": "Aigle"}}, "location": "Murten"}, "Tour du Chablais #6 Aigle": {"race": "Tour du Chablais #6 Aigle", "longitude": 6.970566, "latitude": 46.3190253, "date": {"mer. 01.06.2011": {"weekday": "wednesday", "year": 2011, "categories": {"M-M50": {"pace": 346000000000, "rank": 87, "distance": 10, "time": 3534.3}}, "day": 1, "month": 6, "livingplace": "Aigle"}}, "location": "Aigle"}, "Tour du Chablais #4 Morgins": {"race": "Tour du Chablais #4 Morgins", "date": {"mer. 18.05.2011": {"weekday": "wednesday", "year": 2011, "categories": {"M-M50": {"pace": 398000000000, "rank": 83, "distance": 8, "time": 3325.2}}, "day": 18, "month": 5, "livingplace": "Aigle"}}, "location": "Les Mosses"}, "Tour du Chablais #5 Les Mosses": {"race": "Tour du Chablais #5 Les Mosses", "longitude": 6.931504599999999, "latitude": 46.3603257, "date": {"mer. 25.05.2011": {"weekday": "wednesday", "year": 2011, "categories": {"M-M50": {"pace": 400000000000, "rank": 77, "distance": 8, "time": 3204.9}}, "day": 25, "month": 5, "livingplace": "Aigle"}}, "location": "Roche VD"}, "Tour du Chablais #5 Bex": {"race": "Tour du Chablais #5 Bex", "longitude": 6.931504599999999, "latitude": 46.3603257, "date": {"mer. 09.05.2012": {"weekday": "wednesday", "year": 2012, "categories": {"M-M50": {"pace": 365000000000, "rank": 79, "distance": 9, "time": 3236.2}}, "day": 9, "month": 5, "livingplace": "Aigle"}}, "location": "Roche VD"}, "Tour du Chablais #5 Morgins": {"race": "Tour du Chablais #5 Morgins", "longitude": 6.931504599999999, "latitude": 46.3603257, "date": {"mer. 01.05.2013": {"weekday": "wednesday", "year": 2013, "categories": {"M-M50": {"pace": 411000000000, "rank": 68, "distance": 8, "time": 3131.0}}, "day": 1, "month": 5, "livingplace": "Aigle"}}, "location": "Roche VD"}, "Tour du Chablais #3 Le Bouveret": {"race": "Tour du Chablais #3 Le Bouveret", "longitude": 7.0223787, "latitude": 46.1782231, "date": {"mer. 11.05.2011": {"weekday": "wednesday", "year": 2011, "categories": {"M-M50": {"pace": 370000000000, "rank": 95, "distance": 10, "time": 3709.7}}, "day": 11, "month": 5, "livingplace": "Aigle"}}, "location": "Evionnaz"}, "Tour du Chablais #3 Collombey-Muraz": {"race": "Tour du Chablais #3 Collombey-Muraz", "longitude": 7.0223787, "latitude": 46.1782231, "date": {"mer. 25.04.2012": {"weekday": "wednesday", "year": 2012, "categories": {"M-M50": {"pace": 371000000000, "rank": 88, "distance": 9, "time": 3334.5}}, "day": 25, "month": 4, "livingplace": "Aigle"}}, "location": "Evionnaz"}, "Tour du Chablais #4 St  Maurice": {"race": "Tour du Chablais #4 St  Maurice", "date": {"mer. 24.04.2013": {"weekday": "wednesday", "year": 2013, "categories": {"M-M50": {"pace": 418000000000, "rank": 86, "distance": 10, "time": 4189.0}}, "day": 24, "month": 4, "livingplace": "Aigle"}}, "location": "Les Mosses"}, "Tour du Chablais #2 Rennaz": {"race": "Tour du Chablais #2 Rennaz", "longitude": 6.854975199999999, "latitude": 46.3835529, "date": {"mer. 04.05.2011": {"weekday": "wednesday", "year": 2011, "categories": {"M-M50": {"pace": 427000000000, "rank": 107, "distance": 9, "time": 3995.6}}, "day": 4, "month": 5, "livingplace": "Aigle"}}, "location": "Bouveret"}}, "name": "Ghiringhelli Charles-Pasc", "birth": 1959}