{"sex": "M", "races": {"Tour du Chablais #1 Montreux": {"race": "Tour du Chablais #1 Montreux", "longitude": 6.9916269, "latitude": 46.2957462, "date": {"mer. 11.04.2012": {"weekday": "wednesday", "year": 2012, "categories": {"M-M20": {"pace": 326000000000, "rank": 183, "distance": 8, "time": 2483.5}}, "day": 11, "month": 4, "livingplace": "Cham"}}, "location": "Ollon VD"}, "Tour du Chablais #4 St  Maurice": {"race": "Tour du Chablais #4 St  Maurice", "date": {"mer. 24.04.2013": {"weekday": "wednesday", "year": 2013, "categories": {"M-M20": {"pace": 330000000000, "rank": 203, "distance": 10, "time": 3309.7}}, "day": 24, "month": 4, "livingplace": "Muraz Collombey"}}, "location": "Les Mosses"}, "Tour du Chablais #2 Yvorne": {"race": "Tour du Chablais #2 Yvorne", "longitude": 6.854975199999999, "latitude": 46.3835529, "date": {"mer. 10.04.2013": {"weekday": "wednesday", "year": 2013, "categories": {"M-M20": {"pace": 371000000000, "rank": 226, "distance": 8, "time": 2975.0}}, "day": 10, "month": 4, "livingplace": "Muraz Collombey"}}, "location": "Bouveret"}, "Tour du Chablais #4 Champ\u00e9ry": {"race": "Tour du Chablais #4 Champ\u00e9ry", "date": {"mer. 02.05.2012": {"weekday": "wednesday", "year": 2012, "categories": {"M-M20": {"pace": 313000000000, "rank": 176, "distance": 8, "time": 2599.7}}, "day": 2, "month": 5, "livingplace": "Cham"}}, "location": "Les Mosses"}, "Tour du Chablais #3 Collombey-Muraz": {"race": "Tour du Chablais #3 Collombey-Muraz", "longitude": 7.0223787, "latitude": 46.1782231, "date": {"mer. 25.04.2012": {"weekday": "wednesday", "year": 2012, "categories": {"M-M20": {"pace": 310000000000, "rank": 167, "distance": 9, "time": 2791.9}}, "day": 25, "month": 4, "livingplace": "Cham"}}, "location": "Evionnaz"}, "Tour du Chablais #1 Roche": {"race": "Tour du Chablais #1 Roche", "longitude": 6.9916269, "latitude": 46.2957462, "date": {"mer. 03.04.2013": {"weekday": "wednesday", "year": 2013, "categories": {"M-M20": {"pace": 317000000000, "rank": 194, "distance": 9, "time": 2813.5}}, "day": 3, "month": 4, "livingplace": "Muraz Collombey"}}, "location": "Ollon VD"}, "Tour du Chablais #1 Martigny": {"race": "Tour du Chablais #1 Martigny", "longitude": 6.9916269, "latitude": 46.2957462, "date": {"mer. 23.04.2014": {"weekday": "wednesday", "year": 2014, "categories": {"M-M20": {"pace": 335000000000, "rank": 254, "distance": 9, "time": 2855.7}}, "day": 23, "month": 4, "livingplace": "Muraz Collombey"}}, "location": "Ollon VD"}, "Tour du Chablais #2 Bex": {"race": "Tour du Chablais #2 Bex", "longitude": 6.854975199999999, "latitude": 46.3835529, "date": {"mer. 18.04.2012": {"weekday": "wednesday", "year": 2012, "categories": {"M-M20": {"pace": 316000000000, "rank": 183, "distance": 8, "time": 2530.2}}, "day": 18, "month": 4, "livingplace": "Cham"}}, "location": "Bouveret"}, "Tour du Chablais #6 Montreux": {"race": "Tour du Chablais #6 Montreux", "longitude": 6.970566, "latitude": 46.3190253, "date": {"mer. 16.05.2012": {"weekday": "wednesday", "year": 2012, "categories": {"M-M20": {"pace": 307000000000, "rank": 202, "distance": 9, "time": 2846.9}}, "day": 16, "month": 5, "livingplace": "Cham"}}, "location": "Aigle"}, "Montreux - Les Rochers de Naye": {"race": "Montreux - Les Rochers de Naye", "longitude": 6.9106799, "latitude": 46.4312213, "date": {"dim. 10.07.2011": {"weekday": "sunday", "year": 2011, "categories": {"M-HElite": {"pace": 589000000000, "rank": 222, "distance": 19, "time": 11081.1}}, "day": 10, "month": 7, "livingplace": "Cham"}}, "location": "Montreux"}}, "name": "Gianini Vincent", "birth": 1975}