{"sex": "M", "races": {"Course de l'Escalade, Gen\u00e8ve": {"race": "Course de l'Escalade, Gen\u00e8ve", "longitude": 6.1431577, "latitude": 46.2043907, "date": {"sam. 03.12.2005": {"weekday": "saturday", "year": 2005, "categories": {"HElite": {"pace": 188000000000, "rank": 27, "distance": 7, "time": 1365.6}}, "day": 3, "month": 12, "livingplace": "Suisse"}}, "location": "Gen\u00e8ve"}, "Groupe E Tour Fribourg #4 Siviriez": {"race": "Groupe E Tour Fribourg #4 Siviriez", "longitude": 6.877722, "latitude": 46.6585092, "date": {"mer. 19.09.2012": {"weekday": "wednesday", "year": 2012, "categories": {"HS1": {"pace": 213000000000, "rank": 1, "distance": 9, "time": 2005.2}}, "day": 19, "month": 9, "livingplace": "Belfaux"}}, "location": "Siviriez"}, "Groupe E Tour Fribourg #1 Gurmels": {"race": "Groupe E Tour Fribourg #1 Gurmels", "longitude": 6.977279999999999, "latitude": 46.81832, "date": {"mer. 29.08.2012": {"weekday": "wednesday", "year": 2012, "categories": {"HS1": {"pace": 214000000000, "rank": 2, "distance": 8, "time": 1800.8}}, "day": 29, "month": 8, "livingplace": "Belfaux"}}, "location": "Cousset"}, "Groupe E Tour Fribourg #3, Kerzers": {"race": "Groupe E Tour Fribourg #3, Kerzers", "longitude": 7.1954365, "latitude": 46.97488999999999, "date": {"mer. 03.09.2014": {"weekday": "wednesday", "year": 2014, "categories": {"H-Sen1": {"pace": 205000000000, "rank": 1, "distance": 10, "time": 2088.3}}, "day": 3, "month": 9, "livingplace": "Belfaux"}}, "location": "Kerzers"}, "Groupe E Tour Fribourg #4, Siviriez": {"race": "Groupe E Tour Fribourg #4, Siviriez", "longitude": 6.877722, "latitude": 46.6585092, "date": {"mer. 10.09.2014": {"weekday": "wednesday", "year": 2014, "categories": {"H-Sen1": {"pace": 234000000000, "rank": 1, "distance": 11, "time": 2528.9}}, "day": 10, "month": 9, "livingplace": "Belfaux"}}, "location": "Siviriez"}, "Groupe E Tour Fribourg #5 Fribourg": {"race": "Groupe E Tour Fribourg #5 Fribourg", "longitude": 7.131657799999999, "latitude": 46.8128615, "date": {"mer. 26.09.2012": {"weekday": "wednesday", "year": 2012, "categories": {"HS1": {"pace": 207000000000, "rank": 2, "distance": 11, "time": 2217.4}}, "day": 26, "month": 9, "livingplace": "Belfaux"}, "mer. 18.09.2013": {"weekday": "wednesday", "year": 2013, "categories": {"HS1": {"pace": 202000000000, "rank": 1, "distance": 10, "time": 2027.9}}, "day": 18, "month": 9, "livingplace": "Belfaux"}}, "location": "Givisiez"}, "Kerzerslauf": {"race": "Kerzerslauf", "longitude": 7.1954365, "latitude": 46.97488999999999, "date": {"sam. 21.03.2009": {"weekday": "saturday", "year": 2009, "categories": {"15-M20": {"pace": 201000000000, "rank": 20, "distance": 15, "time": 3026.8}}, "day": 21, "month": 3, "livingplace": "Belfaux"}, "sam. 20.03.2010": {"weekday": "saturday", "year": 2010, "categories": {"15-M20": {"pace": 220000000000, "rank": 38, "distance": 15, "time": 3314.2}}, "day": 20, "month": 3, "livingplace": "Belfaux"}, "sam. 16.03.2013": {"weekday": "saturday", "year": 2013, "categories": {"15-M20": {"pace": 206000000000, "rank": 20, "distance": 15, "time": 3094.2}}, "day": 16, "month": 3, "livingplace": "Belfaux"}, "sam. 17.03.2012": {"weekday": "saturday", "year": 2012, "categories": {"15-M20": {"pace": 202000000000, "rank": 15, "distance": 15, "time": 3037.5}}, "day": 17, "month": 3, "livingplace": "Belfaux"}}, "location": "Kerzers"}, "10km, Payerne": {"race": "10km, Payerne", "longitude": 6.9405663, "latitude": 46.8220266, "date": {"sam. 10.03.2012": {"weekday": "saturday", "year": 2012, "categories": {"M30": {"pace": 193000000000, "rank": 2, "distance": 10, "time": 1936.2}}, "day": 10, "month": 3, "livingplace": "Belfaux"}}, "location": "Payerne"}, "20km de Lausanne": {"race": "20km de Lausanne", "longitude": 6.6322734, "latitude": 46.5196535, "date": {"sam. 26.04.2014": {"weekday": "saturday", "year": 2014, "categories": {"20-H30": {"pace": 321000000000, "rank": 629, "distance": 20, "time": 6431.8}}, "day": 26, "month": 4, "livingplace": "Trilogie running team"}}, "location": "Lausanne"}, "Engadiner Sommerlauf, Samedan": {"race": "Engadiner Sommerlauf, Samedan", "date": {"dim. 23.08.2009": {"weekday": "sunday", "year": 2009, "categories": {"S/HK": {"pace": 238000000000, "rank": 6, "distance": 27, "time": 6439.5}}, "day": 23, "month": 8, "livingplace": "Belfaux"}}, "location": "Bever"}, "Groupe E Tour Fribourg #1, Cousset": {"race": "Groupe E Tour Fribourg #1, Cousset", "longitude": 6.977279999999999, "latitude": 46.81832, "date": {"mer. 20.08.2014": {"weekday": "wednesday", "year": 2014, "categories": {"H-Sen1": {"pace": 198000000000, "rank": 2, "distance": 9, "time": 1869.7}}, "day": 20, "month": 8, "livingplace": "Belfaux"}}, "location": "Cousset"}, "Bieler Lauftage, Biel Bienne": {"race": "Bieler Lauftage, Biel Bienne", "longitude": 7.2467909, "latitude": 47.1367785, "date": {"ven. 12.06.2009": {"weekday": "friday", "year": 2009, "categories": {"100/M30": {"pace": 293000000000, "rank": 1, "distance": 100, "time": 29300.0}}, "day": 12, "month": 6, "livingplace": "Belfaux"}}, "location": "Biel/Bienne"}, "Groupe E Tour Fribourg #4 Montagny": {"race": "Groupe E Tour Fribourg #4 Montagny", "longitude": 6.877722, "latitude": 46.6585092, "date": {"mer. 11.09.2013": {"weekday": "wednesday", "year": 2013, "categories": {"HS1": {"pace": 210000000000, "rank": 1, "distance": 10, "time": 2059.2}}, "day": 11, "month": 9, "livingplace": "Belfaux"}}, "location": "Siviriez"}, "Groupe E Tour Fribourg #3 Charmey": {"race": "Groupe E Tour Fribourg #3 Charmey", "longitude": 7.1954365, "latitude": 46.97488999999999, "date": {"mer. 04.09.2013": {"weekday": "wednesday", "year": 2013, "categories": {"HS1": {"pace": 226000000000, "rank": 1, "distance": 11, "time": 2461.3}}, "day": 4, "month": 9, "livingplace": "Belfaux"}}, "location": "Kerzers"}, "Corrida Bulloise, Bulle": {"race": "Corrida Bulloise, Bulle", "longitude": 7.057726799999999, "latitude": 46.6154512, "date": {"sam. 21.11.2009": {"weekday": "saturday", "year": 2009, "categories": {"EH": {"pace": 196000000000, "rank": 35, "distance": 8, "time": 1598.9}}, "day": 21, "month": 11, "livingplace": "Belfaux"}}, "location": "Bulle"}, "Groupe E Tour Fribourg #1 Siviriez": {"race": "Groupe E Tour Fribourg #1 Siviriez", "longitude": 6.977279999999999, "latitude": 46.81832, "date": {"mer. 21.08.2013": {"weekday": "wednesday", "year": 2013, "categories": {"HS1": {"pace": 212000000000, "rank": 1, "distance": 10, "time": 2081.6}}, "day": 21, "month": 8, "livingplace": "Belfaux"}}, "location": "Cousset"}, "Groupe E Tour Fribourg #2 Kerzers": {"race": "Groupe E Tour Fribourg #2 Kerzers", "longitude": 7.1654493, "latitude": 46.6175845, "date": {"mer. 28.08.2013": {"weekday": "wednesday", "year": 2013, "categories": {"HS1": {"pace": 210000000000, "rank": 1, "distance": 12, "time": 2487.4}}, "day": 28, "month": 8, "livingplace": "Belfaux"}}, "location": "Charmey (Gruy\u00e8re)"}, "Maratona Ticino, Tenero": {"race": "Maratona Ticino, Tenero", "date": {"dim. 08.11.2009": {"weekday": "sunday", "year": 2009, "categories": {"H-M20": {"pace": 233000000000, "rank": 31, "distance": 21, "time": 4918.8}}, "day": 8, "month": 11, "livingplace": "Belfaux"}}, "location": "Tenero"}, "Groupe E Tour Fribourg #5, Givisiez": {"race": "Groupe E Tour Fribourg #5, Givisiez", "longitude": 7.131657799999999, "latitude": 46.8128615, "date": {"mer. 17.09.2014": {"weekday": "wednesday", "year": 2014, "categories": {"H-Sen1": {"pace": 213000000000, "rank": 1, "distance": 10, "time": 2190.6}}, "day": 17, "month": 9, "livingplace": "Belfaux"}}, "location": "Givisiez"}, "Groupe E Tour Fribourg #2, Charmey": {"race": "Groupe E Tour Fribourg #2, Charmey", "longitude": 7.1654493, "latitude": 46.6175845, "date": {"mer. 27.08.2014": {"weekday": "wednesday", "year": 2014, "categories": {"H-Sen1": {"pace": 224000000000, "rank": 1, "distance": 10, "time": 2165.7}}, "day": 27, "month": 8, "livingplace": "Belfaux"}}, "location": "Charmey (Gruy\u00e8re)"}, "Groupe E Tour Fribourg #2 Plafayon": {"race": "Groupe E Tour Fribourg #2 Plafayon", "longitude": 7.1654493, "latitude": 46.6175845, "date": {"mer. 05.09.2012": {"weekday": "wednesday", "year": 2012, "categories": {"HS1": {"pace": 195000000000, "rank": 1, "distance": 9, "time": 1825.5}}, "day": 5, "month": 9, "livingplace": "Belfaux"}}, "location": "Charmey (Gruy\u00e8re)"}, "Morat-Fribourg": {"race": "Morat-Fribourg", "longitude": 7.120184, "latitude": 46.92922110000001, "date": {"sam. 04.10.2014": {"weekday": "saturday", "year": 2014, "categories": {"17-M20": {"pace": 208000000000, "rank": 22, "distance": 17, "time": 3584.3}}, "day": 4, "month": 10, "livingplace": "Belfaux"}, "dim. 06.10.2002": {"weekday": "sunday", "year": 2002, "categories": {"M20": {"pace": 224000000000, "rank": 55, "distance": 17, "time": 3856.8}}, "day": 6, "month": 10, "livingplace": "Lossy"}, "sam. 03.10.2015": {"weekday": "saturday", "year": 2015, "categories": {"17-M20": {"pace": 312000000000, "rank": 1223, "distance": 17, "time": 5358.0}}, "day": 3, "month": 10, "livingplace": "Belfaux"}, "sam. 05.10.2013": {"weekday": "saturday", "year": 2013, "categories": {"17-M20": {"pace": 209000000000, "rank": 24, "distance": 17, "time": 3659.2}}, "day": 5, "month": 10, "livingplace": "Belfaux"}, "sam. 06.10.2012": {"weekday": "saturday", "year": 2012, "categories": {"17-M20": {"pace": 211000000000, "rank": 19, "distance": 17, "time": 3690.7}}, "day": 6, "month": 10, "livingplace": "Belfaux"}}, "location": "Murten"}, "Groupe E Tour Fribourg #3 Estavayer-le-Lac": {"race": "Groupe E Tour Fribourg #3 Estavayer-le-Lac", "longitude": 7.1954365, "latitude": 46.97488999999999, "date": {"mer. 12.09.2012": {"weekday": "wednesday", "year": 2012, "categories": {"HS1": {"pace": 195000000000, "rank": 1, "distance": 10, "time": 1925.6}}, "day": 12, "month": 9, "livingplace": "Belfaux"}}, "location": "Kerzers"}, "Semi-Marathon de la C\u00f4te, Allaman-Nyon": {"race": "Semi-Marathon de la C\u00f4te, Allaman-Nyon", "longitude": 6.2347852, "latitude": 46.3832683, "date": {"dim. 14.09.2014": {"weekday": "sunday", "year": 2014, "categories": {"21-H30": {"pace": 204000000000, "rank": 2, "distance": 21, "time": 4312.2}}, "day": 14, "month": 9, "livingplace": "Belfaux"}}, "location": "Nyon"}, "Z\u00fcrich Marathon, Teamrun und Cityrun": {"race": "Z\u00fcrich Marathon, Teamrun und Cityrun", "longitude": 8.541694, "latitude": 47.3768866, "date": {"dim. 06.04.2014": {"weekday": "sunday", "year": 2014, "categories": {"42-MElit": {"pace": 264000000000, "rank": 43, "distance": 42, "time": 11159.1}}, "day": 6, "month": 4, "livingplace": "Belfaux"}}, "location": "Z\u00fcrich"}}, "name": "Girardet David", "birth": 1979}