{"sex": "M", "races": {"Course de l'Escalade, Gen\u00e8ve": {"race": "Course de l'Escalade, Gen\u00e8ve", "longitude": 6.1431577, "latitude": 46.2043907, "date": {"sam. 06.12.2003": {"weekday": "saturday", "year": 2003, "categories": {"Hommes1": {"pace": 202000000000, "rank": 11, "distance": 7, "time": 1464.7}}, "day": 6, "month": 12, "livingplace": "Locarno"}}, "location": "Gen\u00e8ve"}, "Engadiner Sommerlauf, Samedan": {"race": "Engadiner Sommerlauf, Samedan", "date": {"dim. 21.08.2011": {"weekday": "sunday", "year": 2011, "categories": {"M-HK": {"pace": 225000000000, "rank": 9, "distance": 10, "time": 2252.3}}, "day": 21, "month": 8, "livingplace": "Riveo"}}, "location": "Bever"}, "Int Greifenseelauf, Uster": {"race": "Int Greifenseelauf, Uster", "longitude": 8.717873899999999, "latitude": 47.3482747, "date": {"sam. 16.09.2006": {"weekday": "saturday", "year": 2006, "categories": {"K/M20": {"pace": 209000000000, "rank": 1, "distance": 10, "time": 2093.2}}, "day": 16, "month": 9, "livingplace": "Locarno"}}, "location": "Uster"}, "A travers Carouge - Run to Run": {"race": "A travers Carouge - Run to Run", "longitude": 6.1378539, "latitude": 46.1829674, "date": {"sam. 26.09.2009": {"weekday": "saturday", "year": 2009, "categories": {"HI/10": {"pace": 211000000000, "rank": 25, "distance": 10, "time": 2117.2}}, "day": 26, "month": 9, "livingplace": "Locarno"}}, "location": "Carouge GE"}, "Thuner Stadtlauf, Thun": {"race": "Thuner Stadtlauf, Thun", "longitude": 7.6279881, "latitude": 46.7579868, "date": {"dim. 27.08.2006": {"weekday": "sunday", "year": 2006, "categories": {"M20": {"pace": 197000000000, "rank": 3, "distance": 10, "time": 1971.4}}, "day": 27, "month": 8, "livingplace": "usc capriasca"}}, "location": "Thun"}, "Luzerner Stadtlauf": {"race": "Luzerner Stadtlauf", "longitude": 8.3093072, "latitude": 47.05016819999999, "date": {"sam. 29.04.2006": {"weekday": "saturday", "year": 2006, "categories": {"K/34": {"pace": 204000000000, "rank": 14, "distance": 6, "time": 1127.4}}, "day": 29, "month": 4, "livingplace": "Locarno"}}, "location": "Luzern"}, "Lucerne Marathon, Luzern": {"race": "Lucerne Marathon, Luzern", "longitude": 8.3093072, "latitude": 47.05016819999999, "date": {"dim. 25.10.2009": {"weekday": "sunday", "year": 2009, "categories": {"H-M30": {"pace": 215000000000, "rank": 6, "distance": 21, "time": 4549.4}}, "day": 25, "month": 10, "livingplace": "Locarno"}}, "location": "Luzern"}, "Morat-Fribourg": {"race": "Morat-Fribourg", "longitude": 7.120184, "latitude": 46.92922110000001, "date": {"sam. 03.10.2009": {"weekday": "saturday", "year": 2009, "categories": {"C-M20": {"pace": 227000000000, "rank": 18, "distance": 17, "time": 3900.2}}, "day": 3, "month": 10, "livingplace": "Locarno"}}, "location": "Murten"}, "Montreux - Les Rochers de Naye": {"race": "Montreux - Les Rochers de Naye", "longitude": 6.9106799, "latitude": 46.4312213, "date": {"dim. 11.07.2010": {"weekday": "sunday", "year": 2010, "categories": {"M-Hom": {"pace": 356000000000, "rank": 25, "distance": 19, "time": 6693.5}}, "day": 11, "month": 7, "livingplace": "Locarno"}}, "location": "Montreux"}, "20km de Lausanne": {"race": "20km de Lausanne", "longitude": 6.6322734, "latitude": 46.5196535, "date": {"sam. 24.04.2010": {"weekday": "saturday", "year": 2010, "categories": {"10-H30": {"pace": 211000000000, "rank": 7, "distance": 10, "time": 2115.2}}, "day": 24, "month": 4, "livingplace": "Locarno"}}, "location": "Lausanne"}, "Z\u00fcrcher Silvesterlauf, Z\u00fcrich": {"race": "Z\u00fcrcher Silvesterlauf, Z\u00fcrich", "longitude": 8.541694, "latitude": 47.3768866, "date": {"dim. 13.12.2009": {"weekday": "sunday", "year": 2009, "categories": {"8-MenAK1": {"pace": 208000000000, "rank": 6, "distance": 9, "time": 1795.9}}, "day": 13, "month": 12, "livingplace": "Locarno"}}, "location": "Z\u00fcrich"}}, "name": "Giugni Daniele", "birth": 1977}