{"sex": "M", "races": {"Tour du Chablais #5 Les Mosses": {"race": "Tour du Chablais #5 Les Mosses", "longitude": 6.931504599999999, "latitude": 46.3603257, "date": {"mer. 25.05.2011": {"weekday": "wednesday", "year": 2011, "categories": {"M-Jun": {"pace": 292000000000, "rank": 13, "distance": 8, "time": 2343.8}}, "day": 25, "month": 5, "livingplace": "Monthey"}}, "location": "Roche VD"}, "Tour du Chablais #1 Lavey": {"race": "Tour du Chablais #1 Lavey", "longitude": 6.9916269, "latitude": 46.2957462, "date": {"mer. 27.04.2011": {"weekday": "wednesday", "year": 2011, "categories": {"M-Jun": {"pace": 280000000000, "rank": 17, "distance": 9, "time": 2528.8}}, "day": 27, "month": 4, "livingplace": "Monthey"}}, "location": "Ollon VD"}, "Tour du Chablais #1 Roche": {"race": "Tour du Chablais #1 Roche", "longitude": 6.9916269, "latitude": 46.2957462, "date": {"mer. 07.04.2010": {"weekday": "wednesday", "year": 2010, "categories": {"M-Jun": {"pace": 249000000000, "rank": 10, "distance": 9, "time": 2231.4}}, "day": 7, "month": 4, "livingplace": "Monthey"}}, "location": "Ollon VD"}, "Tour du Chablais #3 Le Bouveret": {"race": "Tour du Chablais #3 Le Bouveret", "longitude": 7.0223787, "latitude": 46.1782231, "date": {"mer. 11.05.2011": {"weekday": "wednesday", "year": 2011, "categories": {"M-Jun": {"pace": 280000000000, "rank": 21, "distance": 10, "time": 2804.9}}, "day": 11, "month": 5, "livingplace": "Monthey"}}, "location": "Evionnaz"}, "Tour du Chablais #2 Rennaz": {"race": "Tour du Chablais #2 Rennaz", "longitude": 6.854975199999999, "latitude": 46.3835529, "date": {"mer. 04.05.2011": {"weekday": "wednesday", "year": 2011, "categories": {"M-Jun": {"pace": 277000000000, "rank": 14, "distance": 9, "time": 2592.3}}, "day": 4, "month": 5, "livingplace": "Monthey"}}, "location": "Bouveret"}, "Tour du Chablais #6 Montreux": {"race": "Tour du Chablais #6 Montreux", "longitude": 6.970566, "latitude": 46.3190253, "date": {"mer. 16.05.2012": {"weekday": "wednesday", "year": 2012, "categories": {"M-Jun": {"pace": 269000000000, "rank": 15, "distance": 9, "time": 2496.1}}, "day": 16, "month": 5, "livingplace": "Monthey"}}, "location": "Aigle"}, "Lausanne Marathon": {"race": "Lausanne Marathon", "longitude": 6.6322734, "latitude": 46.5196535, "date": {"sam. 24.10.2015": {"weekday": "saturday", "year": 2015, "categories": {"42-H20": {"pace": 346000000000, "rank": 89, "distance": 42, "time": 14610.3}}, "day": 24, "month": 10, "livingplace": "Monthey"}}, "location": "Lausanne"}, "Tour du Chablais #4 Morgins": {"race": "Tour du Chablais #4 Morgins", "date": {"mer. 18.05.2011": {"weekday": "wednesday", "year": 2011, "categories": {"M-Jun": {"pace": 290000000000, "rank": 18, "distance": 8, "time": 2424.4}}, "day": 18, "month": 5, "livingplace": "Monthey"}}, "location": "Les Mosses"}, "Tour du Chablais #6 Mouthey": {"race": "Tour du Chablais #6 Mouthey", "longitude": 6.970566, "latitude": 46.3190253, "date": {"mer. 12.05.2010": {"weekday": "wednesday", "year": 2010, "categories": {"M-Jun": {"pace": 261000000000, "rank": 24, "distance": 9, "time": 2408.6}}, "day": 12, "month": 5, "livingplace": "Monthey"}}, "location": "Aigle"}}, "name": "Godfroid Thomas", "birth": 1993}