{"sex": "M", "races": {"BCN Tour #4 Fleurier": {"race": "BCN Tour #4 Fleurier", "longitude": 6.832783800000001, "latitude": 47.1034892, "date": {"mer. 15.05.2013": {"weekday": "wednesday", "year": 2013, "categories": {"HS2": {"pace": 261000000000, "rank": 42, "distance": 9, "time": 2260.3}}, "day": 15, "month": 5, "livingplace": "Colombier"}}, "location": "La Chaux-de-Fonds"}, "Course de l'Escalade, Gen\u00e8ve": {"race": "Course de l'Escalade, Gen\u00e8ve", "longitude": 6.1431577, "latitude": 46.2043907, "date": {"sam. 05.12.2015": {"weekday": "saturday", "year": 2015, "categories": {"Esc-Hom4": {"pace": 252000000000, "rank": 86, "distance": 7, "time": 1847.0}}, "day": 5, "month": 12, "livingplace": "Colombier"}}, "location": "Gen\u00e8ve"}, "BCN Tour La Chaux-de-Fonds": {"race": "BCN Tour La Chaux-de-Fonds", "longitude": 6.832783800000001, "latitude": 47.1034892, "date": {"mer. 11.05.2011": {"weekday": "wednesday", "year": 2011, "categories": {"HS2": {"pace": 302000000000, "rank": 48, "distance": 11, "time": 3232.6}}, "day": 11, "month": 5, "livingplace": "Colombier"}, "mer. 23.05.2012": {"weekday": "wednesday", "year": 2012, "categories": {"HS2": {"pace": 261000000000, "rank": 42, "distance": 11, "time": 2822.6}}, "day": 23, "month": 5, "livingplace": "Colombier"}}, "location": "La Chaux-de-Fonds"}, "BCN Tour Auvernier": {"race": "BCN Tour Auvernier", "longitude": 6.8589727, "latitude": 46.9668714, "date": {"mer. 20.04.2011": {"weekday": "wednesday", "year": 2011, "categories": {"HS2": {"pace": 266000000000, "rank": 43, "distance": 11, "time": 2882.7}}, "day": 20, "month": 4, "livingplace": "Colombier"}}, "location": "Colombier NE"}, "La Trotteuse-Tissot, La Chaux-de-Fonds": {"race": "La Trotteuse-Tissot, La Chaux-de-Fonds", "longitude": 6.832783800000001, "latitude": 47.1034892, "date": {"sam. 12.12.2015": {"weekday": "saturday", "year": 2015, "categories": {"GC-H50": {"pace": 256000000000, "rank": 22, "distance": 8, "time": 2052.9}}, "day": 12, "month": 12, "livingplace": "Colombier"}, "sam. 08.12.2012": {"weekday": "saturday", "year": 2012, "categories": {"GC-H40": {"pace": 272000000000, "rank": 27, "distance": 8, "time": 2180.2}}, "day": 8, "month": 12, "livingplace": "Colombier"}, "sam. 13.12.2014": {"weekday": "saturday", "year": 2014, "categories": {"GC-H50": {"pace": 266000000000, "rank": 27, "distance": 8, "time": 2133.0}}, "day": 13, "month": 12, "livingplace": "Colombier"}}, "location": "La Chaux-de-Fonds"}, "BCN Tour Les Ponts de Martel": {"race": "BCN Tour Les Ponts de Martel", "longitude": 6.6324944, "latitude": 46.9262933, "date": {"mer. 18.05.2011": {"weekday": "wednesday", "year": 2011, "categories": {"HS2": {"pace": 269000000000, "rank": 43, "distance": 13, "time": 3448.1}}, "day": 18, "month": 5, "livingplace": "Colombier"}}, "location": "Couvet"}, "BCN Tour Couvet": {"race": "BCN Tour Couvet", "longitude": 6.9175754, "latitude": 47.0624261, "date": {"mer. 02.05.2012": {"weekday": "wednesday", "year": 2012, "categories": {"HS2": {"pace": 272000000000, "rank": 55, "distance": 11, "time": 3033.7}}, "day": 2, "month": 5, "livingplace": "Colombier"}}, "location": "Ch\u00e9zard-St-Martin"}, "BCN Tour Fontaine Cernier": {"race": "BCN Tour Fontaine Cernier", "longitude": 6.9175754, "latitude": 47.0624261, "date": {"mer. 27.04.2011": {"weekday": "wednesday", "year": 2011, "categories": {"HS2": {"pace": 253000000000, "rank": 37, "distance": 10, "time": 2607.9}}, "day": 27, "month": 4, "livingplace": "Colombier"}}, "location": "Ch\u00e9zard-St-Martin"}, "BCN Tour #6 Neuch\u00e2tel": {"race": "BCN Tour #6 Neuch\u00e2tel", "longitude": 6.9292732, "latitude": 46.9899874, "date": {"mer. 29.05.2013": {"weekday": "wednesday", "year": 2013, "categories": {"HS2": {"pace": 280000000000, "rank": 71, "distance": 11, "time": 3087.9}}, "day": 29, "month": 5, "livingplace": "Colombier"}}, "location": "Neuch\u00e2tel"}, "BCN Tour #5 Colombier": {"race": "BCN Tour #5 Colombier", "longitude": 6.6324944, "latitude": 46.9262933, "date": {"mer. 22.05.2013": {"weekday": "wednesday", "year": 2013, "categories": {"HS2": {"pace": 231000000000, "rank": 30, "distance": 11, "time": 2427.3}}, "day": 22, "month": 5, "livingplace": "Colombier"}}, "location": "Couvet"}, "BCN Tour Neuch\u00e2tel": {"race": "BCN Tour Neuch\u00e2tel", "longitude": 6.9292732, "latitude": 46.9899874, "date": {"mer. 25.05.2011": {"weekday": "wednesday", "year": 2011, "categories": {"HS2": {"pace": 276000000000, "rank": 54, "distance": 11, "time": 3150.3}}, "day": 25, "month": 5, "livingplace": "Colombier"}, "mer. 26.05.2010": {"weekday": "wednesday", "year": 2010, "categories": {"HS2": {"pace": 275000000000, "rank": 42, "distance": 10, "time": 2673.8}}, "day": 26, "month": 5, "livingplace": "Colombier"}, "mer. 30.05.2012": {"weekday": "wednesday", "year": 2012, "categories": {"HS2": {"pace": 283000000000, "rank": 53, "distance": 11, "time": 3178.9}}, "day": 30, "month": 5, "livingplace": "Colombier"}}, "location": "Neuch\u00e2tel"}, "Zermatt Marathon, Zermatt": {"race": "Zermatt Marathon, Zermatt", "date": {"sam. 06.07.2013": {"weekday": "saturday", "year": 2013, "categories": {"M-M45": {"pace": 418000000000, "rank": 44, "distance": 42, "time": 17637.8}}, "day": 6, "month": 7, "livingplace": "Colombier"}}, "location": "Zermatt"}, "Sierre-Zinal, Sierre": {"race": "Sierre-Zinal, Sierre", "longitude": 7.533536199999999, "latitude": 46.29413110000001, "date": {"dim. 09.08.2015": {"weekday": "sunday", "year": 2015, "categories": {"V\u00e9t_II": {"pace": 432000000000, "rank": 14, "distance": 31, "time": 13418.8}}, "day": 9, "month": 8, "livingplace": "Colombier"}}, "location": "Sierre"}, "Grand Prix Craft, Neuch\u00e2tel": {"race": "Grand Prix Craft, Neuch\u00e2tel", "longitude": 6.9292732, "latitude": 46.9899874, "date": {"dim. 16.12.2007": {"weekday": "sunday", "year": 2007, "categories": {"HS2": {"pace": 235000000000, "rank": 14, "distance": 7, "time": 1647.2}}, "day": 16, "month": 12, "livingplace": "Colombier"}, "dim. 17.12.2006": {"weekday": "sunday", "year": 2006, "categories": {"HS2": {"pace": 234000000000, "rank": 14, "distance": 7, "time": 1638.6}}, "day": 17, "month": 12, "livingplace": "Colombier"}}, "location": "Neuch\u00e2tel"}, "BCN Tour Les Ponts-de-Martel": {"race": "BCN Tour Les Ponts-de-Martel", "longitude": 6.733554799999999, "latitude": 46.999113, "date": {"mer. 09.05.2012": {"weekday": "wednesday", "year": 2012, "categories": {"HS2": {"pace": 276000000000, "rank": 60, "distance": 10, "time": 2845.5}}, "day": 9, "month": 5, "livingplace": "Colombier"}}, "location": "Les Ponts-de-Martel"}, "Jungfrau-Marathon, Interlaken": {"race": "Jungfrau-Marathon, Interlaken", "date": {"sam. 11.09.2004": {"weekday": "saturday", "year": 2004, "categories": {"M40": {"pace": 363000000000, "rank": 81, "distance": 42, "time": 15354.4}}, "day": 11, "month": 9, "livingplace": "Neuchatel"}}, "location": "Interlaken"}, "BCN Tour Le Landeron": {"race": "BCN Tour Le Landeron", "longitude": 6.8589727, "latitude": 46.9668714, "date": {"mer. 22.04.2009": {"weekday": "wednesday", "year": 2009, "categories": {"HS2": {"pace": 264000000000, "rank": 35, "distance": 11, "time": 2932.5}}, "day": 22, "month": 4, "livingplace": "Colombier"}}, "location": "Colombier NE"}, "BCN Tour #3 Dombresson": {"race": "BCN Tour #3 Dombresson", "longitude": 6.733554799999999, "latitude": 46.999113, "date": {"mer. 08.05.2013": {"weekday": "wednesday", "year": 2013, "categories": {"HS2": {"pace": 239000000000, "rank": 26, "distance": 10, "time": 2372.4}}, "day": 8, "month": 5, "livingplace": "Colombier"}}, "location": "Les Ponts-de-Martel"}, "BCN Tour #1 Corcelles": {"race": "BCN Tour #1 Corcelles", "longitude": 6.8589727, "latitude": 46.9668714, "date": {"mer. 24.04.2013": {"weekday": "wednesday", "year": 2013, "categories": {"HS2": {"pace": 244000000000, "rank": 22, "distance": 10, "time": 2392.2}}, "day": 24, "month": 4, "livingplace": "Colombier"}}, "location": "Colombier NE"}, "BCN Tour M\u00f4tier": {"race": "BCN Tour M\u00f4tier", "longitude": 6.6324944, "latitude": 46.9262933, "date": {"mer. 19.05.2010": {"weekday": "wednesday", "year": 2010, "categories": {"HS2": {"pace": 247000000000, "rank": 30, "distance": 10, "time": 2446.3}}, "day": 19, "month": 5, "livingplace": "Colombier"}}, "location": "Couvet"}, "Basel City Marathon": {"race": "Basel City Marathon", "longitude": 7.5885761, "latitude": 47.5595986, "date": {"dim. 03.09.2006": {"weekday": "sunday", "year": 2006, "categories": {"M-M40": {"pace": 298000000000, "rank": 46, "distance": 42, "time": 12578.9}}, "day": 3, "month": 9, "livingplace": "Colombier"}}, "location": "Basel"}, "BCN Tour Ponts-de-Martel": {"race": "BCN Tour Ponts-de-Martel", "longitude": 6.9175754, "latitude": 47.0624261, "date": {"mer. 28.04.2010": {"weekday": "wednesday", "year": 2010, "categories": {"HS2": {"pace": 263000000000, "rank": 37, "distance": 11, "time": 2951.0}}, "day": 28, "month": 4, "livingplace": "Colombier"}}, "location": "Ch\u00e9zard-St-Martin"}, "Morat-Fribourg": {"race": "Morat-Fribourg", "longitude": 7.120184, "latitude": 46.92922110000001, "date": {"sam. 03.10.2015": {"weekday": "saturday", "year": 2015, "categories": {"17-M50": {"pace": 263000000000, "rank": 32, "distance": 17, "time": 4529.6}}, "day": 3, "month": 10, "livingplace": "Colombier"}, "sam. 06.10.2012": {"weekday": "saturday", "year": 2012, "categories": {"17-M45": {"pace": 277000000000, "rank": 126, "distance": 17, "time": 4843.3}}, "day": 6, "month": 10, "livingplace": "Colombier"}}, "location": "Murten"}, "BCN Tour Cornaux": {"race": "BCN Tour Cornaux", "longitude": 6.8589727, "latitude": 46.9668714, "date": {"mer. 25.04.2012": {"weekday": "wednesday", "year": 2012, "categories": {"HS2": {"pace": 296000000000, "rank": 56, "distance": 11, "time": 3261.3}}, "day": 25, "month": 4, "livingplace": "Colombier"}}, "location": "Colombier NE"}, "BCN Tour #2 La Chaux-de-Fonds": {"race": "BCN Tour #2 La Chaux-de-Fonds", "longitude": 6.9175754, "latitude": 47.0624261, "date": {"mer. 01.05.2013": {"weekday": "wednesday", "year": 2013, "categories": {"HS2": {"pace": 276000000000, "rank": 99, "distance": 11, "time": 2958.0}}, "day": 1, "month": 5, "livingplace": "Colombier"}}, "location": "Ch\u00e9zard-St-Martin"}, "BCN Tour Le Locle": {"race": "BCN Tour Le Locle", "longitude": 6.733554799999999, "latitude": 46.999113, "date": {"mer. 05.05.2010": {"weekday": "wednesday", "year": 2010, "categories": {"HS2": {"pace": 256000000000, "rank": 33, "distance": 11, "time": 2800.6}}, "day": 5, "month": 5, "livingplace": "Colombier"}}, "location": "Les Ponts-de-Martel"}, "IWB Basel Marathon": {"race": "IWB Basel Marathon", "longitude": 7.5885761, "latitude": 47.5595986, "date": {"dim. 11.09.2011": {"weekday": "sunday", "year": 2011, "categories": {"M-42-M45": {"pace": 299000000000, "rank": 8, "distance": 42, "time": 12647.8}}, "day": 11, "month": 9, "livingplace": "Colombier"}}, "location": "Basel"}, "BCN Tour Colombier": {"race": "BCN Tour Colombier", "longitude": 6.8589727, "latitude": 46.9668714, "date": {"mer. 21.04.2010": {"weekday": "wednesday", "year": 2010, "categories": {"HS2": {"pace": 281000000000, "rank": 39, "distance": 10, "time": 2811.1}}, "day": 21, "month": 4, "livingplace": "Colombier"}, "mer. 16.05.2012": {"weekday": "wednesday", "year": 2012, "categories": {"HS2": {"pace": 266000000000, "rank": 55, "distance": 11, "time": 2877.6}}, "day": 16, "month": 5, "livingplace": "Colombier"}, "mer. 23.04.2008": {"weekday": "wednesday", "year": 2008, "categories": {"HS2": {"pace": 269000000000, "rank": 39, "distance": 10, "time": 2753.9}}, "day": 23, "month": 4, "livingplace": "Colombier"}}, "location": "Colombier NE"}, "Z\u00fcrich Marathon, Teamrun und Cityrun": {"race": "Z\u00fcrich Marathon, Teamrun und Cityrun", "longitude": 8.541694, "latitude": 47.3768866, "date": {"dim. 09.04.2006": {"weekday": "sunday", "year": 2006, "categories": {"M40": {"pace": 273000000000, "rank": 176, "distance": 42, "time": 11537.3}}, "day": 9, "month": 4, "livingplace": "Neuchatel"}}, "location": "Z\u00fcrich"}, "BCN Tour La Br\u00e9vine": {"race": "BCN Tour La Br\u00e9vine", "longitude": 6.733554799999999, "latitude": 46.999113, "date": {"mer. 04.05.2011": {"weekday": "wednesday", "year": 2011, "categories": {"HS2": {"pace": 271000000000, "rank": 55, "distance": 10, "time": 2713.6}}, "day": 4, "month": 5, "livingplace": "Colombier"}}, "location": "Les Ponts-de-Martel"}, "BCN Tour La Chaux-de-fonds": {"race": "BCN Tour La Chaux-de-fonds", "longitude": 6.832783800000001, "latitude": 47.1034892, "date": {"mer. 12.05.2010": {"weekday": "wednesday", "year": 2010, "categories": {"HS2": {"pace": 316000000000, "rank": 39, "distance": 11, "time": 3382.8}}, "day": 12, "month": 5, "livingplace": "Colombier"}}, "location": "La Chaux-de-Fonds"}}, "name": "Gon\u00e7alves Jaime", "birth": 1964}