{"sex": "M", "races": {"Laufsporttag Winterthur": {"race": "Laufsporttag Winterthur", "longitude": -75.6037351, "latitude": 39.8088766, "date": {"sam. 03.03.2012": {"weekday": "saturday", "year": 2012, "categories": {"A": {"pace": 270000000000, "rank": 44, "distance": 11, "time": 2978.9}}, "day": 3, "month": 3, "livingplace": "Zurich"}}, "location": "Winterthur"}, "Z\u00fcrcher Silvesterlauf, Z\u00fcrich": {"race": "Z\u00fcrcher Silvesterlauf, Z\u00fcrich", "longitude": 8.541694, "latitude": 47.3768866, "date": {"dim. 16.12.2012": {"weekday": "sunday", "year": 2012, "categories": {"8-MM20": {"pace": 291000000000, "rank": 390, "distance": 9, "time": 2511.0}}, "day": 16, "month": 12, "livingplace": "Zurich"}}, "location": "Z\u00fcrich"}, "GP der Stadt D\u00fcbendorf": {"race": "GP der Stadt D\u00fcbendorf", "longitude": 8.618012799999999, "latitude": 47.3971476, "date": {"sam. 14.04.2012": {"weekday": "saturday", "year": 2012, "categories": {"A": {"pace": 265000000000, "rank": 35, "distance": 10, "time": 2652.7}}, "day": 14, "month": 4, "livingplace": "Zurich"}}, "location": "D\u00fcbendorf"}, "Hallwilerseelauf, Beinwil am See": {"race": "Hallwilerseelauf, Beinwil am See", "date": {"sam. 15.10.2011": {"weekday": "saturday", "year": 2011, "categories": {"21-M20": {"pace": 289000000000, "rank": 144, "distance": 21, "time": 6113.3}}, "day": 15, "month": 10, "livingplace": "Zurich"}}, "location": "Beinwil am See"}, "Dietiker Neujahrslauf, Dietikon": {"race": "Dietiker Neujahrslauf, Dietikon", "longitude": 8.39977, "latitude": 47.4053885, "date": {"sam. 14.01.2012": {"weekday": "saturday", "year": 2012, "categories": {"A": {"pace": 270000000000, "rank": 30, "distance": 12, "time": 3273.4}}, "day": 14, "month": 1, "livingplace": "Zurich"}}, "location": "Dietikon"}, "ASICS Bremgarter Reusslauf": {"race": "ASICS Bremgarter Reusslauf", "longitude": 8.3397905, "latitude": 47.34917739999999, "date": {"sam. 25.02.2012": {"weekday": "saturday", "year": 2012, "categories": {"M20": {"pace": 267000000000, "rank": 106, "distance": 11, "time": 2940.5}}, "day": 25, "month": 2, "livingplace": "Zurich"}, "sam. 23.02.2013": {"weekday": "saturday", "year": 2013, "categories": {"11-M30": {"pace": 261000000000, "rank": 158, "distance": 11, "time": 2872.0}}, "day": 23, "month": 2, "livingplace": "Zurich"}}, "location": "Bremgarten AG"}, "T\u00fcrlerseelauf Affoltern am Albis": {"race": "T\u00fcrlerseelauf Affoltern am Albis", "longitude": 8.4540083, "latitude": 47.2795081, "date": {"sam. 08.09.2012": {"weekday": "saturday", "year": 2012, "categories": {"A": {"pace": 286000000000, "rank": 17, "distance": 14, "time": 4011.5}}, "day": 8, "month": 9, "livingplace": "Zurich"}}, "location": "Affoltern am Albis"}, "R\u00fctilauf, R\u00fcti ZH": {"race": "R\u00fctilauf, R\u00fcti ZH", "longitude": 8.854421, "latitude": 47.2566995, "date": {"sam. 01.09.2012": {"weekday": "saturday", "year": 2012, "categories": {"A": {"pace": 268000000000, "rank": 19, "distance": 11, "time": 3033.9}}, "day": 1, "month": 9, "livingplace": "Zurich"}}, "location": "R\u00fcti ZH"}}, "name": "Gonnet Matthieu", "birth": 1983}