{"sex": "M", "races": {"Tour du Pays de Vaud etape 3 - Aubonne": {"race": "Tour du Pays de Vaud etape 3 - Aubonne", "longitude": 6.5728678, "latitude": 46.7829756, "date": {"mer. 29.08.2007": {"weekday": "wednesday", "year": 2007, "categories": {"HS2": {"pace": 266000000000, "rank": 34, "distance": 8, "time": 2158.2}}, "day": 29, "month": 8, "livingplace": "Aubonne"}}, "location": "Champvent"}, "Tour du Pays de Vaud etape 1 - Le Mont sur Lausanne": {"race": "Tour du Pays de Vaud etape 1 - Le Mont sur Lausanne", "longitude": 6.641183, "latitude": 46.7784736, "date": {"mer. 15.08.2007": {"weekday": "wednesday", "year": 2007, "categories": {"HS2": {"pace": 268000000000, "rank": 50, "distance": 8, "time": 2225.0}}, "day": 15, "month": 8, "livingplace": "Aubonne"}}, "location": "Yverdon-les-Bains"}, "Internationaler Matterhornlauf, Zermatt": {"race": "Internationaler Matterhornlauf, Zermatt", "date": {"dim. 22.08.2004": {"weekday": "sunday", "year": 2004, "categories": {"MHL/M40": {"pace": 453000000000, "rank": 98, "distance": 14, "time": 6502.1}}, "day": 22, "month": 8, "livingplace": "Aubonne"}}, "location": "Zermatt"}, "Morat-Fribourg": {"race": "Morat-Fribourg", "longitude": 7.120184, "latitude": 46.92922110000001, "date": {"dim. 05.10.2003": {"weekday": "sunday", "year": 2003, "categories": {"M40": {"pace": 285000000000, "rank": 300, "distance": 17, "time": 4905.2}}, "day": 5, "month": 10, "livingplace": "Aubonne"}}, "location": "Murten"}, "Montreux - Les Rochers de Naye": {"race": "Montreux - Les Rochers de Naye", "longitude": 6.9106799, "latitude": 46.4312213, "date": {"dim. 25.06.2006": {"weekday": "sunday", "year": 2006, "categories": {"V\u00e9t1": {"pace": 491000000000, "rank": 59, "distance": 19, "time": 9242.6}}, "day": 25, "month": 6, "livingplace": "Aubonne"}}, "location": "Montreux"}, "20km de Lausanne": {"race": "20km de Lausanne", "longitude": 6.6322734, "latitude": 46.5196535, "date": {"sam. 26.04.2014": {"weekday": "saturday", "year": 2014, "categories": {"10-H50": {"pace": 309000000000, "rank": 109, "distance": 10, "time": 3091.7}}, "day": 26, "month": 4, "livingplace": "Ecublens"}}, "location": "Lausanne"}, "Les Traine-Savates, Cheseaux-sur-Lausanne": {"race": "Les Traine-Savates, Cheseaux-sur-Lausanne", "longitude": 6.6047712, "latitude": 46.585452, "date": {"sam. 04.04.2009": {"weekday": "saturday", "year": 2009, "categories": {"Hom V1": {"pace": 260000000000, "rank": 59, "distance": 10, "time": 2704.9}}, "day": 4, "month": 4, "livingplace": "Aubonne"}}, "location": "Cheseaux-sur-Lausanne"}}, "name": "Gonzalez Jos\u00e9", "birth": 1961}