{"sex": "M", "races": {"Tour du Pays de Vaud #5 - La Sarraz": {"race": "Tour du Pays de Vaud #5 - La Sarraz", "longitude": 6.539251200000001, "latitude": 46.5993131, "date": {"mer. 08.09.2010": {"weekday": "wednesday", "year": 2010, "categories": {"Hom": {"pace": 253000000000, "rank": 22, "distance": 9, "time": 2305.0}}, "day": 8, "month": 9, "livingplace": "Choex"}}, "location": "Penthaz"}, "Tour du Chablais #2 Bex": {"race": "Tour du Chablais #2 Bex", "longitude": 6.854975199999999, "latitude": 46.3835529, "date": {"mer. 18.04.2012": {"weekday": "wednesday", "year": 2012, "categories": {"M-M20": {"pace": 223000000000, "rank": 22, "distance": 8, "time": 1788.1}}, "day": 18, "month": 4, "livingplace": "Les Giettes"}}, "location": "Bouveret"}, "Tour du Pays de Vaud etape 5 - La Sarraz": {"race": "Tour du Pays de Vaud etape 5 - La Sarraz", "longitude": 6.539251200000001, "latitude": 46.5993131, "date": {"mer. 09.09.2009": {"weekday": "wednesday", "year": 2009, "categories": {"Hom": {"pace": 265000000000, "rank": 39, "distance": 9, "time": 2231.4}}, "day": 9, "month": 9, "livingplace": "Monthey"}}, "location": "Penthaz"}, "Tour du Chablais #6 Montreux": {"race": "Tour du Chablais #6 Montreux", "longitude": 6.970566, "latitude": 46.3190253, "date": {"mer. 16.05.2012": {"weekday": "wednesday", "year": 2012, "categories": {"M-M20": {"pace": 217000000000, "rank": 20, "distance": 9, "time": 2011.7}}, "day": 16, "month": 5, "livingplace": "Les Giettes"}}, "location": "Aigle"}, "Tour du pays de Vaud #1 \u2013 St  Prex": {"race": "Tour du pays de Vaud #1 \u2013 St  Prex", "longitude": 6.641183, "latitude": 46.7784736, "date": {"mer. 11.08.2010": {"weekday": "wednesday", "year": 2010, "categories": {"Hom": {"pace": 263000000000, "rank": 24, "distance": 8, "time": 2212.4}}, "day": 11, "month": 8, "livingplace": "Choex"}}, "location": "Yverdon-les-Bains"}, "Tour du Chablais #4 Morgins": {"race": "Tour du Chablais #4 Morgins", "date": {"mer. 18.05.2011": {"weekday": "wednesday", "year": 2011, "categories": {"M-M20": {"pace": 247000000000, "rank": 35, "distance": 8, "time": 2068.4}}, "day": 18, "month": 5, "livingplace": "Choex"}}, "location": "Les Mosses"}, "Tour du Chablais #2 St-Gingolph": {"race": "Tour du Chablais #2 St-Gingolph", "longitude": 6.854975199999999, "latitude": 46.3835529, "date": {"mer. 14.04.2010": {"weekday": "wednesday", "year": 2010, "categories": {"M-M20": {"pace": 279000000000, "rank": 74, "distance": 8, "time": 2331.2}}, "day": 14, "month": 4, "livingplace": "Monthey"}}, "location": "Bouveret"}, "Tour du Chablais #3 Bex": {"race": "Tour du Chablais #3 Bex", "longitude": 7.0223787, "latitude": 46.1782231, "date": {"mer. 21.04.2010": {"weekday": "wednesday", "year": 2010, "categories": {"M-M20": {"pace": 237000000000, "rank": 31, "distance": 10, "time": 2378.5}}, "day": 21, "month": 4, "livingplace": "Monthey"}}, "location": "Evionnaz"}, "Tour du Chablais #1 Montreux": {"race": "Tour du Chablais #1 Montreux", "longitude": 6.9916269, "latitude": 46.2957462, "date": {"mer. 11.04.2012": {"weekday": "wednesday", "year": 2012, "categories": {"M-M20": {"pace": 230000000000, "rank": 24, "distance": 8, "time": 1748.7}}, "day": 11, "month": 4, "livingplace": "Les Giettes"}}, "location": "Ollon VD"}, "Tour du Pays de Vaud #2 - Genolier": {"race": "Tour du Pays de Vaud #2 - Genolier", "longitude": 6.7702883, "latitude": 46.5955273, "date": {"mer. 17.08.2011": {"weekday": "wednesday", "year": 2011, "categories": {"H-Hom": {"pace": 231000000000, "rank": 6, "distance": 9, "time": 1965.9}}, "day": 17, "month": 8, "livingplace": "Choex"}, "mer. 18.08.2010": {"weekday": "wednesday", "year": 2010, "categories": {"Hom": {"pace": 249000000000, "rank": 25, "distance": 8, "time": 2023.9}}, "day": 18, "month": 8, "livingplace": "Choex"}}, "location": "M\u00e9zi\u00e8res VD"}, "Tour du Chablais #5 Bex": {"race": "Tour du Chablais #5 Bex", "longitude": 6.931504599999999, "latitude": 46.3603257, "date": {"mer. 09.05.2012": {"weekday": "wednesday", "year": 2012, "categories": {"M-M20": {"pace": 214000000000, "rank": 15, "distance": 9, "time": 1902.1}}, "day": 9, "month": 5, "livingplace": "Les Giettes"}}, "location": "Roche VD"}, "Tour du Pays de Vaud #3 - Mezi\u00e8res": {"race": "Tour du Pays de Vaud #3 - Mezi\u00e8res", "longitude": 6.641183, "latitude": 46.7784736, "date": {"mer. 22.08.2012": {"weekday": "wednesday", "year": 2012, "categories": {"H-Hom": {"pace": 256000000000, "rank": 11, "distance": 8, "time": 2150.4}}, "day": 22, "month": 8, "livingplace": "Choex"}}, "location": "Yverdon-les-Bains"}, "Tour du Chablais #6 Mouthey": {"race": "Tour du Chablais #6 Mouthey", "longitude": 6.970566, "latitude": 46.3190253, "date": {"mer. 12.05.2010": {"weekday": "wednesday", "year": 2010, "categories": {"M-M20": {"pace": 226000000000, "rank": 42, "distance": 9, "time": 2085.6}}, "day": 12, "month": 5, "livingplace": "Monthey"}}, "location": "Aigle"}, "Tour du Chablais #4 St  Maurice": {"race": "Tour du Chablais #4 St  Maurice", "date": {"mer. 24.04.2013": {"weekday": "wednesday", "year": 2013, "categories": {"M-M20": {"pace": 225000000000, "rank": 19, "distance": 10, "time": 2258.9}}, "day": 24, "month": 4, "livingplace": "Les Giettes"}}, "location": "Les Mosses"}, "Tour du Pays de Vaud etape 2 - Genolier": {"race": "Tour du Pays de Vaud etape 2 - Genolier", "longitude": 6.7702883, "latitude": 46.5955273, "date": {"mer. 19.08.2009": {"weekday": "wednesday", "year": 2009, "categories": {"Hom": {"pace": 278000000000, "rank": 32, "distance": 8, "time": 2253.9}}, "day": 19, "month": 8, "livingplace": "Monthey"}}, "location": "M\u00e9zi\u00e8res VD"}, "Tour du Chablais #2 Rennaz": {"race": "Tour du Chablais #2 Rennaz", "longitude": 6.854975199999999, "latitude": 46.3835529, "date": {"mer. 04.05.2011": {"weekday": "wednesday", "year": 2011, "categories": {"M-M20": {"pace": 233000000000, "rank": 35, "distance": 9, "time": 2180.5}}, "day": 4, "month": 5, "livingplace": "Choex"}}, "location": "Bouveret"}, "Tour du Chablais #4 Champ\u00e9ry": {"race": "Tour du Chablais #4 Champ\u00e9ry", "date": {"mer. 02.05.2012": {"weekday": "wednesday", "year": 2012, "categories": {"M-M20": {"pace": 219000000000, "rank": 18, "distance": 8, "time": 1819.9}}, "day": 2, "month": 5, "livingplace": "Les Giettes"}}, "location": "Les Mosses"}, "Tour du Chablais #6 Monthey": {"race": "Tour du Chablais #6 Monthey", "longitude": 6.970566, "latitude": 46.3190253, "date": {"mer. 08.05.2013": {"weekday": "wednesday", "year": 2013, "categories": {"M-M20": {"pace": 220000000000, "rank": 17, "distance": 9, "time": 2055.3}}, "day": 8, "month": 5, "livingplace": "Les Giettes"}}, "location": "Aigle"}, "Tour du Chablais #2 Yvorne": {"race": "Tour du Chablais #2 Yvorne", "longitude": 6.854975199999999, "latitude": 46.3835529, "date": {"mer. 10.04.2013": {"weekday": "wednesday", "year": 2013, "categories": {"M-M20": {"pace": 237000000000, "rank": 17, "distance": 8, "time": 1902.9}}, "day": 10, "month": 4, "livingplace": "Les Giettes"}}, "location": "Bouveret"}, "Tour du Chablais #4 Yvorne": {"race": "Tour du Chablais #4 Yvorne", "date": {"mer. 28.04.2010": {"weekday": "wednesday", "year": 2010, "categories": {"M-M20": {"pace": 265000000000, "rank": 57, "distance": 8, "time": 2194.8}}, "day": 28, "month": 4, "livingplace": "Monthey"}}, "location": "Les Mosses"}, "Tour du Pays de Vaud etape 1 - Le Mont sur Lausanne": {"race": "Tour du Pays de Vaud etape 1 - Le Mont sur Lausanne", "longitude": 6.641183, "latitude": 46.7784736, "date": {"mer. 12.08.2009": {"weekday": "wednesday", "year": 2009, "categories": {"Hom": {"pace": 276000000000, "rank": 30, "distance": 9, "time": 2569.8}}, "day": 12, "month": 8, "livingplace": "Monthey"}}, "location": "Yverdon-les-Bains"}, "Tour du Chablais #1 Roche": {"race": "Tour du Chablais #1 Roche", "longitude": 6.9916269, "latitude": 46.2957462, "date": {"mer. 03.04.2013": {"weekday": "wednesday", "year": 2013, "categories": {"M-M20": {"pace": 219000000000, "rank": 13, "distance": 9, "time": 1942.7}}, "day": 3, "month": 4, "livingplace": "Les Giettes"}, "mer. 07.04.2010": {"weekday": "wednesday", "year": 2010, "categories": {"M-M20": {"pace": 266000000000, "rank": 105, "distance": 9, "time": 2382.0}}, "day": 7, "month": 4, "livingplace": "Monthey"}}, "location": "Ollon VD"}, "Tour du Chablais #3 Collombey-Muraz": {"race": "Tour du Chablais #3 Collombey-Muraz", "longitude": 7.0223787, "latitude": 46.1782231, "date": {"mer. 25.04.2012": {"weekday": "wednesday", "year": 2012, "categories": {"M-M20": {"pace": 222000000000, "rank": 25, "distance": 9, "time": 1999.2}}, "day": 25, "month": 4, "livingplace": "Les Giettes"}}, "location": "Evionnaz"}, "Tour du pays de Vaud #1 - Mezi\u00e8res": {"race": "Tour du pays de Vaud #1 - Mezi\u00e8res", "longitude": 6.641183, "latitude": 46.7784736, "date": {"mer. 10.08.2011": {"weekday": "wednesday", "year": 2011, "categories": {"H-Hom": {"pace": 229000000000, "rank": 9, "distance": 9, "time": 1947.8}}, "day": 10, "month": 8, "livingplace": "Choex"}}, "location": "Yverdon-les-Bains"}, "Morat-Fribourg": {"race": "Morat-Fribourg", "longitude": 7.120184, "latitude": 46.92922110000001, "date": {"sam. 04.10.2014": {"weekday": "saturday", "year": 2014, "categories": {"17-M20": {"pace": 249000000000, "rank": 170, "distance": 17, "time": 4291.1}}, "day": 4, "month": 10, "livingplace": "Les Giettes"}, "sam. 04.10.2008": {"weekday": "saturday", "year": 2008, "categories": {"C-M20": {"pace": 303000000000, "rank": 1013, "distance": 17, "time": 5204.6}}, "day": 4, "month": 10, "livingplace": "Monthey"}, "sam. 03.10.2015": {"weekday": "saturday", "year": 2015, "categories": {"17-M20": {"pace": 258000000000, "rank": 228, "distance": 17, "time": 4440.0}}, "day": 3, "month": 10, "livingplace": "Les Giettes"}, "sam. 05.10.2013": {"weekday": "saturday", "year": 2013, "categories": {"17-M20": {"pace": 248000000000, "rank": 192, "distance": 17, "time": 4338.4}}, "day": 5, "month": 10, "livingplace": "Les Giettes"}, "sam. 06.10.2012": {"weekday": "saturday", "year": 2012, "categories": {"17-M20": {"pace": 241000000000, "rank": 97, "distance": 17, "time": 4220.7}}, "day": 6, "month": 10, "livingplace": "Les Giettes"}, "sam. 01.10.2011": {"weekday": "saturday", "year": 2011, "categories": {"17-M20": {"pace": 253000000000, "rank": 203, "distance": 17, "time": 4351.4}}, "day": 1, "month": 10, "livingplace": "Monthey"}, "sam. 02.10.2010": {"weekday": "saturday", "year": 2010, "categories": {"17-M20": {"pace": 279000000000, "rank": 480, "distance": 17, "time": 4804.2}}, "day": 2, "month": 10, "livingplace": "Monthey"}}, "location": "Murten"}, "Tour du Chablais #6 Aigle": {"race": "Tour du Chablais #6 Aigle", "longitude": 6.970566, "latitude": 46.3190253, "date": {"mer. 01.06.2011": {"weekday": "wednesday", "year": 2011, "categories": {"M-M20": {"pace": 228000000000, "rank": 32, "distance": 10, "time": 2328.6}}, "day": 1, "month": 6, "livingplace": "Choex"}}, "location": "Aigle"}, "Les Traine-Savates, Cheseaux-sur-Lausanne": {"race": "Les Traine-Savates, Cheseaux-sur-Lausanne", "longitude": 6.6047712, "latitude": 46.585452, "date": {"sam. 18.04.2015": {"weekday": "saturday", "year": 2015, "categories": {"10-M20": {"pace": 224000000000, "rank": 23, "distance": 10, "time": 2312.6}}, "day": 18, "month": 4, "livingplace": "Les Giettes"}, "sam. 12.04.2014": {"weekday": "saturday", "year": 2014, "categories": {"10-M20": {"pace": 243000000000, "rank": 39, "distance": 10, "time": 2512.7}}, "day": 12, "month": 4, "livingplace": "Les Giettes"}}, "location": "Cheseaux-sur-Lausanne"}, "Tour du pays de Vaud #6 - St  Prex": {"race": "Tour du pays de Vaud #6 - St  Prex", "longitude": 6.458343500000001, "latitude": 46.4829113, "date": {"mer. 14.09.2011": {"weekday": "wednesday", "year": 2011, "categories": {"H-Hom": {"pace": 231000000000, "rank": 7, "distance": 9, "time": 1986.9}}, "day": 14, "month": 9, "livingplace": "Choex"}}, "location": "St-Prex"}, "Tour du Chablais #3 Bouveret": {"race": "Tour du Chablais #3 Bouveret", "longitude": 7.0223787, "latitude": 46.1782231, "date": {"mer. 17.04.2013": {"weekday": "wednesday", "year": 2013, "categories": {"M-M20": {"pace": 226000000000, "rank": 20, "distance": 10, "time": 2269.0}}, "day": 17, "month": 4, "livingplace": "Les Giettes"}}, "location": "Evionnaz"}, "Tour du Chablais #5 Les Mosses": {"race": "Tour du Chablais #5 Les Mosses", "longitude": 6.931504599999999, "latitude": 46.3603257, "date": {"mer. 25.05.2011": {"weekday": "wednesday", "year": 2011, "categories": {"M-M20": {"pace": 249000000000, "rank": 35, "distance": 8, "time": 1992.6}}, "day": 25, "month": 5, "livingplace": "Choex"}}, "location": "Roche VD"}, "Tour du Chablais #1 Lavey": {"race": "Tour du Chablais #1 Lavey", "longitude": 6.9916269, "latitude": 46.2957462, "date": {"mer. 27.04.2011": {"weekday": "wednesday", "year": 2011, "categories": {"M-M20": {"pace": 236000000000, "rank": 35, "distance": 9, "time": 2127.3}}, "day": 27, "month": 4, "livingplace": "Choex"}}, "location": "Ollon VD"}, "Tour du Chablais #5 Morgins": {"race": "Tour du Chablais #5 Morgins", "longitude": 6.931504599999999, "latitude": 46.3603257, "date": {"mer. 01.05.2013": {"weekday": "wednesday", "year": 2013, "categories": {"M-M20": {"pace": 231000000000, "rank": 19, "distance": 8, "time": 1760.3}}, "day": 1, "month": 5, "livingplace": "Les Giettes"}}, "location": "Roche VD"}, "Tour du Chablais #3 Le Bouveret": {"race": "Tour du Chablais #3 Le Bouveret", "longitude": 7.0223787, "latitude": 46.1782231, "date": {"mer. 11.05.2011": {"weekday": "wednesday", "year": 2011, "categories": {"M-M20": {"pace": 236000000000, "rank": 44, "distance": 10, "time": 2368.9}}, "day": 11, "month": 5, "livingplace": "Choex"}}, "location": "Evionnaz"}, "Tour du pays de Vaud #5 - Penthaz": {"race": "Tour du pays de Vaud #5 - Penthaz", "longitude": 6.539251200000001, "latitude": 46.5993131, "date": {"mer. 07.09.2011": {"weekday": "wednesday", "year": 2011, "categories": {"H-Hom": {"pace": 251000000000, "rank": 8, "distance": 8, "time": 2098.7}}, "day": 7, "month": 9, "livingplace": "Choex"}}, "location": "Penthaz"}, "Tour du Chablais #1 Martigny": {"race": "Tour du Chablais #1 Martigny", "longitude": 6.9916269, "latitude": 46.2957462, "date": {"mer. 23.04.2014": {"weekday": "wednesday", "year": 2014, "categories": {"M-M20": {"pace": 220000000000, "rank": 23, "distance": 9, "time": 1874.2}}, "day": 23, "month": 4, "livingplace": "Les Giettes"}}, "location": "Ollon VD"}}, "name": "Gosparini Dana\u00ebl", "birth": 1985}