{"sex": "M", "races": {"Muttenzer Herbstlauf": {"race": "Muttenzer Herbstlauf", "longitude": 7.6476369, "latitude": 47.5279292, "date": {"dim. 26.10.2014": {"weekday": "sunday", "year": 2014, "categories": {"10-M30": {"pace": 325000000000, "rank": 33, "distance": 10, "time": 3250.1}}, "day": 26, "month": 10, "livingplace": "Reinach"}}, "location": "Muttenz"}, "Eiger Ultra Trail, Grindelwald": {"race": "Eiger Ultra Trail, Grindelwald", "longitude": 8.0413962, "latitude": 46.624164, "date": {"sam. 18.07.2015": {"weekday": "saturday", "year": 2015, "categories": {"B-H": {"pace": 690000000000, "rank": 139, "distance": 51, "time": 35210.8}}, "day": 18, "month": 7, "livingplace": "Reinach"}, "sam. 19.07.2014": {"weekday": "saturday", "year": 2014, "categories": {"C-H": {"pace": 623000000000, "rank": 116, "distance": 16, "time": 9980.8}}, "day": 19, "month": 7, "livingplace": "Reinach"}}, "location": "Grindelwald"}, "Bieler Lauftage, Biel Bienne": {"race": "Bieler Lauftage, Biel Bienne", "longitude": 7.2467909, "latitude": 47.1367785, "date": {"jeu. 11.06.2015": {"weekday": "thursday", "year": 2015, "categories": {"M-M35": {"pace": 361000000000, "rank": 7, "distance": 42, "time": 15264.7}}, "day": 11, "month": 6, "livingplace": "Reinach"}}, "location": "Biel/Bienne"}, "Gempenlauf, Dornach": {"race": "Gempenlauf, Dornach", "longitude": 7.6170412, "latitude": 47.4790491, "date": {"mer. 04.06.2014": {"weekday": "wednesday", "year": 2014, "categories": {"M35": {"pace": 360000000000, "rank": 36, "distance": 8, "time": 2812.7}}, "day": 4, "month": 6, "livingplace": "Reinach"}}, "location": "Dornach"}, "ASICS Bremgarter Reusslauf": {"race": "ASICS Bremgarter Reusslauf", "longitude": 8.3397905, "latitude": 47.34917739999999, "date": {"sam. 28.02.2015": {"weekday": "saturday", "year": 2015, "categories": {"11-M30": {"pace": 295000000000, "rank": 281, "distance": 11, "time": 3253.1}}, "day": 28, "month": 2, "livingplace": "Reinach"}}, "location": "Bremgarten AG"}, "Kerzerslauf": {"race": "Kerzerslauf", "longitude": 7.1954365, "latitude": 46.97488999999999, "date": {"sam. 21.03.2015": {"weekday": "saturday", "year": 2015, "categories": {"15-M35": {"pace": 308000000000, "rank": 283, "distance": 15, "time": 4621.0}}, "day": 21, "month": 3, "livingplace": "Reinach"}}, "location": "Kerzers"}, "Frauenfelder": {"race": "Frauenfelder", "date": {"dim. 15.11.2015": {"weekday": "sunday", "year": 2015, "categories": {"M-M30": {"pace": 339000000000, "rank": 20, "distance": 42, "time": 14320.2}}, "day": 15, "month": 11, "livingplace": "Reinach"}}, "location": "Frauenfeld"}}, "name": "Graf Marc", "birth": 1976}