{"sex": "F", "races": {"Hallwilerseelauf, Beinwil am See": {"race": "Hallwilerseelauf, Beinwil am See", "date": {"sam. 14.10.2006": {"weekday": "saturday", "year": 2006, "categories": {"F40": {"pace": 404000000000, "rank": 327, "distance": 21, "time": 8543.4}}, "day": 14, "month": 10, "livingplace": "Remetschwil"}}, "location": "Beinwil am See"}, "Schweizer Frauenlauf Bern": {"race": "Schweizer Frauenlauf Bern", "longitude": 7.4474468, "latitude": 46.9479739, "date": {"dim. 11.06.2006": {"weekday": "sunday", "year": 2006, "categories": {"10-W45": {"pace": 371000000000, "rank": 335, "distance": 10, "time": 3713.5}}, "day": 11, "month": 6, "livingplace": "Remetschwil"}}, "location": "Bern"}, "Int Greifenseelauf, Uster": {"race": "Int Greifenseelauf, Uster", "longitude": 8.717873899999999, "latitude": 47.3482747, "date": {"sam. 16.09.2006": {"weekday": "saturday", "year": 2006, "categories": {"H/W45": {"pace": 426000000000, "rank": 277, "distance": 21, "time": 8994.7}}, "day": 16, "month": 9, "livingplace": "Remetschwil"}}, "location": "Uster"}, "Pfingstlauf Wohlen AG": {"race": "Pfingstlauf Wohlen AG", "longitude": 8.2768762, "latitude": 47.3493653, "date": {"sam. 29.05.2004": {"weekday": "saturday", "year": 2004, "categories": {"F40": {"pace": 385000000000, "rank": 51, "distance": 8, "time": 3161.9}}, "day": 29, "month": 5, "livingplace": "Remetschwil"}}, "location": "Wohlen AG"}, "ASICS Bremgarter Reusslauf": {"race": "ASICS Bremgarter Reusslauf", "longitude": 8.3397905, "latitude": 47.34917739999999, "date": {"sam. 17.02.2007": {"weekday": "saturday", "year": 2007, "categories": {"F40": {"pace": 375000000000, "rank": 230, "distance": 11, "time": 3941.1}}, "day": 17, "month": 2, "livingplace": "Remetschwil"}}, "location": "Bremgarten AG"}, "Gippinger Stauseelauf": {"race": "Gippinger Stauseelauf", "longitude": 8.2152586, "latitude": 47.5810513, "date": {"mar. 31.12.2002": {"weekday": "tuesday", "year": 2002, "categories": {"F40": {"pace": 370000000000, "rank": 94, "distance": 8, "time": 2777.2}}, "day": 31, "month": 12, "livingplace": "Remetschwil"}, "mer. 31.12.2003": {"weekday": "wednesday", "year": 2003, "categories": {"F40": {"pace": 363000000000, "rank": 89, "distance": 8, "time": 2726.2}}, "day": 31, "month": 12, "livingplace": "Remetschwil"}}, "location": "Leuggern"}}, "name": "Graf Lisbeth", "birth": 1958}