{"sex": "M", "races": {"Tour du Chablais #2 St-Gingolph": {"race": "Tour du Chablais #2 St-Gingolph", "longitude": 6.854975199999999, "latitude": 46.3835529, "date": {"mer. 14.04.2010": {"weekday": "wednesday", "year": 2010, "categories": {"M-M40": {"pace": 334000000000, "rank": 141, "distance": 8, "time": 2791.5}}, "day": 14, "month": 4, "livingplace": "Collombey"}}, "location": "Bouveret"}, "Tour du Chablais #4 Yvorne": {"race": "Tour du Chablais #4 Yvorne", "date": {"mer. 28.04.2010": {"weekday": "wednesday", "year": 2010, "categories": {"M-M40": {"pace": 340000000000, "rank": 154, "distance": 8, "time": 2817.8}}, "day": 28, "month": 4, "livingplace": "Collombey"}}, "location": "Les Mosses"}, "Tour du Chablais #3 Bex": {"race": "Tour du Chablais #3 Bex", "longitude": 7.0223787, "latitude": 46.1782231, "date": {"mer. 21.04.2010": {"weekday": "wednesday", "year": 2010, "categories": {"M-M40": {"pace": 309000000000, "rank": 129, "distance": 10, "time": 3097.2}}, "day": 21, "month": 4, "livingplace": "Collombey"}}, "location": "Evionnaz"}, "Tour du Chablais #1 Roche": {"race": "Tour du Chablais #1 Roche", "longitude": 6.9916269, "latitude": 46.2957462, "date": {"mer. 07.04.2010": {"weekday": "wednesday", "year": 2010, "categories": {"M-M40": {"pace": 307000000000, "rank": 145, "distance": 9, "time": 2750.7}}, "day": 7, "month": 4, "livingplace": "Collombey"}}, "location": "Ollon VD"}, "Lausanne Marathon": {"race": "Lausanne Marathon", "longitude": 6.6322734, "latitude": 46.5196535, "date": {"dim. 30.10.2011": {"weekday": "sunday", "year": 2011, "categories": {"21-H3": {"pace": 335000000000, "rank": 709, "distance": 21, "time": 7081.9}}, "day": 30, "month": 10, "livingplace": "Collombey"}}, "location": "Lausanne"}, "Tour du Chablais #2 Bex": {"race": "Tour du Chablais #2 Bex", "longitude": 6.854975199999999, "latitude": 46.3835529, "date": {"mer. 18.04.2012": {"weekday": "wednesday", "year": 2012, "categories": {"M-M40": {"pace": 371000000000, "rank": 156, "distance": 8, "time": 2970.8}}, "day": 18, "month": 4, "livingplace": "Collombey"}}, "location": "Bouveret"}, "Morat-Fribourg": {"race": "Morat-Fribourg", "longitude": 7.120184, "latitude": 46.92922110000001, "date": {"sam. 04.10.2008": {"weekday": "saturday", "year": 2008, "categories": {"C-M20": {"pace": 352000000000, "rank": 1620, "distance": 17, "time": 6051.1}}, "day": 4, "month": 10, "livingplace": "Collombey"}}, "location": "Murten"}, "Tour du Chablais #6 Mouthey": {"race": "Tour du Chablais #6 Mouthey", "longitude": 6.970566, "latitude": 46.3190253, "date": {"mer. 12.05.2010": {"weekday": "wednesday", "year": 2010, "categories": {"M-M40": {"pace": 305000000000, "rank": 149, "distance": 9, "time": 2810.4}}, "day": 12, "month": 5, "livingplace": "Collombey"}}, "location": "Aigle"}}, "name": "Granger Olivier", "birth": 1969}