{"sex": "M", "races": {"Tour du Chablais #1 Lavey": {"race": "Tour du Chablais #1 Lavey", "longitude": 6.9916269, "latitude": 46.2957462, "date": {"mer. 27.04.2011": {"weekday": "wednesday", "year": 2011, "categories": {"M-M40": {"pace": 221000000000, "rank": 6, "distance": 9, "time": 1990.3}}, "day": 27, "month": 4, "livingplace": "Susten"}}, "location": "Ollon VD"}, "Tour du Chablais #5 Les Mosses": {"race": "Tour du Chablais #5 Les Mosses", "longitude": 6.931504599999999, "latitude": 46.3603257, "date": {"mer. 25.05.2011": {"weekday": "wednesday", "year": 2011, "categories": {"M-M40": {"pace": 234000000000, "rank": 4, "distance": 8, "time": 1875.6}}, "day": 25, "month": 5, "livingplace": "Susten"}}, "location": "Roche VD"}, "Zermatt Marathon, Zermatt": {"race": "Zermatt Marathon, Zermatt", "date": {"sam. 04.07.2009": {"weekday": "saturday", "year": 2009, "categories": {"STM\u00e4": {"pace": 361000000000, "rank": 13, "distance": 42, "time": 15242.9}}, "day": 4, "month": 7, "livingplace": "Team Leukersonne"}}, "location": "Zermatt"}, "Tour du Chablais #3 Le Bouveret": {"race": "Tour du Chablais #3 Le Bouveret", "longitude": 7.0223787, "latitude": 46.1782231, "date": {"mer. 11.05.2011": {"weekday": "wednesday", "year": 2011, "categories": {"M-M40": {"pace": 224000000000, "rank": 9, "distance": 10, "time": 2245.2}}, "day": 11, "month": 5, "livingplace": "Susten"}}, "location": "Evionnaz"}, "Tour du Chablais #6 Aigle": {"race": "Tour du Chablais #6 Aigle", "longitude": 6.970566, "latitude": 46.3190253, "date": {"mer. 01.06.2011": {"weekday": "wednesday", "year": 2011, "categories": {"M-M40": {"pace": 216000000000, "rank": 5, "distance": 10, "time": 2212.6}}, "day": 1, "month": 6, "livingplace": "Susten"}}, "location": "Aigle"}, "Tour du Chablais #4 Morgins": {"race": "Tour du Chablais #4 Morgins", "date": {"mer. 18.05.2011": {"weekday": "wednesday", "year": 2011, "categories": {"M-M40": {"pace": 234000000000, "rank": 6, "distance": 8, "time": 1960.2}}, "day": 18, "month": 5, "livingplace": "Susten"}}, "location": "Les Mosses"}, "Tour du Chablais #2 Rennaz": {"race": "Tour du Chablais #2 Rennaz", "longitude": 6.854975199999999, "latitude": 46.3835529, "date": {"mer. 04.05.2011": {"weekday": "wednesday", "year": 2011, "categories": {"M-M40": {"pace": 222000000000, "rank": 8, "distance": 9, "time": 2078.8}}, "day": 4, "month": 5, "livingplace": "Susten"}}, "location": "Bouveret"}}, "name": "Grand Beno", "birth": 1971}