{"sex": "F", "races": {"Tour du Chablais #5 Leysin": {"race": "Tour du Chablais #5 Leysin", "longitude": 6.931504599999999, "latitude": 46.3603257, "date": {"mer. 05.05.2010": {"weekday": "wednesday", "year": 2010, "categories": {"F-F60": {"pace": 328000000000, "rank": 2, "distance": 8, "time": 2778.2}}, "day": 5, "month": 5, "livingplace": "St Martin"}}, "location": "Roche VD"}, "Groupe E Tour Fribourg #3, Kerzers": {"race": "Groupe E Tour Fribourg #3, Kerzers", "longitude": 7.1954365, "latitude": 46.97488999999999, "date": {"mer. 03.09.2014": {"weekday": "wednesday", "year": 2014, "categories": {"D-Dam4": {"pace": 378000000000, "rank": 11, "distance": 10, "time": 3848.2}}, "day": 3, "month": 9, "livingplace": "St Martin"}}, "location": "Kerzers"}, "Groupe E Tour Fribourg #4, Siviriez": {"race": "Groupe E Tour Fribourg #4, Siviriez", "longitude": 6.877722, "latitude": 46.6585092, "date": {"mer. 10.09.2014": {"weekday": "wednesday", "year": 2014, "categories": {"D-Dam4": {"pace": 461000000000, "rank": 14, "distance": 11, "time": 4984.6}}, "day": 10, "month": 9, "livingplace": "St Martin"}}, "location": "Siviriez"}, "Tour du Chablais #4 Morgins": {"race": "Tour du Chablais #4 Morgins", "date": {"mer. 18.05.2011": {"weekday": "wednesday", "year": 2011, "categories": {"F-F60": {"pace": 327000000000, "rank": 2, "distance": 8, "time": 2736.2}}, "day": 18, "month": 5, "livingplace": "St Martin"}}, "location": "Les Mosses"}, "Montreux - Les Rochers de Naye": {"race": "Montreux - Les Rochers de Naye", "longitude": 6.9106799, "latitude": 46.4312213, "date": {"dim. 11.07.2010": {"weekday": "sunday", "year": 2010, "categories": {"M-F-Spez": {"pace": 572000000000, "rank": 50, "distance": 19, "time": 10765.6}}, "day": 11, "month": 7, "livingplace": "St Martin"}}, "location": "Montreux"}, "Willisauer Lauf, Willisau": {"race": "Willisauer Lauf, Willisau", "date": {"sam. 21.09.2013": {"weekday": "saturday", "year": 2013, "categories": {"H-F60": {"pace": 327000000000, "rank": 2, "distance": 12, "time": 3924.6}}, "day": 21, "month": 9, "livingplace": "St Martin"}, "sam. 20.09.2014": {"weekday": "saturday", "year": 2014, "categories": {"H-F60": {"pace": 400000000000, "rank": 6, "distance": 12, "time": 4809.6}}, "day": 20, "month": 9, "livingplace": "St Martin"}}, "location": "Willisau"}, "Tour du Chablais #3 Bex": {"race": "Tour du Chablais #3 Bex", "longitude": 7.0223787, "latitude": 46.1782231, "date": {"mer. 21.04.2010": {"weekday": "wednesday", "year": 2010, "categories": {"F-F60": {"pace": 300000000000, "rank": 2, "distance": 10, "time": 3007.9}}, "day": 21, "month": 4, "livingplace": "St Martin"}}, "location": "Evionnaz"}, "Tour du Chablais #2 St-Gingolph": {"race": "Tour du Chablais #2 St-Gingolph", "longitude": 6.854975199999999, "latitude": 46.3835529, "date": {"mer. 14.04.2010": {"weekday": "wednesday", "year": 2010, "categories": {"F-F60": {"pace": 326000000000, "rank": 2, "distance": 8, "time": 2723.3}}, "day": 14, "month": 4, "livingplace": "St Martin"}}, "location": "Bouveret"}, "Les Traine-Savates, Cheseaux-sur-Lausanne": {"race": "Les Traine-Savates, Cheseaux-sur-Lausanne", "longitude": 6.6047712, "latitude": 46.585452, "date": {"sam. 14.04.2012": {"weekday": "saturday", "year": 2012, "categories": {"10-W60": {"pace": 326000000000, "rank": 3, "distance": 10, "time": 3393.1}}, "day": 14, "month": 4, "livingplace": "St Martin"}, "sam. 09.04.2011": {"weekday": "saturday", "year": 2011, "categories": {"10-W60": {"pace": 318000000000, "rank": 3, "distance": 10, "time": 3313.3}}, "day": 9, "month": 4, "livingplace": "St Martin"}, "sam. 10.04.2010": {"weekday": "saturday", "year": 2010, "categories": {"Dam V3": {"pace": 287000000000, "rank": 4, "distance": 10, "time": 2991.6}}, "day": 10, "month": 4, "livingplace": "St Martin"}}, "location": "Cheseaux-sur-Lausanne"}, "Tour du Chablais #2 Rennaz": {"race": "Tour du Chablais #2 Rennaz", "longitude": 6.854975199999999, "latitude": 46.3835529, "date": {"mer. 04.05.2011": {"weekday": "wednesday", "year": 2011, "categories": {"F-F60": {"pace": 307000000000, "rank": 2, "distance": 9, "time": 2879.3}}, "day": 4, "month": 5, "livingplace": "St Martin"}}, "location": "Bouveret"}, "Corrida Bulloise, Bulle": {"race": "Corrida Bulloise, Bulle", "longitude": 7.057726799999999, "latitude": 46.6154512, "date": {"sam. 15.11.2008": {"weekday": "saturday", "year": 2008, "categories": {"F50": {"pace": 285000000000, "rank": 10, "distance": 6, "time": 1710.5}}, "day": 15, "month": 11, "livingplace": "St Martin"}}, "location": "Bulle"}, "Gurtenclassic, Wabern": {"race": "Gurtenclassic, Wabern", "longitude": 7.448973199999999, "latitude": 46.92901639999999, "date": {"dim. 01.11.2009": {"weekday": "sunday", "year": 2009, "categories": {"W60": {"pace": 363000000000, "rank": 4, "distance": 15, "time": 5450.6}}, "day": 1, "month": 11, "livingplace": "St Martin"}}, "location": "Wabern"}, "Tour du Chablais #4 Yvorne": {"race": "Tour du Chablais #4 Yvorne", "date": {"mer. 28.04.2010": {"weekday": "wednesday", "year": 2010, "categories": {"F-F60": {"pace": 326000000000, "rank": 3, "distance": 8, "time": 2706.5}}, "day": 28, "month": 4, "livingplace": "St Martin"}}, "location": "Les Mosses"}, "Tour du Chablais #1 Roche": {"race": "Tour du Chablais #1 Roche", "longitude": 6.9916269, "latitude": 46.2957462, "date": {"mer. 07.04.2010": {"weekday": "wednesday", "year": 2010, "categories": {"F-F60": {"pace": 300000000000, "rank": 2, "distance": 9, "time": 2690.3}}, "day": 7, "month": 4, "livingplace": "St Martin"}}, "location": "Ollon VD"}, "ASICS Bremgarter Reusslauf": {"race": "ASICS Bremgarter Reusslauf", "longitude": 8.3397905, "latitude": 47.34917739999999, "date": {"sam. 26.02.2011": {"weekday": "saturday", "year": 2011, "categories": {"F60": {"pace": 313000000000, "rank": 6, "distance": 11, "time": 3444.6}}, "day": 26, "month": 2, "livingplace": "St Martin"}}, "location": "Bremgarten AG"}, "Groupe E Tour Fribourg #5, Givisiez": {"race": "Groupe E Tour Fribourg #5, Givisiez", "longitude": 7.131657799999999, "latitude": 46.8128615, "date": {"mer. 17.09.2014": {"weekday": "wednesday", "year": 2014, "categories": {"D-Dam4": {"pace": 413000000000, "rank": 16, "distance": 10, "time": 4244.4}}, "day": 17, "month": 9, "livingplace": "St Martin"}}, "location": "Givisiez"}, "Tour du Chablais #6 Aigle": {"race": "Tour du Chablais #6 Aigle", "longitude": 6.970566, "latitude": 46.3190253, "date": {"mer. 01.06.2011": {"weekday": "wednesday", "year": 2011, "categories": {"F-F60": {"pace": 299000000000, "rank": 2, "distance": 10, "time": 3057.3}}, "day": 1, "month": 6, "livingplace": "St Martin"}}, "location": "Aigle"}, "Tour du Chablais #6 Mouthey": {"race": "Tour du Chablais #6 Mouthey", "longitude": 6.970566, "latitude": 46.3190253, "date": {"mer. 12.05.2010": {"weekday": "wednesday", "year": 2010, "categories": {"F-F60": {"pace": 298000000000, "rank": 3, "distance": 9, "time": 2740.8}}, "day": 12, "month": 5, "livingplace": "St Martin"}}, "location": "Aigle"}, "Tour du Chablais #5 Les Mosses": {"race": "Tour du Chablais #5 Les Mosses", "longitude": 6.931504599999999, "latitude": 46.3603257, "date": {"mer. 25.05.2011": {"weekday": "wednesday", "year": 2011, "categories": {"F-F60": {"pace": 334000000000, "rank": 3, "distance": 8, "time": 2675.1}}, "day": 25, "month": 5, "livingplace": "St Martin"}}, "location": "Roche VD"}, "Tour du Chablais #1 Lavey": {"race": "Tour du Chablais #1 Lavey", "longitude": 6.9916269, "latitude": 46.2957462, "date": {"mer. 27.04.2011": {"weekday": "wednesday", "year": 2011, "categories": {"F-F60": {"pace": 308000000000, "rank": 2, "distance": 9, "time": 2775.6}}, "day": 27, "month": 4, "livingplace": "St Martin"}}, "location": "Ollon VD"}, "Pfingstlauf Wohlen AG": {"race": "Pfingstlauf Wohlen AG", "longitude": 8.2768762, "latitude": 47.3493653, "date": {"sam. 18.05.2013": {"weekday": "saturday", "year": 2013, "categories": {"8-10-F60": {"pace": 337000000000, "rank": 4, "distance": 10, "time": 3378.2}}, "day": 18, "month": 5, "livingplace": "St Martin"}}, "location": "Wohlen AG"}, "Tour du Chablais #3 Le Bouveret": {"race": "Tour du Chablais #3 Le Bouveret", "longitude": 7.0223787, "latitude": 46.1782231, "date": {"mer. 11.05.2011": {"weekday": "wednesday", "year": 2011, "categories": {"F-F60": {"pace": 315000000000, "rank": 2, "distance": 10, "time": 3151.9}}, "day": 11, "month": 5, "livingplace": "St Martin"}}, "location": "Evionnaz"}, "Giro Media Blenio, Dongio": {"race": "Giro Media Blenio, Dongio", "date": {"lun. 24.03.2008": {"weekday": "monday", "year": 2008, "categories": {"W45": {"pace": 285000000000, "rank": 7, "distance": 10, "time": 2853.1}}, "day": 24, "month": 3, "livingplace": "Le Jordil"}, "lun. 13.04.2009": {"weekday": "monday", "year": 2009, "categories": {"W45": {"pace": 366000000000, "rank": 51, "distance": 10, "time": 3668.7}}, "day": 13, "month": 4, "livingplace": "Le Jordil"}}, "location": "Dongio"}}, "name": "Gremaud Lise", "birth": 1949}