{"sex": "F", "races": {"Tour du Chablais #1 Montreux": {"race": "Tour du Chablais #1 Montreux", "longitude": 6.9916269, "latitude": 46.2957462, "date": {"mer. 11.04.2012": {"weekday": "wednesday", "year": 2012, "categories": {"F-F60": {"pace": 332000000000, "rank": 3, "distance": 8, "time": 2528.6}}, "day": 11, "month": 4, "livingplace": "St Martin"}}, "location": "Ollon VD"}, "Tour du Chablais #2 Yvorne": {"race": "Tour du Chablais #2 Yvorne", "longitude": 6.854975199999999, "latitude": 46.3835529, "date": {"mer. 10.04.2013": {"weekday": "wednesday", "year": 2013, "categories": {"F-F60": {"pace": 375000000000, "rank": 3, "distance": 8, "time": 3003.3}}, "day": 10, "month": 4, "livingplace": "St Martin"}}, "location": "Bouveret"}, "Tour du Chablais #6 Monthey": {"race": "Tour du Chablais #6 Monthey", "longitude": 6.970566, "latitude": 46.3190253, "date": {"mer. 08.05.2013": {"weekday": "wednesday", "year": 2013, "categories": {"F-F60": {"pace": 332000000000, "rank": 3, "distance": 9, "time": 3099.0}}, "day": 8, "month": 5, "livingplace": "St Martin"}}, "location": "Aigle"}, "Tour du Chablais #2 Bex": {"race": "Tour du Chablais #2 Bex", "longitude": 6.854975199999999, "latitude": 46.3835529, "date": {"mer. 18.04.2012": {"weekday": "wednesday", "year": 2012, "categories": {"F-F60": {"pace": 325000000000, "rank": 3, "distance": 8, "time": 2605.3}}, "day": 18, "month": 4, "livingplace": "St Martin"}}, "location": "Bouveret"}, "Tour du Chablais #3 Bouveret": {"race": "Tour du Chablais #3 Bouveret", "longitude": 7.0223787, "latitude": 46.1782231, "date": {"mer. 17.04.2013": {"weekday": "wednesday", "year": 2013, "categories": {"F-F60": {"pace": 339000000000, "rank": 3, "distance": 10, "time": 3396.8}}, "day": 17, "month": 4, "livingplace": "St Martin"}}, "location": "Evionnaz"}, "Tour du Chablais #1 Roche": {"race": "Tour du Chablais #1 Roche", "longitude": 6.9916269, "latitude": 46.2957462, "date": {"mer. 03.04.2013": {"weekday": "wednesday", "year": 2013, "categories": {"F-F60": {"pace": 339000000000, "rank": 3, "distance": 9, "time": 3006.9}}, "day": 3, "month": 4, "livingplace": "St Martin"}}, "location": "Ollon VD"}, "Tour du Chablais #1 Martigny": {"race": "Tour du Chablais #1 Martigny", "longitude": 6.9916269, "latitude": 46.2957462, "date": {"mer. 23.04.2014": {"weekday": "wednesday", "year": 2014, "categories": {"F-F60": {"pace": 328000000000, "rank": 5, "distance": 9, "time": 2791.8}}, "day": 23, "month": 4, "livingplace": "St Martin"}}, "location": "Ollon VD"}, "Tour du Chablais #6 Montreux": {"race": "Tour du Chablais #6 Montreux", "longitude": 6.970566, "latitude": 46.3190253, "date": {"mer. 16.05.2012": {"weekday": "wednesday", "year": 2012, "categories": {"F-F60": {"pace": 310000000000, "rank": 2, "distance": 9, "time": 2871.4}}, "day": 16, "month": 5, "livingplace": "St Martin"}}, "location": "Aigle"}, "Tour du Chablais #4 Champ\u00e9ry": {"race": "Tour du Chablais #4 Champ\u00e9ry", "date": {"mer. 02.05.2012": {"weekday": "wednesday", "year": 2012, "categories": {"F-F60": {"pace": 323000000000, "rank": 3, "distance": 8, "time": 2687.1}}, "day": 2, "month": 5, "livingplace": "St Martin"}}, "location": "Les Mosses"}, "Tour du Chablais #5 Bex": {"race": "Tour du Chablais #5 Bex", "longitude": 6.931504599999999, "latitude": 46.3603257, "date": {"mer. 09.05.2012": {"weekday": "wednesday", "year": 2012, "categories": {"F-F60": {"pace": 304000000000, "rank": 2, "distance": 9, "time": 2697.8}}, "day": 9, "month": 5, "livingplace": "St Martin"}}, "location": "Roche VD"}, "Tour du Chablais #5 Morgins": {"race": "Tour du Chablais #5 Morgins", "longitude": 6.931504599999999, "latitude": 46.3603257, "date": {"mer. 01.05.2013": {"weekday": "wednesday", "year": 2013, "categories": {"F-F60": {"pace": 347000000000, "rank": 3, "distance": 8, "time": 2643.4}}, "day": 1, "month": 5, "livingplace": "St Martin"}}, "location": "Roche VD"}, "Tour du Chablais #4 St  Maurice": {"race": "Tour du Chablais #4 St  Maurice", "date": {"mer. 24.04.2013": {"weekday": "wednesday", "year": 2013, "categories": {"F-F60": {"pace": 333000000000, "rank": 3, "distance": 10, "time": 3331.6}}, "day": 24, "month": 4, "livingplace": "St Martin"}}, "location": "Les Mosses"}, "Tour du Chablais #3 Collombey-Muraz": {"race": "Tour du Chablais #3 Collombey-Muraz", "longitude": 7.0223787, "latitude": 46.1782231, "date": {"mer. 25.04.2012": {"weekday": "wednesday", "year": 2012, "categories": {"F-F60": {"pace": 327000000000, "rank": 3, "distance": 9, "time": 2937.2}}, "day": 25, "month": 4, "livingplace": "St Martin"}}, "location": "Evionnaz"}}, "name": "Gremaud Lise-Lousie", "birth": 1949}