{"sex": "M", "races": {"Course p\u00e9destre Thyon-Dixence, Thyon": {"race": "Course p\u00e9destre Thyon-Dixence, Thyon", "date": {"dim. 05.08.2012": {"weekday": "sunday", "year": 2012, "categories": {"HomElite": {"pace": 351000000000, "rank": 20, "distance": 16, "time": 5749.3}}, "day": 5, "month": 8, "livingplace": "La Sagne"}}, "location": "Thyon-Les Collons"}, "BCN Tour #1 Corcelles": {"race": "BCN Tour #1 Corcelles", "longitude": 6.8589727, "latitude": 46.9668714, "date": {"mer. 24.04.2013": {"weekday": "wednesday", "year": 2013, "categories": {"HS1": {"pace": 240000000000, "rank": 14, "distance": 10, "time": 2354.5}}, "day": 24, "month": 4, "livingplace": "La Sagne"}}, "location": "Colombier NE"}, "BCN Tour M\u00f4tier": {"race": "BCN Tour M\u00f4tier", "longitude": 6.6324944, "latitude": 46.9262933, "date": {"mer. 19.05.2010": {"weekday": "wednesday", "year": 2010, "categories": {"HS1": {"pace": 244000000000, "rank": 35, "distance": 10, "time": 2418.2}}, "day": 19, "month": 5, "livingplace": "La Sagne"}}, "location": "Couvet"}, "BCN Tour Auvernier": {"race": "BCN Tour Auvernier", "longitude": 6.8589727, "latitude": 46.9668714, "date": {"mer. 20.04.2011": {"weekday": "wednesday", "year": 2011, "categories": {"HS1": {"pace": 271000000000, "rank": 45, "distance": 11, "time": 2933.2}}, "day": 20, "month": 4, "livingplace": "La Sagne"}}, "location": "Colombier NE"}, "La Trotteuse-Tissot, La Chaux-de-Fonds": {"race": "La Trotteuse-Tissot, La Chaux-de-Fonds", "longitude": 6.832783800000001, "latitude": 47.1034892, "date": {"sam. 12.12.2015": {"weekday": "saturday", "year": 2015, "categories": {"GC-H30": {"pace": 225000000000, "rank": 16, "distance": 8, "time": 1803.0}}, "day": 12, "month": 12, "livingplace": "La Sagne"}, "sam. 13.12.2014": {"weekday": "saturday", "year": 2014, "categories": {"GC-H30": {"pace": 247000000000, "rank": 41, "distance": 8, "time": 1979.8}}, "day": 13, "month": 12, "livingplace": "La Sagne"}}, "location": "La Chaux-de-Fonds"}, "BCN Tour Colombier": {"race": "BCN Tour Colombier", "longitude": 6.8589727, "latitude": 46.9668714, "date": {"mer. 21.04.2010": {"weekday": "wednesday", "year": 2010, "categories": {"HS1": {"pace": 284000000000, "rank": 37, "distance": 10, "time": 2845.3}}, "day": 21, "month": 4, "livingplace": "La Sagne"}, "mer. 16.05.2012": {"weekday": "wednesday", "year": 2012, "categories": {"HS1": {"pace": 241000000000, "rank": 18, "distance": 11, "time": 2606.9}}, "day": 16, "month": 5, "livingplace": "La Sagne"}, "mer. 23.04.2008": {"weekday": "wednesday", "year": 2008, "categories": {"HS1": {"pace": 293000000000, "rank": 91, "distance": 10, "time": 2994.1}}, "day": 23, "month": 4, "livingplace": "Neuchatel"}}, "location": "Colombier NE"}, "BCN Tour Ponts-de-Martel": {"race": "BCN Tour Ponts-de-Martel", "longitude": 6.9175754, "latitude": 47.0624261, "date": {"mer. 28.04.2010": {"weekday": "wednesday", "year": 2010, "categories": {"HS1": {"pace": 263000000000, "rank": 36, "distance": 11, "time": 2953.9}}, "day": 28, "month": 4, "livingplace": "La Sagne"}}, "location": "Ch\u00e9zard-St-Martin"}, "BCN Tour Fontaine Cernier": {"race": "BCN Tour Fontaine Cernier", "longitude": 6.9175754, "latitude": 47.0624261, "date": {"mer. 27.04.2011": {"weekday": "wednesday", "year": 2011, "categories": {"HS1": {"pace": 244000000000, "rank": 29, "distance": 10, "time": 2515.4}}, "day": 27, "month": 4, "livingplace": "La Sagne"}}, "location": "Ch\u00e9zard-St-Martin"}, "BCN Tour Cornaux": {"race": "BCN Tour Cornaux", "longitude": 6.8589727, "latitude": 46.9668714, "date": {"mer. 25.04.2012": {"weekday": "wednesday", "year": 2012, "categories": {"HS1": {"pace": 265000000000, "rank": 24, "distance": 11, "time": 2924.3}}, "day": 25, "month": 4, "livingplace": "La Sagne"}}, "location": "Colombier NE"}, "D\u00e9fi Val-de-Travers, Couvet": {"race": "D\u00e9fi Val-de-Travers, Couvet", "longitude": 6.6324944, "latitude": 46.9262933, "date": {"sam. 21.06.2008": {"weekday": "saturday", "year": 2008, "categories": {"EHS1": {"pace": 322000000000, "rank": 5, "distance": 12, "time": 3935.4}}, "day": 21, "month": 6, "livingplace": "Neuchatel"}, "sam. 19.06.2010": {"weekday": "saturday", "year": 2010, "categories": {"21-HSen1": {"pace": 279000000000, "rank": 4, "distance": 20, "time": 5512.8}}, "day": 19, "month": 6, "livingplace": "La Sagne"}}, "location": "Couvet"}, "BCN Tour Neuch\u00e2tel": {"race": "BCN Tour Neuch\u00e2tel", "longitude": 6.9292732, "latitude": 46.9899874, "date": {"mer. 26.05.2010": {"weekday": "wednesday", "year": 2010, "categories": {"HS1": {"pace": 269000000000, "rank": 49, "distance": 10, "time": 2614.6}}, "day": 26, "month": 5, "livingplace": "La Sagne"}}, "location": "Neuch\u00e2tel"}, "Aletsch-Halbmarathon, Bettmeralp": {"race": "Aletsch-Halbmarathon, Bettmeralp", "date": {"dim. 24.06.2012": {"weekday": "sunday", "year": 2012, "categories": {"M30": {"pace": 342000000000, "rank": 32, "distance": 21, "time": 7263.6}}, "day": 24, "month": 6, "livingplace": "La Sagne"}}, "location": "Bettmeralp"}, "BCN Tour La Chaux-de-Fonds": {"race": "BCN Tour La Chaux-de-Fonds", "longitude": 6.6324944, "latitude": 46.9262933, "date": {"mer. 23.05.2012": {"weekday": "wednesday", "year": 2012, "categories": {"HS1": {"pace": 244000000000, "rank": 20, "distance": 11, "time": 2640.6}}, "day": 23, "month": 5, "livingplace": "La Sagne"}}, "location": "Couvet"}, "Lausanne Marathon": {"race": "Lausanne Marathon", "longitude": 6.6322734, "latitude": 46.5196535, "date": {"sam. 24.10.2015": {"weekday": "saturday", "year": 2015, "categories": {"10-H30": {"pace": 217000000000, "rank": 29, "distance": 10, "time": 2170.8}}, "day": 24, "month": 10, "livingplace": "La Sagne"}}, "location": "Lausanne"}, "BCN Tour La Br\u00e9vine": {"race": "BCN Tour La Br\u00e9vine", "longitude": 6.733554799999999, "latitude": 46.999113, "date": {"mer. 04.05.2011": {"weekday": "wednesday", "year": 2011, "categories": {"HS1": {"pace": 263000000000, "rank": 35, "distance": 10, "time": 2636.8}}, "day": 4, "month": 5, "livingplace": "La Sagne"}}, "location": "Les Ponts-de-Martel"}, "BCN Tour Le Locle": {"race": "BCN Tour Le Locle", "longitude": 6.733554799999999, "latitude": 46.999113, "date": {"mer. 05.05.2010": {"weekday": "wednesday", "year": 2010, "categories": {"HS1": {"pace": 255000000000, "rank": 39, "distance": 11, "time": 2781.8}}, "day": 5, "month": 5, "livingplace": "La Sagne"}}, "location": "Les Ponts-de-Martel"}, "BCN Tour La Chaux-de-fonds": {"race": "BCN Tour La Chaux-de-fonds", "longitude": 6.832783800000001, "latitude": 47.1034892, "date": {"mer. 12.05.2010": {"weekday": "wednesday", "year": 2010, "categories": {"HS1": {"pace": 310000000000, "rank": 34, "distance": 11, "time": 3325.0}}, "day": 12, "month": 5, "livingplace": "La Sagne"}}, "location": "La Chaux-de-Fonds"}}, "name": "Gremion Christophe", "birth": 1976}