{"sex": "M", "races": {"Int Greifenseelauf, Uster": {"race": "Int Greifenseelauf, Uster", "longitude": 8.717873899999999, "latitude": 47.3482747, "date": {"sam. 20.09.2003": {"weekday": "saturday", "year": 2003, "categories": {"H/M55": {"pace": 247000000000, "rank": 2, "distance": 21, "time": 5220.2}}, "day": 20, "month": 9, "livingplace": "Chernex"}}, "location": "Uster"}, "Tour du Pays de Vaud etape 3 - Aubonne": {"race": "Tour du Pays de Vaud etape 3 - Aubonne", "longitude": 6.5728678, "latitude": 46.7829756, "date": {"mer. 29.08.2007": {"weekday": "wednesday", "year": 2007, "categories": {"HS4": {"pace": 261000000000, "rank": 1, "distance": 8, "time": 2118.8}}, "day": 29, "month": 8, "livingplace": "Chernex"}}, "location": "Champvent"}, "Brienzerseelauf, B\u00f6nigen": {"race": "Brienzerseelauf, B\u00f6nigen", "date": {"dim. 10.10.2004": {"weekday": "sunday", "year": 2004, "categories": {"13": {"pace": 237000000000, "rank": 3, "distance": 21, "time": 5002.4}}, "day": 10, "month": 10, "livingplace": "Chernex"}, "dim. 12.10.2003": {"weekday": "sunday", "year": 2003, "categories": {"13": {"pace": 226000000000, "rank": 1, "distance": 21, "time": 4783.4}}, "day": 12, "month": 10, "livingplace": "Chernex"}}, "location": "B\u00f6nigen b. Interlaken"}, "SM 10km Strasse, Biel": {"race": "SM 10km Strasse, Biel", "longitude": 7.2467909, "latitude": 47.1367785, "date": {"sam. 24.09.2005": {"weekday": "saturday", "year": 2005, "categories": {"H60": {"pace": 227000000000, "rank": 4, "distance": 10, "time": 2270.5}}, "day": 24, "month": 9, "livingplace": "Chernex"}}, "location": "Biel/Bienne"}, "Tour du Pays de Vaud etape 1 - Le Mont sur Lausanne": {"race": "Tour du Pays de Vaud etape 1 - Le Mont sur Lausanne", "longitude": 6.641183, "latitude": 46.7784736, "date": {"mer. 13.08.2008": {"weekday": "wednesday", "year": 2008, "categories": {"HomSen4": {"pace": 263000000000, "rank": 6, "distance": 8, "time": 2216.1}}, "day": 13, "month": 8, "livingplace": "Chernex"}, "mer. 15.08.2007": {"weekday": "wednesday", "year": 2007, "categories": {"HS4": {"pace": 250000000000, "rank": 1, "distance": 8, "time": 2079.0}}, "day": 15, "month": 8, "livingplace": "Chernex"}}, "location": "Yverdon-les-Bains"}, "Kerzerslauf": {"race": "Kerzerslauf", "longitude": 7.1954365, "latitude": 46.97488999999999, "date": {"sam. 15.03.2003": {"weekday": "saturday", "year": 2003, "categories": {"M55": {"pace": 227000000000, "rank": 2, "distance": 15, "time": 3411.0}}, "day": 15, "month": 3, "livingplace": "Blonay"}}, "location": "Kerzers"}, "Morat-Fribourg": {"race": "Morat-Fribourg", "longitude": 7.120184, "latitude": 46.92922110000001, "date": {"dim. 07.10.2001": {"weekday": "sunday", "year": 2001, "categories": {"M55": {"pace": 234000000000, "rank": 1, "distance": 17, "time": 4025.5}}, "day": 7, "month": 10, "livingplace": "Blonay"}}, "location": "Murten"}, "Montreux - Les Rochers de Naye": {"race": "Montreux - Les Rochers de Naye", "longitude": 6.9106799, "latitude": 46.4312213, "date": {"dim. 11.07.2010": {"weekday": "sunday", "year": 2010, "categories": {"C-H-Spe2": {"pace": 507000000000, "rank": 14, "distance": 10, "time": 4824.9}}, "day": 11, "month": 7, "livingplace": "Chernex"}, "dim. 26.06.2005": {"weekday": "sunday", "year": 2005, "categories": {"V\u00e9t3": {"pace": 412000000000, "rank": 1, "distance": 19, "time": 7752.1}}, "day": 26, "month": 6, "livingplace": "Chernex"}}, "location": "Montreux"}}, "name": "Griffon Max", "birth": 1945}