{"sex": "F", "races": {"Corrida Bulloise, Bulle": {"race": "Corrida Bulloise, Bulle", "longitude": 7.057726799999999, "latitude": 46.6154512, "date": {"sam. 16.11.2013": {"weekday": "saturday", "year": 2013, "categories": {"F20": {"pace": 228000000000, "rank": 4, "distance": 6, "time": 1406.3}}, "day": 16, "month": 11, "livingplace": "Dudingen"}, "sam. 17.11.2012": {"weekday": "saturday", "year": 2012, "categories": {"F20": {"pace": 230000000000, "rank": 3, "distance": 6, "time": 1420.6}}, "day": 17, "month": 11, "livingplace": "Dudingen"}}, "location": "Bulle"}, "10km Schweizer Meisterschaften Lyss": {"race": "10km Schweizer Meisterschaften Lyss", "longitude": 7.3077022, "latitude": 47.0746504, "date": {"sam. 31.03.2012": {"weekday": "saturday", "year": 2012, "categories": {"10-W35": {"pace": 233000000000, "rank": 6, "distance": 10, "time": 2332.2}}, "day": 31, "month": 3, "livingplace": "Dudingen"}, "sam. 02.04.2011": {"weekday": "saturday", "year": 2011, "categories": {"10-W35": {"pace": 230000000000, "rank": 4, "distance": 10, "time": 2303.3}}, "day": 2, "month": 4, "livingplace": "Dudingen"}}, "location": "Lyss"}, "Schweizer Frauenlauf Bern": {"race": "Schweizer Frauenlauf Bern", "longitude": 7.4474468, "latitude": 46.9479739, "date": {"dim. 14.06.2009": {"weekday": "sunday", "year": 2009, "categories": {"10-W30": {"pace": 237000000000, "rank": 4, "distance": 10, "time": 2374.7}}, "day": 14, "month": 6, "livingplace": "Dudingen"}}, "location": "Bern"}, "Schlosslauf Rapperswil-Jona": {"race": "Schlosslauf Rapperswil-Jona", "longitude": 8.818437399999999, "latitude": 47.2266239, "date": {"dim. 06.10.2013": {"weekday": "sunday", "year": 2013, "categories": {"10-Frau": {"pace": 230000000000, "rank": 3, "distance": 10, "time": 2302.1}}, "day": 6, "month": 10, "livingplace": "Ute Muckel Sebamed Triath"}}, "location": "Rapperswil SG"}, "Thuner Stadtlauf, Thun": {"race": "Thuner Stadtlauf, Thun", "longitude": 7.6279881, "latitude": 46.7579868, "date": {"dim. 25.08.2013": {"weekday": "sunday", "year": 2013, "categories": {"10-W30": {"pace": 229000000000, "rank": 2, "distance": 10, "time": 2290.7}}, "day": 25, "month": 8, "livingplace": "Ute Muckel Sebamed Triath"}, "dim. 24.08.2014": {"weekday": "sunday", "year": 2014, "categories": {"10-F30": {"pace": 242000000000, "rank": 5, "distance": 11, "time": 2610.6}}, "day": 24, "month": 8, "livingplace": "Dudingen"}}, "location": "Thun"}, "Hellebardenlauf Sempach": {"race": "Hellebardenlauf Sempach", "date": {"sam. 14.06.2014": {"weekday": "saturday", "year": 2014, "categories": {"16-W30": {"pace": 244000000000, "rank": 2, "distance": 16, "time": 3928.7}}, "day": 14, "month": 6, "livingplace": "Dudingen"}}, "location": "Sempach Stadt"}, "Morat-Fribourg": {"race": "Morat-Fribourg", "longitude": 7.120184, "latitude": 46.92922110000001, "date": {"sam. 03.10.2015": {"weekday": "saturday", "year": 2015, "categories": {"17-W40": {"pace": 247000000000, "rank": 4, "distance": 17, "time": 4247.4}}, "day": 3, "month": 10, "livingplace": "Dudingen"}}, "location": "Murten"}, "Kerzerslauf": {"race": "Kerzerslauf", "longitude": 7.1954365, "latitude": 46.97488999999999, "date": {"sam. 19.03.2011": {"weekday": "saturday", "year": 2011, "categories": {"15-F35": {"pace": 238000000000, "rank": 7, "distance": 15, "time": 3571.8}}, "day": 19, "month": 3, "livingplace": "Dudingen"}}, "location": "Kerzers"}}, "name": "Grossrieder Monique", "birth": 1975}