{"sex": "F", "races": {"20km de Lausanne": {"race": "20km de Lausanne", "longitude": 6.6322734, "latitude": 46.5196535, "date": {"sam. 25.04.2015": {"weekday": "saturday", "year": 2015, "categories": {"10-F30": {"pace": 330000000000, "rank": 248, "distance": 10, "time": 3305.9}}, "day": 25, "month": 4, "livingplace": "Montreux"}}, "location": "Lausanne"}, "Tour du Chablais #4 Champ\u00e9ry": {"race": "Tour du Chablais #4 Champ\u00e9ry", "date": {"mer. 02.05.2012": {"weekday": "wednesday", "year": 2012, "categories": {"F-F20": {"pace": 331000000000, "rank": 81, "distance": 8, "time": 2754.3}}, "day": 2, "month": 5, "livingplace": "Chessel"}}, "location": "Les Mosses"}, "Tour du Chablais #3 Collombey-Muraz": {"race": "Tour du Chablais #3 Collombey-Muraz", "longitude": 7.0223787, "latitude": 46.1782231, "date": {"mer. 25.04.2012": {"weekday": "wednesday", "year": 2012, "categories": {"F-F20": {"pace": 323000000000, "rank": 69, "distance": 9, "time": 2907.7}}, "day": 25, "month": 4, "livingplace": "Chessel"}}, "location": "Evionnaz"}, "Tour du Chablais #6 Montreux": {"race": "Tour du Chablais #6 Montreux", "longitude": 6.970566, "latitude": 46.3190253, "date": {"mer. 16.05.2012": {"weekday": "wednesday", "year": 2012, "categories": {"F-F20": {"pace": 316000000000, "rank": 73, "distance": 9, "time": 2925.2}}, "day": 16, "month": 5, "livingplace": "Chessel"}}, "location": "Aigle"}, "Tour du Chablais #6 Aigle": {"race": "Tour du Chablais #6 Aigle", "longitude": 6.970566, "latitude": 46.3190253, "date": {"mer. 01.06.2011": {"weekday": "wednesday", "year": 2011, "categories": {"F-F20": {"pace": 308000000000, "rank": 65, "distance": 10, "time": 3146.3}}, "day": 1, "month": 6, "livingplace": "Chessel"}}, "location": "Aigle"}, "Tour du Chablais #4 Morgins": {"race": "Tour du Chablais #4 Morgins", "date": {"mer. 18.05.2011": {"weekday": "wednesday", "year": 2011, "categories": {"F-F20": {"pace": 349000000000, "rank": 68, "distance": 8, "time": 2916.7}}, "day": 18, "month": 5, "livingplace": "Chessel"}}, "location": "Les Mosses"}, "Tour du Chablais #1 Montreux": {"race": "Tour du Chablais #1 Montreux", "longitude": 6.9916269, "latitude": 46.2957462, "date": {"mer. 11.04.2012": {"weekday": "wednesday", "year": 2012, "categories": {"F-F20": {"pace": 330000000000, "rank": 57, "distance": 8, "time": 2511.6}}, "day": 11, "month": 4, "livingplace": "Chessel"}}, "location": "Ollon VD"}, "Tour du Chablais #5 Les Mosses": {"race": "Tour du Chablais #5 Les Mosses", "longitude": 6.931504599999999, "latitude": 46.3603257, "date": {"mer. 25.05.2011": {"weekday": "wednesday", "year": 2011, "categories": {"F-F20": {"pace": 353000000000, "rank": 59, "distance": 8, "time": 2824.1}}, "day": 25, "month": 5, "livingplace": "Chessel"}}, "location": "Roche VD"}, "Tour du Chablais #1 Lavey": {"race": "Tour du Chablais #1 Lavey", "longitude": 6.9916269, "latitude": 46.2957462, "date": {"mer. 27.04.2011": {"weekday": "wednesday", "year": 2011, "categories": {"F-F20": {"pace": 366000000000, "rank": 94, "distance": 9, "time": 3296.9}}, "day": 27, "month": 4, "livingplace": "Chessel"}}, "location": "Ollon VD"}, "Tour du Chablais #5 Bex": {"race": "Tour du Chablais #5 Bex", "longitude": 6.931504599999999, "latitude": 46.3603257, "date": {"mer. 09.05.2012": {"weekday": "wednesday", "year": 2012, "categories": {"F-F20": {"pace": 308000000000, "rank": 51, "distance": 9, "time": 2732.3}}, "day": 9, "month": 5, "livingplace": "Chessel"}}, "location": "Roche VD"}, "Tour du Chablais #3 Le Bouveret": {"race": "Tour du Chablais #3 Le Bouveret", "longitude": 7.0223787, "latitude": 46.1782231, "date": {"mer. 11.05.2011": {"weekday": "wednesday", "year": 2011, "categories": {"F-F20": {"pace": 337000000000, "rank": 83, "distance": 10, "time": 3379.9}}, "day": 11, "month": 5, "livingplace": "Chessel"}}, "location": "Evionnaz"}, "Tour du Chablais #2 Rennaz": {"race": "Tour du Chablais #2 Rennaz", "longitude": 6.854975199999999, "latitude": 46.3835529, "date": {"mer. 04.05.2011": {"weekday": "wednesday", "year": 2011, "categories": {"F-F20": {"pace": 342000000000, "rank": 85, "distance": 9, "time": 3203.8}}, "day": 4, "month": 5, "livingplace": "Chessel"}}, "location": "Bouveret"}}, "name": "Gubler Alice", "birth": 1979}