{"sex": "F", "races": {"Glacier 3000 Run, Gstaad": {"race": "Glacier 3000 Run, Gstaad", "longitude": 7.2865728, "latitude": 46.4717588, "date": {"sam. 07.08.2010": {"weekday": "saturday", "year": 2010, "categories": {"F40": {"pace": 585000000000, "rank": 19, "distance": 26, "time": 15222.2}}, "day": 7, "month": 8, "livingplace": "Geneve"}}, "location": "Gstaad"}, "Stralugano, Lugano": {"race": "Stralugano, Lugano", "longitude": 8.951051999999999, "latitude": 46.0036778, "date": {"dim. 26.09.2010": {"weekday": "sunday", "year": 2010, "categories": {"30-W35": {"pace": 300000000000, "rank": 16, "distance": 30, "time": 9028.9}}, "day": 26, "month": 9, "livingplace": "Geneve"}}, "location": "Lugano"}, "Aletsch-Halbmarathon, Bettmeralp": {"race": "Aletsch-Halbmarathon, Bettmeralp", "date": {"dim. 24.06.2007": {"weekday": "sunday", "year": 2007, "categories": {"F40": {"pace": 461000000000, "rank": 22, "distance": 21, "time": 9697.8}}, "day": 24, "month": 6, "livingplace": "Geneve"}}, "location": "Bettmeralp"}, "Swiss IRONTRAIL, Davos": {"race": "Swiss IRONTRAIL, Davos", "longitude": 9.5319859, "latitude": 46.8507835, "date": {"jeu. 13.08.2015": {"weekday": "thursday", "year": 2015, "categories": {"A21-W40": {"pace": 483000000000, "rank": 1, "distance": 19, "time": 8995.6}}, "day": 13, "month": 8, "livingplace": "Geneve"}}, "location": "Chur"}, "Tour du Pays de Vaud #4, La Sarraz": {"race": "Tour du Pays de Vaud #4, La Sarraz", "longitude": 6.5707689, "latitude": 46.7088129, "date": {"mer. 03.09.2014": {"weekday": "wednesday", "year": 2014, "categories": {"D-Sen2": {"pace": 269000000000, "rank": 6, "distance": 9, "time": 2290.3}}, "day": 3, "month": 9, "livingplace": "Morges"}}, "location": "Chavornay"}, "Tour du Pays de Vaud #2, Mezi\u00e8res": {"race": "Tour du Pays de Vaud #2, Mezi\u00e8res", "longitude": 6.7702883, "latitude": 46.5955273, "date": {"mer. 20.08.2014": {"weekday": "wednesday", "year": 2014, "categories": {"D-Sen2": {"pace": 288000000000, "rank": 3, "distance": 8, "time": 2340.7}}, "day": 20, "month": 8, "livingplace": "Morges"}}, "location": "M\u00e9zi\u00e8res VD"}, "Morat-Fribourg": {"race": "Morat-Fribourg", "longitude": 7.120184, "latitude": 46.92922110000001, "date": {"sam. 03.10.2009": {"weekday": "saturday", "year": 2009, "categories": {"C-W40": {"pace": 281000000000, "rank": 10, "distance": 17, "time": 4833.7}}, "day": 3, "month": 10, "livingplace": "Morges"}, "sam. 02.10.2010": {"weekday": "saturday", "year": 2010, "categories": {"17-W40": {"pace": 293000000000, "rank": 12, "distance": 17, "time": 5033.6}}, "day": 2, "month": 10, "livingplace": "Geneve"}}, "location": "Murten"}, "Montreux - Les Rochers de Naye": {"race": "Montreux - Les Rochers de Naye", "longitude": 6.9106799, "latitude": 46.4312213, "date": {"dim. 11.07.2010": {"weekday": "sunday", "year": 2010, "categories": {"M-F-Spez": {"pace": 471000000000, "rank": 13, "distance": 19, "time": 8864.4}}, "day": 11, "month": 7, "livingplace": "Geneve"}}, "location": "Montreux"}, "20km de Lausanne": {"race": "20km de Lausanne", "longitude": 6.6322734, "latitude": 46.5196535, "date": {"sam. 24.04.2010": {"weekday": "saturday", "year": 2010, "categories": {"20-F40": {"pace": 287000000000, "rank": 15, "distance": 20, "time": 5759.3}}, "day": 24, "month": 4, "livingplace": "Geneve"}, "sam. 27.04.2013": {"weekday": "saturday", "year": 2013, "categories": {"10-F45": {"pace": 267000000000, "rank": 2, "distance": 10, "time": 2674.3}}, "day": 27, "month": 4, "livingplace": "Geneve"}}, "location": "Lausanne"}}, "name": "G\u00fcnther Renate", "birth": 1966}