{"sex": "F", "races": {"Schweizer Frauenlauf Bern": {"race": "Schweizer Frauenlauf Bern", "longitude": 7.4474468, "latitude": 46.9479739, "date": {"dim. 12.06.2005": {"weekday": "sunday", "year": 2005, "categories": {"5-W20": {"pace": 271000000000, "rank": 63, "distance": 5, "time": 1358.3}}, "day": 12, "month": 6, "livingplace": "Oberentfelden"}}, "location": "Bern"}, "Sihltaler Fr\u00fchlingslauf, Gattikon": {"race": "Sihltaler Fr\u00fchlingslauf, Gattikon", "longitude": 8.5644799, "latitude": 47.2949282, "date": {"ven. 01.05.2009": {"weekday": "friday", "year": 2009, "categories": {"F20": {"pace": 303000000000, "rank": 10, "distance": 10, "time": 3039.1}}, "day": 1, "month": 5, "livingplace": "Hunzenschwil"}}, "location": "Gattikon"}, "Basel City Marathon": {"race": "Basel City Marathon", "longitude": 7.5885761, "latitude": 47.5595986, "date": {"dim. 28.08.2005": {"weekday": "sunday", "year": 2005, "categories": {"F20": {"pace": 320000000000, "rank": 17, "distance": 42, "time": 13504.3}}, "day": 28, "month": 8, "livingplace": "Oberentfelden"}}, "location": "Basel"}, "GP Fricktal, Eiken": {"race": "GP Fricktal, Eiken", "date": {"sam. 07.04.2007": {"weekday": "saturday", "year": 2007, "categories": {"F20": {"pace": 280000000000, "rank": 5, "distance": 16, "time": 4512.6}}, "day": 7, "month": 4, "livingplace": "Oberentfelden"}}, "location": "Eiken"}, "ASICS Bremgarter Reusslauf": {"race": "ASICS Bremgarter Reusslauf", "longitude": 8.3397905, "latitude": 47.34917739999999, "date": {"sam. 17.02.2007": {"weekday": "saturday", "year": 2007, "categories": {"F20": {"pace": 278000000000, "rank": 22, "distance": 11, "time": 2926.6}}, "day": 17, "month": 2, "livingplace": "Oberentfelden"}}, "location": "Bremgarten AG"}, "Z\u00fcrich Marathon, Teamrun und Cityrun": {"race": "Z\u00fcrich Marathon, Teamrun und Cityrun", "longitude": 8.541694, "latitude": 47.3768866, "date": {"dim. 09.04.2006": {"weekday": "sunday", "year": 2006, "categories": {"W20": {"pace": 320000000000, "rank": 46, "distance": 42, "time": 13537.0}}, "day": 9, "month": 4, "livingplace": "Oberentfelden"}}, "location": "Z\u00fcrich"}, "Jungfrau-Marathon, Interlaken": {"race": "Jungfrau-Marathon, Interlaken", "date": {"sam. 11.09.2010": {"weekday": "saturday", "year": 2010, "categories": {"F20": {"pace": 438000000000, "rank": 94, "distance": 42, "time": 18520.5}}, "day": 11, "month": 9, "livingplace": "Hunzenschwil"}}, "location": "Interlaken"}}, "name": "Gut Cornelia", "birth": 1981}