{"sex": "M", "races": {"Tour du Chablais #1 Montreux": {"race": "Tour du Chablais #1 Montreux", "longitude": 6.9916269, "latitude": 46.2957462, "date": {"mer. 11.04.2012": {"weekday": "wednesday", "year": 2012, "categories": {"M-M60": {"pace": 444000000000, "rank": 41, "distance": 8, "time": 3379.4}}, "day": 11, "month": 4, "livingplace": "Aigle"}}, "location": "Ollon VD"}, "Tour du Chablais #5 Les Mosses": {"race": "Tour du Chablais #5 Les Mosses", "longitude": 6.931504599999999, "latitude": 46.3603257, "date": {"mer. 25.05.2011": {"weekday": "wednesday", "year": 2011, "categories": {"M-M60": {"pace": 439000000000, "rank": 38, "distance": 8, "time": 3514.4}}, "day": 25, "month": 5, "livingplace": "Aigle"}}, "location": "Roche VD"}, "Tour du Chablais #1 Lavey": {"race": "Tour du Chablais #1 Lavey", "longitude": 6.9916269, "latitude": 46.2957462, "date": {"mer. 27.04.2011": {"weekday": "wednesday", "year": 2011, "categories": {"M-M60": {"pace": 442000000000, "rank": 43, "distance": 9, "time": 3979.1}}, "day": 27, "month": 4, "livingplace": "Aigle"}}, "location": "Ollon VD"}, "Tour du Chablais #4 Champ\u00e9ry": {"race": "Tour du Chablais #4 Champ\u00e9ry", "date": {"mer. 02.05.2012": {"weekday": "wednesday", "year": 2012, "categories": {"M-M60": {"pace": 421000000000, "rank": 32, "distance": 8, "time": 3495.2}}, "day": 2, "month": 5, "livingplace": "Aigle"}}, "location": "Les Mosses"}, "Tour du Chablais #3 Le Bouveret": {"race": "Tour du Chablais #3 Le Bouveret", "longitude": 7.0223787, "latitude": 46.1782231, "date": {"mer. 11.05.2011": {"weekday": "wednesday", "year": 2011, "categories": {"M-M60": {"pace": 426000000000, "rank": 49, "distance": 10, "time": 4260.4}}, "day": 11, "month": 5, "livingplace": "Aigle"}}, "location": "Evionnaz"}, "Tour du Chablais #3 Collombey-Muraz": {"race": "Tour du Chablais #3 Collombey-Muraz", "longitude": 7.0223787, "latitude": 46.1782231, "date": {"mer. 25.04.2012": {"weekday": "wednesday", "year": 2012, "categories": {"M-M60": {"pace": 437000000000, "rank": 36, "distance": 9, "time": 3925.7}}, "day": 25, "month": 4, "livingplace": "Aigle"}}, "location": "Evionnaz"}, "Tour du Chablais #6 Montreux": {"race": "Tour du Chablais #6 Montreux", "longitude": 6.970566, "latitude": 46.3190253, "date": {"mer. 16.05.2012": {"weekday": "wednesday", "year": 2012, "categories": {"M-M60": {"pace": 426000000000, "rank": 37, "distance": 9, "time": 3944.7}}, "day": 16, "month": 5, "livingplace": "Aigle"}}, "location": "Aigle"}, "Tour du Chablais #6 Aigle": {"race": "Tour du Chablais #6 Aigle", "longitude": 6.970566, "latitude": 46.3190253, "date": {"mer. 01.06.2011": {"weekday": "wednesday", "year": 2011, "categories": {"M-M60": {"pace": 411000000000, "rank": 45, "distance": 10, "time": 4195.6}}, "day": 1, "month": 6, "livingplace": "Aigle"}}, "location": "Aigle"}, "Tour du Chablais #4 Morgins": {"race": "Tour du Chablais #4 Morgins", "date": {"mer. 18.05.2011": {"weekday": "wednesday", "year": 2011, "categories": {"M-M60": {"pace": 443000000000, "rank": 39, "distance": 8, "time": 3707.2}}, "day": 18, "month": 5, "livingplace": "Aigle"}}, "location": "Les Mosses"}, "Tour du Chablais #2 Rennaz": {"race": "Tour du Chablais #2 Rennaz", "longitude": 6.854975199999999, "latitude": 46.3835529, "date": {"mer. 04.05.2011": {"weekday": "wednesday", "year": 2011, "categories": {"M-M60": {"pace": 420000000000, "rank": 49, "distance": 9, "time": 3927.1}}, "day": 4, "month": 5, "livingplace": "Aigle"}}, "location": "Bouveret"}}, "name": "Halil Bernard", "birth": 1951}