{"sex": "F", "races": {"Tour du Pays de Vaud #3 - Chavornay": {"race": "Tour du Pays de Vaud #3 - Chavornay", "longitude": 6.641183, "latitude": 46.7784736, "date": {"mer. 28.08.2013": {"weekday": "wednesday", "year": 2013, "categories": {"D-Sen1": {"pace": 313000000000, "rank": 30, "distance": 9, "time": 2793.1}}, "day": 28, "month": 8, "livingplace": "Lausanne"}}, "location": "Yverdon-les-Bains"}, "Tour du pays de Vaud #1 - Penthaz": {"race": "Tour du pays de Vaud #1 - Penthaz", "longitude": 6.539251200000001, "latitude": 46.5993131, "date": {"mer. 14.08.2013": {"weekday": "wednesday", "year": 2013, "categories": {"D-Sen1": {"pace": 319000000000, "rank": 32, "distance": 9, "time": 2721.6}}, "day": 14, "month": 8, "livingplace": "Lausanne"}}, "location": "Penthaz"}, "Tour du Pays de Vaud #4 - La Sarraz": {"race": "Tour du Pays de Vaud #4 - La Sarraz", "longitude": 6.5707689, "latitude": 46.7088129, "date": {"mer. 04.09.2013": {"weekday": "wednesday", "year": 2013, "categories": {"D-Sen1": {"pace": 323000000000, "rank": 28, "distance": 9, "time": 2753.9}}, "day": 4, "month": 9, "livingplace": "Lausanne"}}, "location": "Chavornay"}, "Tour du Chablais #4 Yvorne": {"race": "Tour du Chablais #4 Yvorne", "date": {"mer. 28.04.2010": {"weekday": "wednesday", "year": 2010, "categories": {"F-F20": {"pace": 336000000000, "rank": 46, "distance": 8, "time": 2790.1}}, "day": 28, "month": 4, "livingplace": "Bramois"}}, "location": "Les Mosses"}, "Tour du Chablais #1 Roche": {"race": "Tour du Chablais #1 Roche", "longitude": 6.9916269, "latitude": 46.2957462, "date": {"mer. 07.04.2010": {"weekday": "wednesday", "year": 2010, "categories": {"F-F20": {"pace": 313000000000, "rank": 53, "distance": 9, "time": 2806.0}}, "day": 7, "month": 4, "livingplace": "Bramois"}}, "location": "Ollon VD"}, "Tour du Chablais #6 Aigle": {"race": "Tour du Chablais #6 Aigle", "longitude": 6.970566, "latitude": 46.3190253, "date": {"mer. 01.06.2011": {"weekday": "wednesday", "year": 2011, "categories": {"F-F20": {"pace": 316000000000, "rank": 73, "distance": 10, "time": 3223.5}}, "day": 1, "month": 6, "livingplace": "Bramois"}}, "location": "Aigle"}, "20km de Lausanne": {"race": "20km de Lausanne", "longitude": 6.6322734, "latitude": 46.5196535, "date": {"sam. 24.04.2010": {"weekday": "saturday", "year": 2010, "categories": {"10-F30": {"pace": 309000000000, "rank": 56, "distance": 10, "time": 3094.3}}, "day": 24, "month": 4, "livingplace": "Bramois"}, "sam. 25.04.2009": {"weekday": "saturday", "year": 2009, "categories": {"10-F30": {"pace": 313000000000, "rank": 87, "distance": 10, "time": 3135.6}}, "day": 25, "month": 4, "livingplace": "Bramois"}, "sam. 30.04.2011": {"weekday": "saturday", "year": 2011, "categories": {"10-F30": {"pace": 311000000000, "rank": 74, "distance": 10, "time": 3110.9}}, "day": 30, "month": 4, "livingplace": "Bramois"}, "sam. 22.04.2006": {"weekday": "saturday", "year": 2006, "categories": {"10/F20": {"pace": 357000000000, "rank": 148, "distance": 10, "time": 3579.8}}, "day": 22, "month": 4, "livingplace": "Lausanne"}}, "location": "Lausanne"}, "Tour du Chablais #6 Mouthey": {"race": "Tour du Chablais #6 Mouthey", "longitude": 6.970566, "latitude": 46.3190253, "date": {"mer. 12.05.2010": {"weekday": "wednesday", "year": 2010, "categories": {"F-F20": {"pace": 303000000000, "rank": 49, "distance": 9, "time": 2793.9}}, "day": 12, "month": 5, "livingplace": "Bramois"}}, "location": "Aigle"}, "Tour du Pays de Vaud etape 3 - Aubonne": {"race": "Tour du Pays de Vaud etape 3 - Aubonne", "longitude": 6.5728678, "latitude": 46.7829756, "date": {"mer. 27.08.2008": {"weekday": "wednesday", "year": 2008, "categories": {"Dam": {"pace": 342000000000, "rank": 14, "distance": 8, "time": 2668.2}}, "day": 27, "month": 8, "livingplace": "Lausanne"}}, "location": "Champvent"}, "Tour du Chablais #1 Lavey": {"race": "Tour du Chablais #1 Lavey", "longitude": 6.9916269, "latitude": 46.2957462, "date": {"mer. 27.04.2011": {"weekday": "wednesday", "year": 2011, "categories": {"F-F20": {"pace": 312000000000, "rank": 37, "distance": 9, "time": 2810.1}}, "day": 27, "month": 4, "livingplace": "Bramois"}}, "location": "Ollon VD"}, "IWB Basel Marathon": {"race": "IWB Basel Marathon", "longitude": 7.5885761, "latitude": 47.5595986, "date": {"dim. 22.09.2013": {"weekday": "sunday", "year": 2013, "categories": {"H-21-F30": {"pace": 353000000000, "rank": 57, "distance": 21, "time": 7454.5}}, "day": 22, "month": 9, "livingplace": "Lausanne"}}, "location": "Basel"}, "Tour du Chablais #3 Bex": {"race": "Tour du Chablais #3 Bex", "longitude": 7.0223787, "latitude": 46.1782231, "date": {"mer. 21.04.2010": {"weekday": "wednesday", "year": 2010, "categories": {"F-F20": {"pace": 314000000000, "rank": 44, "distance": 10, "time": 3144.7}}, "day": 21, "month": 4, "livingplace": "Bramois"}}, "location": "Evionnaz"}, "Tour du Pays de Vaud #2 - Mezi\u00e8res": {"race": "Tour du Pays de Vaud #2 - Mezi\u00e8res", "longitude": 6.7702883, "latitude": 46.5955273, "date": {"mer. 21.08.2013": {"weekday": "wednesday", "year": 2013, "categories": {"D-Sen1": {"pace": 355000000000, "rank": 33, "distance": 8, "time": 2878.3}}, "day": 21, "month": 8, "livingplace": "Lausanne"}}, "location": "M\u00e9zi\u00e8res VD"}, "Tour du Chablais #2 St-Gingolph": {"race": "Tour du Chablais #2 St-Gingolph", "longitude": 6.854975199999999, "latitude": 46.3835529, "date": {"mer. 14.04.2010": {"weekday": "wednesday", "year": 2010, "categories": {"F-F20": {"pace": 354000000000, "rank": 58, "distance": 8, "time": 2958.7}}, "day": 14, "month": 4, "livingplace": "Bramois"}}, "location": "Bouveret"}, "Tour du Pays de Vaud etape 2 - Genolier": {"race": "Tour du Pays de Vaud etape 2 - Genolier", "longitude": 6.7702883, "latitude": 46.5955273, "date": {"mer. 20.08.2008": {"weekday": "wednesday", "year": 2008, "categories": {"Dam": {"pace": 325000000000, "rank": 16, "distance": 8, "time": 2700.1}}, "day": 20, "month": 8, "livingplace": "Lausanne"}}, "location": "M\u00e9zi\u00e8res VD"}}, "name": "Haroun Caroline", "birth": 1979}