{"sex": "M", "races": {"Course de l'Escalade, Gen\u00e8ve": {"race": "Course de l'Escalade, Gen\u00e8ve", "longitude": 6.1431577, "latitude": 46.2043907, "date": {"sam. 01.12.2012": {"weekday": "saturday", "year": 2012, "categories": {"Elite-M": {"pace": 198000000000, "rank": 46, "distance": 7, "time": 1442.6}}, "day": 1, "month": 12, "livingplace": "Dijon"}}, "location": "Gen\u00e8ve"}, "Tour du Pays de Vaud #4, La Sarraz": {"race": "Tour du Pays de Vaud #4, La Sarraz", "longitude": 6.5707689, "latitude": 46.7088129, "date": {"mer. 03.09.2014": {"weekday": "wednesday", "year": 2014, "categories": {"H-Hom": {"pace": 206000000000, "rank": 2, "distance": 9, "time": 1758.3}}, "day": 3, "month": 9, "livingplace": "Vevey"}}, "location": "Chavornay"}, "Tour du Pays de Vaud #1, Penthaz": {"race": "Tour du Pays de Vaud #1, Penthaz", "longitude": 6.539251200000001, "latitude": 46.5993131, "date": {"mer. 13.08.2014": {"weekday": "wednesday", "year": 2014, "categories": {"H-Hom": {"pace": 203000000000, "rank": 1, "distance": 9, "time": 1732.6}}, "day": 13, "month": 8, "livingplace": "Vevey"}}, "location": "Penthaz"}, "20km de Lausanne": {"race": "20km de Lausanne", "longitude": 6.6322734, "latitude": 46.5196535, "date": {"sam. 26.04.2014": {"weekday": "saturday", "year": 2014, "categories": {"10-H20": {"pace": 354000000000, "rank": 824, "distance": 10, "time": 3542.4}}, "day": 26, "month": 4, "livingplace": "Vevey"}}, "location": "Lausanne"}, "Sierre-Zinal, Sierre": {"race": "Sierre-Zinal, Sierre", "longitude": 7.533536199999999, "latitude": 46.29413110000001, "date": {"dim. 09.08.2015": {"weekday": "sunday", "year": 2015, "categories": {"ElitesHo": {"pace": 361000000000, "rank": 42, "distance": 31, "time": 11194.9}}, "day": 9, "month": 8, "livingplace": "Vevey"}, "dim. 11.08.2013": {"weekday": "sunday", "year": 2013, "categories": {"Elites": {"pace": 368000000000, "rank": 43, "distance": 31, "time": 11437.3}}, "day": 11, "month": 8, "livingplace": "Flanthey"}}, "location": "Sierre"}, "Tour du Pays de Vaud #3, Chavornay": {"race": "Tour du Pays de Vaud #3, Chavornay", "longitude": 6.641183, "latitude": 46.7784736, "date": {"mer. 27.08.2014": {"weekday": "wednesday", "year": 2014, "categories": {"H-Hom": {"pace": 213000000000, "rank": 1, "distance": 9, "time": 1833.3}}, "day": 27, "month": 8, "livingplace": "Vevey"}}, "location": "Yverdon-les-Bains"}, "Lausanne Marathon": {"race": "Lausanne Marathon", "longitude": 6.6322734, "latitude": 46.5196535, "date": {"dim. 26.10.2014": {"weekday": "sunday", "year": 2014, "categories": {"10-H20": {"pace": 198000000000, "rank": 8, "distance": 10, "time": 1988.2}}, "day": 26, "month": 10, "livingplace": "Vevey"}, "dim. 27.10.2013": {"weekday": "sunday", "year": 2013, "categories": {"21-H1": {"pace": 220000000000, "rank": 6, "distance": 21, "time": 4650.1}}, "day": 27, "month": 10, "livingplace": "Vevey"}}, "location": "Lausanne"}, "Tour du Pays de Vaud #2, Mezi\u00e8res": {"race": "Tour du Pays de Vaud #2, Mezi\u00e8res", "longitude": 6.7702883, "latitude": 46.5955273, "date": {"mer. 20.08.2014": {"weekday": "wednesday", "year": 2014, "categories": {"H-Hom": {"pace": 226000000000, "rank": 2, "distance": 8, "time": 1831.0}}, "day": 20, "month": 8, "livingplace": "Vevey"}}, "location": "M\u00e9zi\u00e8res VD"}, "Morat-Fribourg": {"race": "Morat-Fribourg", "longitude": 7.120184, "latitude": 46.92922110000001, "date": {"sam. 04.10.2014": {"weekday": "saturday", "year": 2014, "categories": {"17-M20": {"pace": 214000000000, "rank": 30, "distance": 17, "time": 3691.4}}, "day": 4, "month": 10, "livingplace": "Vevey"}}, "location": "Murten"}, "Montreux - Les Rochers de Naye": {"race": "Montreux - Les Rochers de Naye", "longitude": 6.9106799, "latitude": 46.4312213, "date": {"dim. 05.07.2015": {"weekday": "sunday", "year": 2015, "categories": {"M-HElite": {"pace": 328000000000, "rank": 9, "distance": 19, "time": 6183.5}}, "day": 5, "month": 7, "livingplace": "Vevey"}, "dim. 06.07.2014": {"weekday": "sunday", "year": 2014, "categories": {"M-HElite": {"pace": 333000000000, "rank": 12, "distance": 19, "time": 6269.0}}, "day": 6, "month": 7, "livingplace": "Vevey"}}, "location": "Montreux"}, "Aletsch-Halbmarathon, Bettmeralp": {"race": "Aletsch-Halbmarathon, Bettmeralp", "date": {"dim. 28.06.2015": {"weekday": "sunday", "year": 2015, "categories": {"M20": {"pace": 304000000000, "rank": 11, "distance": 21, "time": 6430.8}}, "day": 28, "month": 6, "livingplace": "Vevey"}}, "location": "Bettmeralp"}}, "name": "Hartmann Nicolas", "birth": 1985}