{"sex": "M", "races": {"Course de l'Escalade, Gen\u00e8ve": {"race": "Course de l'Escalade, Gen\u00e8ve", "longitude": 6.1431577, "latitude": 46.2043907, "date": {"sam. 04.12.2010": {"weekday": "saturday", "year": 2010, "categories": {"H-H1": {"pace": 195000000000, "rank": 10, "distance": 7, "time": 1415.3}}, "day": 4, "month": 12, "livingplace": "Bex"}}, "location": "Gen\u00e8ve"}, "Sierre-Zinal, Sierre": {"race": "Sierre-Zinal, Sierre", "longitude": 7.533536199999999, "latitude": 46.29413110000001, "date": {"dim. 12.08.2012": {"weekday": "sunday", "year": 2012, "categories": {"Elites": {"pace": 391000000000, "rank": 88, "distance": 31, "time": 12124.0}}, "day": 12, "month": 8, "livingplace": "Bex"}}, "location": "Sierre"}, "Lausanne Marathon": {"race": "Lausanne Marathon", "longitude": 6.6322734, "latitude": 46.5196535, "date": {"dim. 28.10.2012": {"weekday": "sunday", "year": 2012, "categories": {"21-H1": {"pace": 223000000000, "rank": 14, "distance": 21, "time": 4725.3}}, "day": 28, "month": 10, "livingplace": "Bex"}}, "location": "Lausanne"}, "IWB Basel Marathon": {"race": "IWB Basel Marathon", "longitude": 7.5885761, "latitude": 47.5595986, "date": {"dim. 28.09.2014": {"weekday": "sunday", "year": 2014, "categories": {"21-M30": {"pace": 226000000000, "rank": 3, "distance": 21, "time": 4782.3}}, "day": 28, "month": 9, "livingplace": "Bex"}}, "location": "Basel"}, "Morat-Fribourg": {"race": "Morat-Fribourg", "longitude": 7.120184, "latitude": 46.92922110000001, "date": {"sam. 05.10.2013": {"weekday": "saturday", "year": 2013, "categories": {"17-M20": {"pace": 233000000000, "rank": 97, "distance": 17, "time": 4076.6}}, "day": 5, "month": 10, "livingplace": "Bex"}}, "location": "Murten"}, "Tour du Chablais #4 St  Maurice": {"race": "Tour du Chablais #4 St  Maurice", "date": {"mer. 24.04.2013": {"weekday": "wednesday", "year": 2013, "categories": {"M-M20": {"pace": 217000000000, "rank": 10, "distance": 10, "time": 2171.3}}, "day": 24, "month": 4, "livingplace": "St Legier"}}, "location": "Les Mosses"}, "Tour du Chablais #6 Mouthey": {"race": "Tour du Chablais #6 Mouthey", "longitude": 6.970566, "latitude": 46.3190253, "date": {"mer. 12.05.2010": {"weekday": "wednesday", "year": 2010, "categories": {"M-M20": {"pace": 213000000000, "rank": 19, "distance": 9, "time": 1963.6}}, "day": 12, "month": 5, "livingplace": "Bex"}}, "location": "Aigle"}}, "name": "Hediger Damien", "birth": 1984}