{"sex": "M", "races": {"Tour du Chablais #1 Montreux": {"race": "Tour du Chablais #1 Montreux", "longitude": 6.9916269, "latitude": 46.2957462, "date": {"mer. 11.04.2012": {"weekday": "wednesday", "year": 2012, "categories": {"M-M20": {"pace": 349000000000, "rank": 204, "distance": 8, "time": 2657.7}}, "day": 11, "month": 4, "livingplace": "Aigle"}}, "location": "Ollon VD"}, "Tour du Chablais #5 Les Mosses": {"race": "Tour du Chablais #5 Les Mosses", "longitude": 6.931504599999999, "latitude": 46.3603257, "date": {"mer. 25.05.2011": {"weekday": "wednesday", "year": 2011, "categories": {"M-M20": {"pace": 339000000000, "rank": 182, "distance": 8, "time": 2717.8}}, "day": 25, "month": 5, "livingplace": "Aigle"}}, "location": "Roche VD"}, "20km de Lausanne": {"race": "20km de Lausanne", "longitude": 6.6322734, "latitude": 46.5196535, "date": {"sam. 26.04.2014": {"weekday": "saturday", "year": 2014, "categories": {"10-H30": {"pace": 335000000000, "rank": 820, "distance": 10, "time": 3356.3}}, "day": 26, "month": 4, "livingplace": "C.Q.C.P."}}, "location": "Lausanne"}, "Tour du Chablais #2 Yvorne": {"race": "Tour du Chablais #2 Yvorne", "longitude": 6.854975199999999, "latitude": 46.3835529, "date": {"mer. 10.04.2013": {"weekday": "wednesday", "year": 2013, "categories": {"M-M20": {"pace": 329000000000, "rank": 185, "distance": 8, "time": 2635.2}}, "day": 10, "month": 4, "livingplace": "Aigle"}}, "location": "Bouveret"}, "Tour du Chablais #4 Champ\u00e9ry": {"race": "Tour du Chablais #4 Champ\u00e9ry", "date": {"mer. 02.05.2012": {"weekday": "wednesday", "year": 2012, "categories": {"M-M20": {"pace": 304000000000, "rank": 155, "distance": 8, "time": 2523.6}}, "day": 2, "month": 5, "livingplace": "Aigle"}}, "location": "Les Mosses"}, "Tour du Chablais #1 Roche": {"race": "Tour du Chablais #1 Roche", "longitude": 6.9916269, "latitude": 46.2957462, "date": {"mer. 03.04.2013": {"weekday": "wednesday", "year": 2013, "categories": {"M-M20": {"pace": 302000000000, "rank": 175, "distance": 9, "time": 2677.3}}, "day": 3, "month": 4, "livingplace": "Aigle"}}, "location": "Ollon VD"}, "Tour du Chablais #6 Montreux": {"race": "Tour du Chablais #6 Montreux", "longitude": 6.970566, "latitude": 46.3190253, "date": {"mer. 16.05.2012": {"weekday": "wednesday", "year": 2012, "categories": {"M-M20": {"pace": 291000000000, "rank": 162, "distance": 9, "time": 2695.2}}, "day": 16, "month": 5, "livingplace": "Aigle"}}, "location": "Aigle"}, "Tour du Chablais #2 Bex": {"race": "Tour du Chablais #2 Bex", "longitude": 6.854975199999999, "latitude": 46.3835529, "date": {"mer. 18.04.2012": {"weekday": "wednesday", "year": 2012, "categories": {"M-M20": {"pace": 305000000000, "rank": 164, "distance": 8, "time": 2445.9}}, "day": 18, "month": 4, "livingplace": "Aigle"}}, "location": "Bouveret"}, "Morat-Fribourg": {"race": "Morat-Fribourg", "longitude": 7.120184, "latitude": 46.92922110000001, "date": {"sam. 06.10.2012": {"weekday": "saturday", "year": 2012, "categories": {"17-M20": {"pace": 328000000000, "rank": 1433, "distance": 17, "time": 5724.6}}, "day": 6, "month": 10, "livingplace": "Aigle"}}, "location": "Murten"}, "Tour du Chablais #6 Aigle": {"race": "Tour du Chablais #6 Aigle", "longitude": 6.970566, "latitude": 46.3190253, "date": {"mer. 01.06.2011": {"weekday": "wednesday", "year": 2011, "categories": {"M-M20": {"pace": 289000000000, "rank": 172, "distance": 10, "time": 2954.5}}, "day": 1, "month": 6, "livingplace": "Aigle"}}, "location": "Aigle"}, "Tour du Chablais #4 Morgins": {"race": "Tour du Chablais #4 Morgins", "date": {"mer. 18.05.2011": {"weekday": "wednesday", "year": 2011, "categories": {"M-M20": {"pace": 344000000000, "rank": 201, "distance": 8, "time": 2875.7}}, "day": 18, "month": 5, "livingplace": "Aigle"}}, "location": "Les Mosses"}}, "name": "Hedinger Patrice", "birth": 1977}