{"sex": "M", "races": {"Z\u00fcrich Marathon, Teamrun und Cityrun": {"race": "Z\u00fcrich Marathon, Teamrun und Cityrun", "longitude": 8.541694, "latitude": 47.3768866, "date": {"dim. 26.04.2009": {"weekday": "sunday", "year": 2009, "categories": {"M30": {"pace": 318000000000, "rank": 548, "distance": 42, "time": 13428.7}}, "day": 26, "month": 4, "livingplace": "Grenchen"}}, "location": "Z\u00fcrich"}, "Kerzerslauf": {"race": "Kerzerslauf", "longitude": 7.1954365, "latitude": 46.97488999999999, "date": {"sam. 16.03.2013": {"weekday": "saturday", "year": 2013, "categories": {"15-M40": {"pace": 229000000000, "rank": 23, "distance": 15, "time": 3439.3}}, "day": 16, "month": 3, "livingplace": "Grenchen"}, "sam. 20.03.2010": {"weekday": "saturday", "year": 2010, "categories": {"15-M35": {"pace": 245000000000, "rank": 90, "distance": 15, "time": 3682.8}}, "day": 20, "month": 3, "livingplace": "Grenchen"}}, "location": "Kerzers"}, "Winterthur Marathon": {"race": "Winterthur Marathon", "longitude": -75.6037351, "latitude": 39.8088766, "date": {"dim. 26.05.2013": {"weekday": "sunday", "year": 2013, "categories": {"5-SLM": {"pace": 370000000000, "rank": 25, "distance": 5, "time": 1927.8}}, "day": 26, "month": 5, "livingplace": "Free Runners Grenchen"}}, "location": "Winterthur"}, "ASICS Bremgarter Reusslauf": {"race": "ASICS Bremgarter Reusslauf", "longitude": 8.3397905, "latitude": 47.34917739999999, "date": {"sam. 28.02.2015": {"weekday": "saturday", "year": 2015, "categories": {"11-M40": {"pace": 236000000000, "rank": 77, "distance": 11, "time": 2604.6}}, "day": 28, "month": 2, "livingplace": "Free Runners Grenchen"}}, "location": "Bremgarten AG"}, "M\u00e4nnlichen Halbmarathon, Grindelwald": {"race": "M\u00e4nnlichen Halbmarathon, Grindelwald", "longitude": 8.0413962, "latitude": 46.624164, "date": {"dim. 03.06.2012": {"weekday": "sunday", "year": 2012, "categories": {"M40": {"pace": 410000000000, "rank": 7, "distance": 21, "time": 8660.5}}, "day": 3, "month": 6, "livingplace": "Grenchen"}}, "location": "Grindelwald"}, "Gippinger Stauseelauf": {"race": "Gippinger Stauseelauf", "longitude": 8.2152586, "latitude": 47.5810513, "date": {"jeu. 31.12.2009": {"weekday": "thursday", "year": 2009, "categories": {"M30": {"pace": 243000000000, "rank": 33, "distance": 8, "time": 1834.5}}, "day": 31, "month": 12, "livingplace": "Grenchen"}}, "location": "Leuggern"}, "Jungfrau-Marathon, Interlaken": {"race": "Jungfrau-Marathon, Interlaken", "date": {"sam. 08.09.2012": {"weekday": "saturday", "year": 2012, "categories": {"SO-M40": {"pace": 355000000000, "rank": 70, "distance": 42, "time": 14983.1}}, "day": 8, "month": 9, "livingplace": "Grenchen"}}, "location": "Interlaken"}, "SwissCityMarathon - Lucerne, Luzern": {"race": "SwissCityMarathon - Lucerne, Luzern", "longitude": 8.3093072, "latitude": 47.05016819999999, "date": {"dim. 26.10.2014": {"weekday": "sunday", "year": 2014, "categories": {"H-M40": {"pace": 243000000000, "rank": 43, "distance": 21, "time": 5128.6}}, "day": 26, "month": 10, "livingplace": "Grenchen"}}, "location": "Luzern"}}, "name": "Hegelbach Patrik", "birth": 1971}