{"sex": "F", "races": {"Tour du Chablais #1 Montreux": {"race": "Tour du Chablais #1 Montreux", "longitude": 6.9916269, "latitude": 46.2957462, "date": {"mer. 11.04.2012": {"weekday": "wednesday", "year": 2012, "categories": {"F-F20": {"pace": 389000000000, "rank": 134, "distance": 8, "time": 2958.0}}, "day": 11, "month": 4, "livingplace": "Bex"}}, "location": "Ollon VD"}, "Tour du Chablais #6 Monthey": {"race": "Tour du Chablais #6 Monthey", "longitude": 6.970566, "latitude": 46.3190253, "date": {"mer. 08.05.2013": {"weekday": "wednesday", "year": 2013, "categories": {"F-F20": {"pace": 359000000000, "rank": 127, "distance": 9, "time": 3357.1}}, "day": 8, "month": 5, "livingplace": "Bex"}}, "location": "Aigle"}, "Tour du Chablais #5 Bex": {"race": "Tour du Chablais #5 Bex", "longitude": 6.931504599999999, "latitude": 46.3603257, "date": {"mer. 09.05.2012": {"weekday": "wednesday", "year": 2012, "categories": {"F-F20": {"pace": 353000000000, "rank": 92, "distance": 9, "time": 3134.8}}, "day": 9, "month": 5, "livingplace": "Bex"}}, "location": "Roche VD"}, "Tour du Chablais #4 St  Maurice": {"race": "Tour du Chablais #4 St  Maurice", "date": {"mer. 24.04.2013": {"weekday": "wednesday", "year": 2013, "categories": {"F-F20": {"pace": 381000000000, "rank": 112, "distance": 10, "time": 3819.9}}, "day": 24, "month": 4, "livingplace": "Bex"}}, "location": "Les Mosses"}, "Tour du Chablais #2 Bex": {"race": "Tour du Chablais #2 Bex", "longitude": 6.854975199999999, "latitude": 46.3835529, "date": {"mer. 18.04.2012": {"weekday": "wednesday", "year": 2012, "categories": {"F-F20": {"pace": 379000000000, "rank": 129, "distance": 8, "time": 3033.9}}, "day": 18, "month": 4, "livingplace": "Bex"}}, "location": "Bouveret"}, "20km de Lausanne": {"race": "20km de Lausanne", "longitude": 6.6322734, "latitude": 46.5196535, "date": {"sam. 25.04.2009": {"weekday": "saturday", "year": 2009, "categories": {"10-F30": {"pace": 381000000000, "rank": 419, "distance": 10, "time": 3815.6}}, "day": 25, "month": 4, "livingplace": "Bex"}, "sam. 28.04.2012": {"weekday": "saturday", "year": 2012, "categories": {"10-F30": {"pace": 388000000000, "rank": 532, "distance": 10, "time": 3882.3}}, "day": 28, "month": 4, "livingplace": "Bex"}}, "location": "Lausanne"}}, "name": "Hehlen Karina", "birth": 1977}