{"sex": "M", "races": {"Corrida Bulloise, Bulle": {"race": "Corrida Bulloise, Bulle", "longitude": 7.057726799999999, "latitude": 46.6154512, "date": {"sam. 21.11.2015": {"weekday": "saturday", "year": 2015, "categories": {"Pop-Hom": {"pace": 388000000000, "rank": 399, "distance": 6, "time": 2387.8}}, "day": 21, "month": 11, "livingplace": "Onnens"}}, "location": "Bulle"}, "Tour du Pays de Vaud #3 - Chavornay": {"race": "Tour du Pays de Vaud #3 - Chavornay", "longitude": 6.641183, "latitude": 46.7784736, "date": {"mer. 28.08.2013": {"weekday": "wednesday", "year": 2013, "categories": {"H-Sen2": {"pace": 247000000000, "rank": 20, "distance": 9, "time": 2203.6}}, "day": 28, "month": 8, "livingplace": "Onnens"}}, "location": "Yverdon-les-Bains"}, "Kerzerslauf": {"race": "Kerzerslauf", "longitude": 7.1954365, "latitude": 46.97488999999999, "date": {"sam. 20.03.2010": {"weekday": "saturday", "year": 2010, "categories": {"15-M35": {"pace": 271000000000, "rank": 180, "distance": 15, "time": 4075.2}}, "day": 20, "month": 3, "livingplace": "Onnens"}}, "location": "Kerzers"}, "Tour du pays de Vaud #1 - Mezi\u00e8res": {"race": "Tour du pays de Vaud #1 - Mezi\u00e8res", "longitude": 6.641183, "latitude": 46.7784736, "date": {"mer. 10.08.2011": {"weekday": "wednesday", "year": 2011, "categories": {"H-Sen1": {"pace": 242000000000, "rank": 21, "distance": 9, "time": 2059.3}}, "day": 10, "month": 8, "livingplace": "Onnens"}}, "location": "Yverdon-les-Bains"}, "Morat-Fribourg": {"race": "Morat-Fribourg", "longitude": 7.120184, "latitude": 46.92922110000001, "date": {"sam. 03.10.2009": {"weekday": "saturday", "year": 2009, "categories": {"C-M20": {"pace": 351000000000, "rank": 1733, "distance": 17, "time": 6036.9}}, "day": 3, "month": 10, "livingplace": "Onnens"}, "sam. 01.10.2011": {"weekday": "saturday", "year": 2011, "categories": {"17-M20": {"pace": 339000000000, "rank": 1512, "distance": 17, "time": 5826.5}}, "day": 1, "month": 10, "livingplace": "Onnens"}, "sam. 02.10.2010": {"weekday": "saturday", "year": 2010, "categories": {"17-M20": {"pace": 364000000000, "rank": 1730, "distance": 17, "time": 6251.1}}, "day": 2, "month": 10, "livingplace": "Onnens"}}, "location": "Murten"}, "20km de Lausanne": {"race": "20km de Lausanne", "longitude": 6.6322734, "latitude": 46.5196535, "date": {"sam. 24.04.2010": {"weekday": "saturday", "year": 2010, "categories": {"10-H30": {"pace": 290000000000, "rank": 209, "distance": 10, "time": 2903.6}}, "day": 24, "month": 4, "livingplace": "Onnens"}, "sam. 30.04.2011": {"weekday": "saturday", "year": 2011, "categories": {"10-H30": {"pace": 264000000000, "rank": 106, "distance": 10, "time": 2640.7}}, "day": 30, "month": 4, "livingplace": "Onnens"}, "sam. 27.04.2013": {"weekday": "saturday", "year": 2013, "categories": {"10-H40": {"pace": 248000000000, "rank": 38, "distance": 10, "time": 2483.5}}, "day": 27, "month": 4, "livingplace": "Yverdon 1"}}, "location": "Lausanne"}, "Tour du pays de Vaud #5 - Penthaz": {"race": "Tour du pays de Vaud #5 - Penthaz", "longitude": 6.539251200000001, "latitude": 46.5993131, "date": {"mer. 07.09.2011": {"weekday": "wednesday", "year": 2011, "categories": {"H-Sen1": {"pace": 282000000000, "rank": 32, "distance": 8, "time": 2361.3}}, "day": 7, "month": 9, "livingplace": "Onnens"}}, "location": "Penthaz"}, "Tour du pays de Vaud #6 - St  Prex": {"race": "Tour du pays de Vaud #6 - St  Prex", "longitude": 6.458343500000001, "latitude": 46.4829113, "date": {"mer. 14.09.2011": {"weekday": "wednesday", "year": 2011, "categories": {"H-Sen1": {"pace": 241000000000, "rank": 26, "distance": 9, "time": 2078.8}}, "day": 14, "month": 9, "livingplace": "Onnens"}}, "location": "St-Prex"}, "Tour du Pays de Vaud printanier #1 Chavornay": {"race": "Tour du Pays de Vaud printanier #1 Chavornay", "longitude": 6.2347852, "latitude": 46.3832683, "date": {"mer. 30.05.2012": {"weekday": "wednesday", "year": 2012, "categories": {"H-Sen2": {"pace": 275000000000, "rank": 21, "distance": 9, "time": 2467.8}}, "day": 30, "month": 5, "livingplace": "Onnens"}}, "location": "Nyon"}, "Tour du Pays de Vaud #2 - Genolier": {"race": "Tour du Pays de Vaud #2 - Genolier", "longitude": 6.7702883, "latitude": 46.5955273, "date": {"mer. 17.08.2011": {"weekday": "wednesday", "year": 2011, "categories": {"H-Sen1": {"pace": 251000000000, "rank": 24, "distance": 9, "time": 2140.7}}, "day": 17, "month": 8, "livingplace": "Onnens"}}, "location": "M\u00e9zi\u00e8res VD"}, "Sierre-Zinal, Sierre": {"race": "Sierre-Zinal, Sierre", "longitude": 7.533536199999999, "latitude": 46.29413110000001, "date": {"dim. 11.08.2013": {"weekday": "sunday", "year": 2013, "categories": {"V\u00e9t_I": {"pace": 564000000000, "rank": 190, "distance": 31, "time": 17495.2}}, "day": 11, "month": 8, "livingplace": "Onnens"}}, "location": "Sierre"}, "Tour du Pays de Vaud printanier #2 Yverdon-les-Bains": {"race": "Tour du Pays de Vaud printanier #2 Yverdon-les-Bains", "longitude": 6.7975224, "latitude": 46.6698891, "date": {"mer. 05.06.2013": {"weekday": "wednesday", "year": 2013, "categories": {"H-Sen2": {"pace": 322000000000, "rank": 56, "distance": 9, "time": 2938.7}}, "day": 5, "month": 6, "livingplace": "Onnens"}, "mer. 11.06.2014": {"weekday": "wednesday", "year": 2014, "categories": {"H-Sen2": {"pace": 260000000000, "rank": 9, "distance": 9, "time": 2373.6}}, "day": 11, "month": 6, "livingplace": "Onnens"}}, "location": "Moudon"}, "Aletsch-Halbmarathon, Bettmeralp": {"race": "Aletsch-Halbmarathon, Bettmeralp", "date": {"dim. 29.06.2014": {"weekday": "sunday", "year": 2014, "categories": {"M40": {"pace": 340000000000, "rank": 52, "distance": 13, "time": 4530.2}}, "day": 29, "month": 6, "livingplace": "Onnens"}, "dim. 28.06.2015": {"weekday": "sunday", "year": 2015, "categories": {"M40": {"pace": 433000000000, "rank": 68, "distance": 21, "time": 9141.0}}, "day": 28, "month": 6, "livingplace": "Onnens"}}, "location": "Bettmeralp"}}, "name": "Hirschi Sacha", "birth": 1972}