{"sex": "F", "races": {"Tour du Pays de Vaud #3 - Chavornay": {"race": "Tour du Pays de Vaud #3 - Chavornay", "longitude": 6.641183, "latitude": 46.7784736, "date": {"mer. 28.08.2013": {"weekday": "wednesday", "year": 2013, "categories": {"D-Sen3": {"pace": 326000000000, "rank": 18, "distance": 9, "time": 2908.3}}, "day": 28, "month": 8, "livingplace": "Etoy"}}, "location": "Yverdon-les-Bains"}, "Tour du Pays de Vaud printanier #3 - Yens": {"race": "Tour du Pays de Vaud printanier #3 - Yens", "longitude": 6.5728678, "latitude": 46.7829756, "date": {"mer. 18.06.2014": {"weekday": "wednesday", "year": 2014, "categories": {"D-Sen3": {"pace": 325000000000, "rank": 6, "distance": 9, "time": 2959.7}}, "day": 18, "month": 6, "livingplace": "Etoy"}}, "location": "Champvent"}, "Tour du Pays de Vaud #4 - La Sarraz": {"race": "Tour du Pays de Vaud #4 - La Sarraz", "longitude": 6.5707689, "latitude": 46.7088129, "date": {"mer. 29.08.2012": {"weekday": "wednesday", "year": 2012, "categories": {"D-Sen3": {"pace": 296000000000, "rank": 7, "distance": 9, "time": 2522.0}}, "day": 29, "month": 8, "livingplace": "Etoy"}, "mer. 04.09.2013": {"weekday": "wednesday", "year": 2013, "categories": {"D-Sen3": {"pace": 330000000000, "rank": 8, "distance": 9, "time": 2807.2}}, "day": 4, "month": 9, "livingplace": "Etoy"}}, "location": "Chavornay"}, "A travers Carouge - Run to Run": {"race": "A travers Carouge - Run to Run", "longitude": 6.1378539, "latitude": 46.1829674, "date": {"sam. 26.09.2009": {"weekday": "saturday", "year": 2009, "categories": {"FIII/5": {"pace": 282000000000, "rank": 1, "distance": 5, "time": 1413.6}}, "day": 26, "month": 9, "livingplace": "Etoy"}}, "location": "Carouge GE"}, "Kerzerslauf": {"race": "Kerzerslauf", "longitude": 7.1954365, "latitude": 46.97488999999999, "date": {"sam. 17.03.2012": {"weekday": "saturday", "year": 2012, "categories": {"15-F50": {"pace": 319000000000, "rank": 46, "distance": 15, "time": 4787.3}}, "day": 17, "month": 3, "livingplace": "Etoy"}}, "location": "Kerzers"}, "Tour du pays de Vaud #1 - Mezi\u00e8res": {"race": "Tour du pays de Vaud #1 - Mezi\u00e8res", "longitude": 6.641183, "latitude": 46.7784736, "date": {"mer. 10.08.2011": {"weekday": "wednesday", "year": 2011, "categories": {"D-Sen3": {"pace": 293000000000, "rank": 2, "distance": 9, "time": 2493.7}}, "day": 10, "month": 8, "livingplace": "Etoy"}}, "location": "Yverdon-les-Bains"}, "Morat-Fribourg": {"race": "Morat-Fribourg", "longitude": 7.120184, "latitude": 46.92922110000001, "date": {"sam. 06.10.2012": {"weekday": "saturday", "year": 2012, "categories": {"17-W50": {"pace": 327000000000, "rank": 38, "distance": 17, "time": 5706.8}}, "day": 6, "month": 10, "livingplace": "Etoy"}}, "location": "Murten"}, "20km de Lausanne": {"race": "20km de Lausanne", "longitude": 6.6322734, "latitude": 46.5196535, "date": {"sam. 24.04.2010": {"weekday": "saturday", "year": 2010, "categories": {"10-F50": {"pace": 318000000000, "rank": 19, "distance": 10, "time": 3180.9}}, "day": 24, "month": 4, "livingplace": "Le CHUV se bouge"}, "sam. 25.04.2009": {"weekday": "saturday", "year": 2009, "categories": {"10-F50": {"pace": 306000000000, "rank": 10, "distance": 10, "time": 3065.8}}, "day": 25, "month": 4, "livingplace": "BCV d'Avantages"}, "sam. 30.04.2011": {"weekday": "saturday", "year": 2011, "categories": {"10-F50": {"pace": 308000000000, "rank": 8, "distance": 10, "time": 3085.3}}, "day": 30, "month": 4, "livingplace": "Se bouger pour sa sante 1"}, "sam. 28.04.2012": {"weekday": "saturday", "year": 2012, "categories": {"10-F50": {"pace": 306000000000, "rank": 9, "distance": 10, "time": 3063.8}}, "day": 28, "month": 4, "livingplace": "Chuv"}, "sam. 22.04.2006": {"weekday": "saturday", "year": 2006, "categories": {"10/F45": {"pace": 329000000000, "rank": 24, "distance": 10, "time": 3299.0}}, "day": 22, "month": 4, "livingplace": "Etoy"}}, "location": "Lausanne"}, "Tour du pays de Vaud #5 - Penthaz": {"race": "Tour du pays de Vaud #5 - Penthaz", "longitude": 6.539251200000001, "latitude": 46.5993131, "date": {"mer. 07.09.2011": {"weekday": "wednesday", "year": 2011, "categories": {"D-Sen3": {"pace": 325000000000, "rank": 5, "distance": 8, "time": 2717.9}}, "day": 7, "month": 9, "livingplace": "Etoy"}}, "location": "Penthaz"}, "Tour du Pays de Vaud printanier #1 Chavornay": {"race": "Tour du Pays de Vaud printanier #1 Chavornay", "longitude": 6.2347852, "latitude": 46.3832683, "date": {"mer. 30.05.2012": {"weekday": "wednesday", "year": 2012, "categories": {"D-Sen3": {"pace": 304000000000, "rank": 2, "distance": 9, "time": 2724.2}}, "day": 30, "month": 5, "livingplace": "Etoy"}}, "location": "Nyon"}, "Schweizer Frauenlauf Bern": {"race": "Schweizer Frauenlauf Bern", "longitude": 7.4474468, "latitude": 46.9479739, "date": {"dim. 10.06.2001": {"weekday": "sunday", "year": 2001, "categories": {"W40": {"pace": 292000000000, "rank": 232, "distance": 5, "time": 1463.1}}, "day": 10, "month": 6, "livingplace": "Bernex"}, "dim. 19.06.2011": {"weekday": "sunday", "year": 2011, "categories": {"10-W50": {"pace": 297000000000, "rank": 48, "distance": 10, "time": 2970.6}}, "day": 19, "month": 6, "livingplace": "Etoy"}}, "location": "Bern"}, "Tour du Pays de Vaud printanier #1 Moudon": {"race": "Tour du Pays de Vaud printanier #1 Moudon", "longitude": 6.2347852, "latitude": 46.3832683, "date": {"mer. 04.06.2014": {"weekday": "wednesday", "year": 2014, "categories": {"D-Sen3": {"pace": 345000000000, "rank": 7, "distance": 8, "time": 2900.1}}, "day": 4, "month": 6, "livingplace": "Etoy"}}, "location": "Nyon"}, "Tour du Pays de Vaud #3 - Mezi\u00e8res": {"race": "Tour du Pays de Vaud #3 - Mezi\u00e8res", "longitude": 6.641183, "latitude": 46.7784736, "date": {"mer. 22.08.2012": {"weekday": "wednesday", "year": 2012, "categories": {"D-Sen3": {"pace": 333000000000, "rank": 9, "distance": 8, "time": 2801.7}}, "day": 22, "month": 8, "livingplace": "Etoy"}}, "location": "Yverdon-les-Bains"}, "Tour du Pays de Vaud #2 - Mezi\u00e8res": {"race": "Tour du Pays de Vaud #2 - Mezi\u00e8res", "longitude": 6.7702883, "latitude": 46.5955273, "date": {"mer. 21.08.2013": {"weekday": "wednesday", "year": 2013, "categories": {"D-Sen3": {"pace": 353000000000, "rank": 13, "distance": 8, "time": 2864.0}}, "day": 21, "month": 8, "livingplace": "Etoy"}}, "location": "M\u00e9zi\u00e8res VD"}, "Tour du pays de Vaud #1 - Penthaz": {"race": "Tour du pays de Vaud #1 - Penthaz", "longitude": 6.539251200000001, "latitude": 46.5993131, "date": {"mer. 08.08.2012": {"weekday": "wednesday", "year": 2012, "categories": {"D-Sen3": {"pace": 309000000000, "rank": 6, "distance": 9, "time": 2644.1}}, "day": 8, "month": 8, "livingplace": "Etoy"}}, "location": "Penthaz"}, "Tour du Pays de Vaud printanier #2 Yverdon-les-Bains": {"race": "Tour du Pays de Vaud printanier #2 Yverdon-les-Bains", "longitude": 6.7975224, "latitude": 46.6698891, "date": {"mer. 11.06.2014": {"weekday": "wednesday", "year": 2014, "categories": {"D-Sen3": {"pace": 353000000000, "rank": 4, "distance": 9, "time": 3217.3}}, "day": 11, "month": 6, "livingplace": "Etoy"}}, "location": "Moudon"}, "Aletsch-Halbmarathon, Bettmeralp": {"race": "Aletsch-Halbmarathon, Bettmeralp", "date": {"dim. 29.06.2014": {"weekday": "sunday", "year": 2014, "categories": {"F55": {"pace": 445000000000, "rank": 11, "distance": 13, "time": 5920.1}}, "day": 29, "month": 6, "livingplace": "Fondation"}}, "location": "Bettmeralp"}, "Tour du Pays de Vaud #2 - Genolier": {"race": "Tour du Pays de Vaud #2 - Genolier", "longitude": 6.7702883, "latitude": 46.5955273, "date": {"mer. 15.08.2012": {"weekday": "wednesday", "year": 2012, "categories": {"D-Sen3": {"pace": 305000000000, "rank": 6, "distance": 9, "time": 2600.7}}, "day": 15, "month": 8, "livingplace": "Etoy"}}, "location": "M\u00e9zi\u00e8res VD"}}, "name": "Hofer Marie", "birth": 1958}