{"sex": "M", "races": {"Badener Limmat-Lauf, Baden": {"race": "Badener Limmat-Lauf, Baden", "longitude": 8.5303972, "latitude": 48.5699281, "date": {"sam. 29.03.2008": {"weekday": "saturday", "year": 2008, "categories": {"M30": {"pace": 269000000000, "rank": 74, "distance": 13, "time": 3559.3}}, "day": 29, "month": 3, "livingplace": "Lauftreff"}}, "location": "Baden"}, "Lenzburger Lauf": {"race": "Lenzburger Lauf", "longitude": 8.172154500000001, "latitude": 47.3904443, "date": {"sam. 24.05.2008": {"weekday": "saturday", "year": 2008, "categories": {"M30": {"pace": 246000000000, "rank": 16, "distance": 12, "time": 3057.4}}, "day": 24, "month": 5, "livingplace": "Wettingen"}}, "location": "Lenzburg"}, "Hallwilerseelauf, Beinwil am See": {"race": "Hallwilerseelauf, Beinwil am See", "date": {"sam. 10.10.2009": {"weekday": "saturday", "year": 2009, "categories": {"T-Mann": {"pace": 262000000000, "rank": 15, "distance": 21, "time": 5539.2}}, "day": 10, "month": 10, "livingplace": "anarchistischer lauftreff"}}, "location": "Beinwil am See"}, "ASICS Bremgarter Reusslauf": {"race": "ASICS Bremgarter Reusslauf", "longitude": 8.3397905, "latitude": 47.34917739999999, "date": {"sam. 23.02.2008": {"weekday": "saturday", "year": 2008, "categories": {"M30": {"pace": 244000000000, "rank": 122, "distance": 11, "time": 2687.0}}, "day": 23, "month": 2, "livingplace": "Wettingen"}}, "location": "Bremgarten AG"}, "Z\u00fcrich Marathon, Teamrun und Cityrun": {"race": "Z\u00fcrich Marathon, Teamrun und Cityrun", "longitude": 8.541694, "latitude": 47.3768866, "date": {"dim. 13.04.2003": {"weekday": "sunday", "year": 2003, "categories": {"M20": {"pace": 315000000000, "rank": 175, "distance": 42, "time": 13320.8}}, "day": 13, "month": 4, "livingplace": "Wettingen"}}, "location": "Z\u00fcrich"}, "Gippinger Stauseelauf": {"race": "Gippinger Stauseelauf", "longitude": 8.2152586, "latitude": 47.5810513, "date": {"mer. 31.12.2008": {"weekday": "wednesday", "year": 2008, "categories": {"M30": {"pace": 252000000000, "rank": 43, "distance": 8, "time": 1904.0}}, "day": 31, "month": 12, "livingplace": "Wettingen"}}, "location": "Leuggern"}, "Jungfrau-Marathon, Interlaken": {"race": "Jungfrau-Marathon, Interlaken", "date": {"sam. 08.09.2007": {"weekday": "saturday", "year": 2007, "categories": {"M20": {"pace": 523000000000, "rank": 934, "distance": 42, "time": 22085.6}}, "day": 8, "month": 9, "livingplace": "Wettingen"}}, "location": "Interlaken"}}, "name": "Hohermuth Andy", "birth": 1978}