{"sex": "M", "races": {"Gurtenclassic, Wabern": {"race": "Gurtenclassic, Wabern", "longitude": 7.448973199999999, "latitude": 46.92901639999999, "date": {"dim. 05.11.2000": {"weekday": "sunday", "year": 2000, "categories": {"M40": {"pace": 346000000000, "rank": 115, "distance": 15, "time": 5232.2}}, "day": 5, "month": 11, "livingplace": "Chur"}}, "location": "Wabern"}, "Altst\u00e4tter St\u00e4dtlilauf": {"race": "Altst\u00e4tter St\u00e4dtlilauf", "date": {"sam. 10.09.2005": {"weekday": "saturday", "year": 2005, "categories": {"VM": {"pace": 365000000000, "rank": 100, "distance": 5, "time": 1792.7}}, "day": 10, "month": 9, "livingplace": "Gams"}}, "location": "Altst\u00e4tten SG"}, "GP Fricktal, Eiken": {"race": "GP Fricktal, Eiken", "date": {"sam. 22.04.2000": {"weekday": "saturday", "year": 2000, "categories": {"13": {"pace": 293000000000, "rank": 141, "distance": 16, "time": 4722.4}}, "day": 22, "month": 4, "livingplace": "Chur"}}, "location": "Eiken"}, "Pfingstlauf Wohlen AG": {"race": "Pfingstlauf Wohlen AG", "longitude": 8.2768762, "latitude": 47.3493653, "date": {"sam. 10.06.2000": {"weekday": "saturday", "year": 2000, "categories": {"13": {"pace": 283000000000, "rank": 107, "distance": 8, "time": 2326.6}}, "day": 10, "month": 6, "livingplace": "Chur"}}, "location": "Wohlen AG"}, "Luzerner Stadtlauf": {"race": "Luzerner Stadtlauf", "longitude": 8.3093072, "latitude": 47.05016819999999, "date": {"sam. 27.04.2002": {"weekday": "saturday", "year": 2002, "categories": {"K/29": {"pace": 313000000000, "rank": 119, "distance": 6, "time": 1724.6}}, "day": 27, "month": 4, "livingplace": "Gams"}}, "location": "Luzern"}, "Dreil\u00e4nder-Lauf, Basel": {"race": "Dreil\u00e4nder-Lauf, Basel", "longitude": 7.5885761, "latitude": 47.5595986, "date": {"dim. 17.05.2009": {"weekday": "sunday", "year": 2009, "categories": {"10M50": {"pace": 381000000000, "rank": 21, "distance": 10, "time": 3851.1}}, "day": 17, "month": 5, "livingplace": "Gams"}}, "location": "Basel"}, "Kerzerslauf": {"race": "Kerzerslauf", "longitude": 7.1954365, "latitude": 46.97488999999999, "date": {"sam. 17.03.2001": {"weekday": "saturday", "year": 2001, "categories": {"M50": {"pace": 309000000000, "rank": 196, "distance": 15, "time": 4641.3}}, "day": 17, "month": 3, "livingplace": "Chur"}, "sam. 18.03.2000": {"weekday": "saturday", "year": 2000, "categories": {"M45": {"pace": 289000000000, "rank": 208, "distance": 15, "time": 4341.4}}, "day": 18, "month": 3, "livingplace": "Chur"}}, "location": "Kerzers"}, "Sihltaler Fr\u00fchlingslauf, Gattikon": {"race": "Sihltaler Fr\u00fchlingslauf, Gattikon", "longitude": 8.5644799, "latitude": 47.2949282, "date": {"ven. 01.05.2009": {"weekday": "friday", "year": 2009, "categories": {"M50": {"pace": 393000000000, "rank": 62, "distance": 10, "time": 3932.9}}, "day": 1, "month": 5, "livingplace": "Slvs"}}, "location": "Gattikon"}}, "name": "Honegger Felix", "birth": 1951}