{"sex": "M", "races": {"Laufsporttag Winterthur": {"race": "Laufsporttag Winterthur", "longitude": -75.6037351, "latitude": 39.8088766, "date": {"sam. 01.03.2014": {"weekday": "saturday", "year": 2014, "categories": {"V": {"pace": 276000000000, "rank": 25, "distance": 1, "time": 331.2}}, "day": 1, "month": 3, "livingplace": "Zurich"}}, "location": "Winterthur"}, "Zumiker-Lauf": {"race": "Zumiker-Lauf", "date": {"sam. 10.05.2014": {"weekday": "saturday", "year": 2014, "categories": {"V": {"pace": 220000000000, "rank": 20, "distance": 1, "time": 264.8}}, "day": 10, "month": 5, "livingplace": "Zurich"}}, "location": "Zumikon"}, "Rheinfall-Lauf, Neuhausen": {"race": "Rheinfall-Lauf, Neuhausen", "longitude": 8.6126098, "latitude": 47.6837423, "date": {"dim. 24.08.2014": {"weekday": "sunday", "year": 2014, "categories": {"V": {"pace": 240000000000, "rank": 9, "distance": 2, "time": 552.5}}, "day": 24, "month": 8, "livingplace": "Zurich"}}, "location": "Neuhausen am Rheinfall"}, "Dietiker Neujahrslauf, Dietikon": {"race": "Dietiker Neujahrslauf, Dietikon", "longitude": 8.39977, "latitude": 47.4053885, "date": {"sam. 11.01.2014": {"weekday": "saturday", "year": 2014, "categories": {"V": {"pace": 293000000000, "rank": 7, "distance": 2, "time": 527.5}}, "day": 11, "month": 1, "livingplace": "Zurich"}, "sam. 10.01.2015": {"weekday": "saturday", "year": 2015, "categories": {"U": {"pace": 303000000000, "rank": 30, "distance": 2, "time": 545.8}}, "day": 10, "month": 1, "livingplace": "Zurich"}}, "location": "Dietikon"}, "T\u00fcrlerseelauf Affoltern am Albis": {"race": "T\u00fcrlerseelauf Affoltern am Albis", "longitude": 8.4540083, "latitude": 47.2795081, "date": {"sam. 30.08.2014": {"weekday": "saturday", "year": 2014, "categories": {"V": {"pace": 312000000000, "rank": 12, "distance": 2, "time": 563.3}}, "day": 30, "month": 8, "livingplace": "Zurich"}}, "location": "Affoltern am Albis"}, "Kerzerslauf": {"race": "Kerzerslauf", "longitude": 7.1954365, "latitude": 46.97488999999999, "date": {"sam. 15.03.2014": {"weekday": "saturday", "year": 2014, "categories": {"2-U10M": {"pace": 271000000000, "rank": 48, "distance": 1, "time": 379.9}}, "day": 15, "month": 3, "livingplace": "Zurich"}}, "location": "Kerzers"}, "M\u00e4nned\u00f6rfler Waldlauf": {"race": "M\u00e4nned\u00f6rfler Waldlauf", "longitude": 8.6946733, "latitude": 47.2574625, "date": {"sam. 29.03.2014": {"weekday": "saturday", "year": 2014, "categories": {"V": {"pace": 325000000000, "rank": 37, "distance": 1, "time": 390.1}}, "day": 29, "month": 3, "livingplace": "Zurich"}}, "location": "M\u00e4nnedorf"}, "Z\u00fcrcher Silvesterlauf, Z\u00fcrich": {"race": "Z\u00fcrcher Silvesterlauf, Z\u00fcrich", "longitude": 8.541694, "latitude": 47.3768866, "date": {"dim. 16.12.2012": {"weekday": "sunday", "year": 2012, "categories": {"Sch\u00fcB1-M": {"pace": 321000000000, "rank": 461, "distance": 1, "time": 450.0}}, "day": 16, "month": 12, "livingplace": "Zurich"}, "dim. 11.12.2011": {"weekday": "sunday", "year": 2011, "categories": {"Sch\u00fcB1-M": {"pace": 328000000000, "rank": 392, "distance": 1, "time": 459.5}}, "day": 11, "month": 12, "livingplace": "Zurich"}, "dim. 14.12.2014": {"weekday": "sunday", "year": 2014, "categories": {"U10M": {"pace": 282000000000, "rank": 81, "distance": 1, "time": 452.5}}, "day": 14, "month": 12, "livingplace": "Zurich"}}, "location": "Z\u00fcrich"}}, "name": "Honzal Jann", "birth": 2005}