{"sex": "M", "races": {"20km de Lausanne": {"race": "20km de Lausanne", "longitude": 6.6322734, "latitude": 46.5196535, "date": {"sam. 24.04.2010": {"weekday": "saturday", "year": 2010, "categories": {"20-H30": {"pace": 278000000000, "rank": 205, "distance": 20, "time": 5572.4}}, "day": 24, "month": 4, "livingplace": "Clinique romande de reada"}}, "location": "Lausanne"}, "Tour du Chablais #6 Monthey": {"race": "Tour du Chablais #6 Monthey", "longitude": 6.970566, "latitude": 46.3190253, "date": {"mer. 08.05.2013": {"weekday": "wednesday", "year": 2013, "categories": {"M-M20": {"pace": 252000000000, "rank": 73, "distance": 9, "time": 2356.8}}, "day": 8, "month": 5, "livingplace": "Grone"}}, "location": "Aigle"}, "Tour du Chablais #1 Roche": {"race": "Tour du Chablais #1 Roche", "longitude": 6.9916269, "latitude": 46.2957462, "date": {"mer. 03.04.2013": {"weekday": "wednesday", "year": 2013, "categories": {"M-M20": {"pace": 249000000000, "rank": 62, "distance": 9, "time": 2207.7}}, "day": 3, "month": 4, "livingplace": "Grone"}}, "location": "Ollon VD"}, "Tour du Chablais #1 Martigny": {"race": "Tour du Chablais #1 Martigny", "longitude": 6.9916269, "latitude": 46.2957462, "date": {"mer. 23.04.2014": {"weekday": "wednesday", "year": 2014, "categories": {"M-M20": {"pace": 244000000000, "rank": 60, "distance": 9, "time": 2074.3}}, "day": 23, "month": 4, "livingplace": "Grone"}}, "location": "Ollon VD"}, "Tour du Chablais #6 Aigle": {"race": "Tour du Chablais #6 Aigle", "longitude": 6.970566, "latitude": 46.3190253, "date": {"mer. 01.06.2011": {"weekday": "wednesday", "year": 2011, "categories": {"M-M20": {"pace": 233000000000, "rank": 48, "distance": 10, "time": 2382.6}}, "day": 1, "month": 6, "livingplace": "Venthone"}}, "location": "Aigle"}, "Tour du Chablais #4 Morgins": {"race": "Tour du Chablais #4 Morgins", "date": {"mer. 18.05.2011": {"weekday": "wednesday", "year": 2011, "categories": {"M-M20": {"pace": 253000000000, "rank": 42, "distance": 8, "time": 2115.4}}, "day": 18, "month": 5, "livingplace": "Venthone"}}, "location": "Les Mosses"}, "Montreux - Les Rochers de Naye": {"race": "Montreux - Les Rochers de Naye", "longitude": 6.9106799, "latitude": 46.4312213, "date": {"dim. 06.07.2014": {"weekday": "sunday", "year": 2014, "categories": {"M-HElite": {"pace": 496000000000, "rank": 176, "distance": 19, "time": 9327.6}}, "day": 6, "month": 7, "livingplace": "Grone"}}, "location": "Montreux"}, "Tour du Chablais #5 Les Mosses": {"race": "Tour du Chablais #5 Les Mosses", "longitude": 6.931504599999999, "latitude": 46.3603257, "date": {"mer. 25.05.2011": {"weekday": "wednesday", "year": 2011, "categories": {"M-M20": {"pace": 254000000000, "rank": 44, "distance": 8, "time": 2037.6}}, "day": 25, "month": 5, "livingplace": "Venthone"}}, "location": "Roche VD"}, "Tour du Chablais #1 Lavey": {"race": "Tour du Chablais #1 Lavey", "longitude": 6.9916269, "latitude": 46.2957462, "date": {"mer. 27.04.2011": {"weekday": "wednesday", "year": 2011, "categories": {"M-M20": {"pace": 237000000000, "rank": 40, "distance": 9, "time": 2141.1}}, "day": 27, "month": 4, "livingplace": "Venthone"}}, "location": "Ollon VD"}, "Tour du Chablais #5 Morgins": {"race": "Tour du Chablais #5 Morgins", "longitude": 6.931504599999999, "latitude": 46.3603257, "date": {"mer. 01.05.2013": {"weekday": "wednesday", "year": 2013, "categories": {"M-M20": {"pace": 272000000000, "rank": 78, "distance": 8, "time": 2070.3}}, "day": 1, "month": 5, "livingplace": "Grone"}}, "location": "Roche VD"}, "Tour du Chablais #4 St  Maurice": {"race": "Tour du Chablais #4 St  Maurice", "date": {"mer. 24.04.2013": {"weekday": "wednesday", "year": 2013, "categories": {"M-M20": {"pace": 259000000000, "rank": 74, "distance": 10, "time": 2595.4}}, "day": 24, "month": 4, "livingplace": "Grone"}}, "location": "Les Mosses"}, "Tour du Chablais #2 Rennaz": {"race": "Tour du Chablais #2 Rennaz", "longitude": 6.854975199999999, "latitude": 46.3835529, "date": {"mer. 04.05.2011": {"weekday": "wednesday", "year": 2011, "categories": {"M-M20": {"pace": 235000000000, "rank": 38, "distance": 9, "time": 2199.0}}, "day": 4, "month": 5, "livingplace": "Venthone"}}, "location": "Bouveret"}}, "name": "Hottinger J\u00e9rome", "birth": 1975}