{"sex": "M", "races": {"Tour du Pays de Vaud printanier #3 - Yens": {"race": "Tour du Pays de Vaud printanier #3 - Yens", "longitude": 6.5728678, "latitude": 46.7829756, "date": {"mer. 12.06.2013": {"weekday": "wednesday", "year": 2013, "categories": {"H-Sen4": {"pace": 344000000000, "rank": 8, "distance": 9, "time": 3134.2}}, "day": 12, "month": 6, "livingplace": "Vuiteboeuf"}}, "location": "Champvent"}, "Tour du Pays de Vaud #4 - La Sarraz": {"race": "Tour du Pays de Vaud #4 - La Sarraz", "longitude": 6.5707689, "latitude": 46.7088129, "date": {"mer. 29.08.2012": {"weekday": "wednesday", "year": 2012, "categories": {"H-Sen4": {"pace": 313000000000, "rank": 16, "distance": 9, "time": 2666.2}}, "day": 29, "month": 8, "livingplace": "Vuiteboeuf"}}, "location": "Chavornay"}, "Tour du Pays de Vaud etape 5 - La Sarraz": {"race": "Tour du Pays de Vaud etape 5 - La Sarraz", "longitude": 6.539251200000001, "latitude": 46.5993131, "date": {"mer. 10.09.2008": {"weekday": "wednesday", "year": 2008, "categories": {"HomSen3": {"pace": 295000000000, "rank": 53, "distance": 9, "time": 2544.5}}, "day": 10, "month": 9, "livingplace": "Vuiteboeuf"}}, "location": "Penthaz"}, "Course de l'Avent, Yverdon": {"race": "Course de l'Avent, Yverdon", "longitude": 7.161971899999999, "latitude": 46.8064773, "date": {"dim. 28.11.2010": {"weekday": "sunday", "year": 2010, "categories": {"E-H63": {"pace": 276000000000, "rank": 6, "distance": 8, "time": 2136.0}}, "day": 28, "month": 11, "livingplace": "Vuiteboeuf"}}, "location": "Fribourg"}, "Morat-Fribourg": {"race": "Morat-Fribourg", "longitude": 7.120184, "latitude": 46.92922110000001, "date": {"sam. 04.10.2008": {"weekday": "saturday", "year": 2008, "categories": {"C-M55": {"pace": 323000000000, "rank": 165, "distance": 17, "time": 5546.0}}, "day": 4, "month": 10, "livingplace": "Vuiteboeuf"}}, "location": "Murten"}, "Aletsch-Halbmarathon, Bettmeralp": {"race": "Aletsch-Halbmarathon, Bettmeralp", "date": {"dim. 29.06.2008": {"weekday": "sunday", "year": 2008, "categories": {"M55": {"pace": 550000000000, "rank": 56, "distance": 21, "time": 11565.6}}, "day": 29, "month": 6, "livingplace": "wasimolo"}}, "location": "Bettmeralp"}}, "name": "Houmard Jacques", "birth": 1951}