{"sex": "F", "races": {"Tour du Chablais #5 Morgins": {"race": "Tour du Chablais #5 Morgins", "longitude": 6.931504599999999, "latitude": 46.3603257, "date": {"mer. 01.05.2013": {"weekday": "wednesday", "year": 2013, "categories": {"F-F50": {"pace": 309000000000, "rank": 7, "distance": 8, "time": 2349.3}}, "day": 1, "month": 5, "livingplace": "Gryon"}}, "location": "Roche VD"}, "Tour du Chablais #6 Monthey": {"race": "Tour du Chablais #6 Monthey", "longitude": 6.970566, "latitude": 46.3190253, "date": {"mer. 08.05.2013": {"weekday": "wednesday", "year": 2013, "categories": {"F-F50": {"pace": 282000000000, "rank": 7, "distance": 9, "time": 2632.0}}, "day": 8, "month": 5, "livingplace": "Gryon"}}, "location": "Aigle"}, "Tour du Chablais #2 Bex": {"race": "Tour du Chablais #2 Bex", "longitude": 6.854975199999999, "latitude": 46.3835529, "date": {"mer. 18.04.2012": {"weekday": "wednesday", "year": 2012, "categories": {"F-F50": {"pace": 299000000000, "rank": 7, "distance": 8, "time": 2393.3}}, "day": 18, "month": 4, "livingplace": "Le Mont Pelerin"}}, "location": "Bouveret"}, "Tour du Chablais #3 Bouveret": {"race": "Tour du Chablais #3 Bouveret", "longitude": 7.0223787, "latitude": 46.1782231, "date": {"mer. 17.04.2013": {"weekday": "wednesday", "year": 2013, "categories": {"F-F50": {"pace": 300000000000, "rank": 8, "distance": 10, "time": 3008.1}}, "day": 17, "month": 4, "livingplace": "Gryon"}}, "location": "Evionnaz"}, "Tour du Chablais #1 Roche": {"race": "Tour du Chablais #1 Roche", "longitude": 6.9916269, "latitude": 46.2957462, "date": {"mer. 03.04.2013": {"weekday": "wednesday", "year": 2013, "categories": {"F-F50": {"pace": 299000000000, "rank": 10, "distance": 9, "time": 2650.2}}, "day": 3, "month": 4, "livingplace": "Gryon"}}, "location": "Ollon VD"}, "Tour du Chablais #1 Martigny": {"race": "Tour du Chablais #1 Martigny", "longitude": 6.9916269, "latitude": 46.2957462, "date": {"mer. 23.04.2014": {"weekday": "wednesday", "year": 2014, "categories": {"F-F50": {"pace": 288000000000, "rank": 6, "distance": 9, "time": 2449.2}}, "day": 23, "month": 4, "livingplace": "Gryon"}}, "location": "Ollon VD"}, "Tour du Chablais #4 St  Maurice": {"race": "Tour du Chablais #4 St  Maurice", "date": {"mer. 24.04.2013": {"weekday": "wednesday", "year": 2013, "categories": {"F-F50": {"pace": 299000000000, "rank": 9, "distance": 10, "time": 2990.8}}, "day": 24, "month": 4, "livingplace": "Gryon"}}, "location": "Les Mosses"}, "20km de Lausanne": {"race": "20km de Lausanne", "longitude": 6.6322734, "latitude": 46.5196535, "date": {"sam. 24.04.2010": {"weekday": "saturday", "year": 2010, "categories": {"10-F50": {"pace": 302000000000, "rank": 9, "distance": 10, "time": 3021.1}}, "day": 24, "month": 4, "livingplace": "Le Mont Pelerin"}, "sam. 25.04.2009": {"weekday": "saturday", "year": 2009, "categories": {"10-F45": {"pace": 294000000000, "rank": 10, "distance": 10, "time": 2944.8}}, "day": 25, "month": 4, "livingplace": "Le Mont Pelerin"}, "sam. 28.04.2012": {"weekday": "saturday", "year": 2012, "categories": {"10-F50": {"pace": 300000000000, "rank": 5, "distance": 10, "time": 3005.0}}, "day": 28, "month": 4, "livingplace": "Le Mont Pelerin"}}, "location": "Lausanne"}}, "name": "Househam Alison", "birth": 1960}