{"sex": "F", "races": {"Tour du Chablais #4 Yvorne": {"race": "Tour du Chablais #4 Yvorne", "date": {"mer. 28.04.2010": {"weekday": "wednesday", "year": 2010, "categories": {"F-F20": {"pace": 361000000000, "rank": 75, "distance": 8, "time": 2996.9}}, "day": 28, "month": 4, "livingplace": "Vouvry"}}, "location": "Les Mosses"}, "Tour du Chablais #3 Bex": {"race": "Tour du Chablais #3 Bex", "longitude": 7.0223787, "latitude": 46.1782231, "date": {"mer. 21.04.2010": {"weekday": "wednesday", "year": 2010, "categories": {"F-F20": {"pace": 335000000000, "rank": 75, "distance": 10, "time": 3353.9}}, "day": 21, "month": 4, "livingplace": "Vouvry"}}, "location": "Evionnaz"}, "Tour du Chablais #1 Roche": {"race": "Tour du Chablais #1 Roche", "longitude": 6.9916269, "latitude": 46.2957462, "date": {"mer. 07.04.2010": {"weekday": "wednesday", "year": 2010, "categories": {"F-F20": {"pace": 332000000000, "rank": 85, "distance": 9, "time": 2971.7}}, "day": 7, "month": 4, "livingplace": "Vouvry"}}, "location": "Ollon VD"}, "Tour du Chablais #2 St-Gingolph": {"race": "Tour du Chablais #2 St-Gingolph", "longitude": 6.854975199999999, "latitude": 46.3835529, "date": {"mer. 14.04.2010": {"weekday": "wednesday", "year": 2010, "categories": {"F-F20": {"pace": 366000000000, "rank": 77, "distance": 8, "time": 3063.8}}, "day": 14, "month": 4, "livingplace": "Vouvry"}}, "location": "Bouveret"}, "20km de Lausanne": {"race": "20km de Lausanne", "longitude": 6.6322734, "latitude": 46.5196535, "date": {"sam. 24.04.2010": {"weekday": "saturday", "year": 2010, "categories": {"10-F30": {"pace": 342000000000, "rank": 187, "distance": 10, "time": 3420.1}}, "day": 24, "month": 4, "livingplace": "Vouvry"}}, "location": "Lausanne"}, "Tour du Chablais #6 Mouthey": {"race": "Tour du Chablais #6 Mouthey", "longitude": 6.970566, "latitude": 46.3190253, "date": {"mer. 12.05.2010": {"weekday": "wednesday", "year": 2010, "categories": {"F-F20": {"pace": 325000000000, "rank": 73, "distance": 9, "time": 2990.7}}, "day": 12, "month": 5, "livingplace": "Vouvry"}}, "location": "Aigle"}}, "name": "Hoxha Valbone", "birth": 1971}