{"sex": "M", "races": {"Tour du Chablais #6 Montreux": {"race": "Tour du Chablais #6 Montreux", "longitude": 6.970566, "latitude": 46.3190253, "date": {"mer. 16.05.2012": {"weekday": "wednesday", "year": 2012, "categories": {"M-M20": {"pace": 298000000000, "rank": 185, "distance": 9, "time": 2758.2}}, "day": 16, "month": 5, "livingplace": "Sembrancher"}}, "location": "Aigle"}, "Tour du Chablais #1 Montreux": {"race": "Tour du Chablais #1 Montreux", "longitude": 6.9916269, "latitude": 46.2957462, "date": {"mer. 11.04.2012": {"weekday": "wednesday", "year": 2012, "categories": {"M-M20": {"pace": 335000000000, "rank": 191, "distance": 8, "time": 2550.3}}, "day": 11, "month": 4, "livingplace": "Sembrancher"}}, "location": "Ollon VD"}, "Tour du Chablais #2 Bex": {"race": "Tour du Chablais #2 Bex", "longitude": 6.854975199999999, "latitude": 46.3835529, "date": {"mer. 18.04.2012": {"weekday": "wednesday", "year": 2012, "categories": {"M-M20": {"pace": 322000000000, "rank": 190, "distance": 8, "time": 2583.2}}, "day": 18, "month": 4, "livingplace": "Sembrancher"}}, "location": "Bouveret"}, "Tour du Chablais #1 Roche": {"race": "Tour du Chablais #1 Roche", "longitude": 6.9916269, "latitude": 46.2957462, "date": {"mer. 03.04.2013": {"weekday": "wednesday", "year": 2013, "categories": {"M-M20": {"pace": 261000000000, "rank": 88, "distance": 9, "time": 2319.3}}, "day": 3, "month": 4, "livingplace": "Sembrancher"}}, "location": "Ollon VD"}, "Tour du Chablais #1 Martigny": {"race": "Tour du Chablais #1 Martigny", "longitude": 6.9916269, "latitude": 46.2957462, "date": {"mer. 23.04.2014": {"weekday": "wednesday", "year": 2014, "categories": {"M-M20": {"pace": 264000000000, "rank": 107, "distance": 9, "time": 2251.9}}, "day": 23, "month": 4, "livingplace": "Sembrancher"}}, "location": "Ollon VD"}, "Morat-Fribourg": {"race": "Morat-Fribourg", "longitude": 7.120184, "latitude": 46.92922110000001, "date": {"sam. 05.10.2013": {"weekday": "saturday", "year": 2013, "categories": {"17-M20": {"pace": 306000000000, "rank": 1334, "distance": 17, "time": 5348.6}}, "day": 5, "month": 10, "livingplace": "Sembrancher"}}, "location": "Murten"}, "20km de Lausanne": {"race": "20km de Lausanne", "longitude": 6.6322734, "latitude": 46.5196535, "date": {"sam. 30.04.2011": {"weekday": "saturday", "year": 2011, "categories": {"10-H30": {"pace": 298000000000, "rank": 356, "distance": 10, "time": 2988.1}}, "day": 30, "month": 4, "livingplace": "Sembrancher"}, "sam. 28.04.2012": {"weekday": "saturday", "year": 2012, "categories": {"10-H30": {"pace": 319000000000, "rank": 528, "distance": 10, "time": 3193.4}}, "day": 28, "month": 4, "livingplace": "Sembrancher"}}, "location": "Lausanne"}, "Tour du pays de Vaud #5 - Penthaz": {"race": "Tour du pays de Vaud #5 - Penthaz", "longitude": 6.539251200000001, "latitude": 46.5993131, "date": {"mer. 07.09.2011": {"weekday": "wednesday", "year": 2011, "categories": {"H-Sen1": {"pace": 329000000000, "rank": 93, "distance": 8, "time": 2750.5}}, "day": 7, "month": 9, "livingplace": "Sembrancher"}}, "location": "Penthaz"}, "Tour du Chablais #4 Champ\u00e9ry": {"race": "Tour du Chablais #4 Champ\u00e9ry", "date": {"mer. 02.05.2012": {"weekday": "wednesday", "year": 2012, "categories": {"M-M20": {"pace": 309000000000, "rank": 164, "distance": 8, "time": 2570.9}}, "day": 2, "month": 5, "livingplace": "Sembrancher"}}, "location": "Les Mosses"}, "Tour du Chablais #5 Les Mosses": {"race": "Tour du Chablais #5 Les Mosses", "longitude": 6.931504599999999, "latitude": 46.3603257, "date": {"mer. 25.05.2011": {"weekday": "wednesday", "year": 2011, "categories": {"M-M20": {"pace": 310000000000, "rank": 150, "distance": 8, "time": 2483.1}}, "day": 25, "month": 5, "livingplace": "Sembrancher"}}, "location": "Roche VD"}, "Tour du Chablais #5 Bex": {"race": "Tour du Chablais #5 Bex", "longitude": 6.931504599999999, "latitude": 46.3603257, "date": {"mer. 09.05.2012": {"weekday": "wednesday", "year": 2012, "categories": {"M-M20": {"pace": 304000000000, "rank": 151, "distance": 9, "time": 2701.3}}, "day": 9, "month": 5, "livingplace": "Sembrancher"}}, "location": "Roche VD"}, "Lausanne Marathon": {"race": "Lausanne Marathon", "longitude": 6.6322734, "latitude": 46.5196535, "date": {"dim. 31.10.2010": {"weekday": "sunday", "year": 2010, "categories": {"10-H2": {"pace": 304000000000, "rank": 324, "distance": 10, "time": 3043.2}}, "day": 31, "month": 10, "livingplace": "La Tour de Peilz"}, "dim. 27.10.2013": {"weekday": "sunday", "year": 2013, "categories": {"21-H2": {"pace": 320000000000, "rank": 610, "distance": 21, "time": 6752.8}}, "day": 27, "month": 10, "livingplace": "Sembrancher"}}, "location": "Lausanne"}, "Tour du Chablais #3 Collombey-Muraz": {"race": "Tour du Chablais #3 Collombey-Muraz", "longitude": 7.0223787, "latitude": 46.1782231, "date": {"mer. 25.04.2012": {"weekday": "wednesday", "year": 2012, "categories": {"M-M20": {"pace": 309000000000, "rank": 164, "distance": 9, "time": 2778.1}}, "day": 25, "month": 4, "livingplace": "Sembrancher"}}, "location": "Evionnaz"}, "ASICS Bremgarter Reusslauf": {"race": "ASICS Bremgarter Reusslauf", "longitude": 8.3397905, "latitude": 47.34917739999999, "date": {"sam. 23.02.2013": {"weekday": "saturday", "year": 2013, "categories": {"11-M30": {"pace": 284000000000, "rank": 228, "distance": 11, "time": 3130.5}}, "day": 23, "month": 2, "livingplace": "Sembrancher"}}, "location": "Bremgarten AG"}, "Kerzerslauf": {"race": "Kerzerslauf", "longitude": 7.1954365, "latitude": 46.97488999999999, "date": {"sam. 19.03.2011": {"weekday": "saturday", "year": 2011, "categories": {"15-M20": {"pace": 330000000000, "rank": 453, "distance": 15, "time": 4964.8}}, "day": 19, "month": 3, "livingplace": "La Tour de Peilz"}, "sam. 16.03.2013": {"weekday": "saturday", "year": 2013, "categories": {"15-M20": {"pace": 281000000000, "rank": 291, "distance": 15, "time": 4221.4}}, "day": 16, "month": 3, "livingplace": "Sembrancher"}}, "location": "Kerzers"}}, "name": "Hughes Lee", "birth": 1979}