{"sex": "M", "races": {"BCN Tour #4 Fleurier": {"race": "BCN Tour #4 Fleurier", "longitude": 6.832783800000001, "latitude": 47.1034892, "date": {"mer. 15.05.2013": {"weekday": "wednesday", "year": 2013, "categories": {"HE": {"pace": 261000000000, "rank": 59, "distance": 9, "time": 2261.6}}, "day": 15, "month": 5, "livingplace": "Cormondreche"}}, "location": "La Chaux-de-Fonds"}, "BCN Tour #3 Dombresson": {"race": "BCN Tour #3 Dombresson", "longitude": 6.733554799999999, "latitude": 46.999113, "date": {"mer. 08.05.2013": {"weekday": "wednesday", "year": 2013, "categories": {"HE": {"pace": 259000000000, "rank": 71, "distance": 10, "time": 2566.9}}, "day": 8, "month": 5, "livingplace": "Cormondreche"}}, "location": "Les Ponts-de-Martel"}, "BCN Tour #1 Corcelles": {"race": "BCN Tour #1 Corcelles", "longitude": 6.8589727, "latitude": 46.9668714, "date": {"mer. 24.04.2013": {"weekday": "wednesday", "year": 2013, "categories": {"HE": {"pace": 266000000000, "rank": 64, "distance": 10, "time": 2608.7}}, "day": 24, "month": 4, "livingplace": "Cormondreche"}}, "location": "Colombier NE"}, "Course p\u00e9destre Thyon-Dixence, Thyon": {"race": "Course p\u00e9destre Thyon-Dixence, Thyon", "date": {"dim. 04.08.2013": {"weekday": "sunday", "year": 2013, "categories": {"HomElite": {"pace": 417000000000, "rank": 70, "distance": 16, "time": 6824.1}}, "day": 4, "month": 8, "livingplace": "Cormondreche"}}, "location": "Thyon-Les Collons"}, "La Trotteuse-Tissot, La Chaux-de-Fonds": {"race": "La Trotteuse-Tissot, La Chaux-de-Fonds", "longitude": 6.832783800000001, "latitude": 47.1034892, "date": {"sam. 12.12.2015": {"weekday": "saturday", "year": 2015, "categories": {"GC-H20": {"pace": 242000000000, "rank": 35, "distance": 8, "time": 1942.8}}, "day": 12, "month": 12, "livingplace": "Cormondreche"}, "sam. 13.12.2014": {"weekday": "saturday", "year": 2014, "categories": {"GC-H20": {"pace": 249000000000, "rank": 40, "distance": 8, "time": 1992.8}}, "day": 13, "month": 12, "livingplace": "Cormondreche"}}, "location": "La Chaux-de-Fonds"}, "BCN Tour Boudry": {"race": "BCN Tour Boudry", "longitude": 6.8589727, "latitude": 46.9668714, "date": {"mer. 26.04.2006": {"weekday": "wednesday", "year": 2006, "categories": {"HJ": {"pace": 278000000000, "rank": 24, "distance": 10, "time": 2836.5}}, "day": 26, "month": 4, "livingplace": "Cormondreche"}}, "location": "Colombier NE"}, "Morat-Fribourg": {"race": "Morat-Fribourg", "longitude": 7.120184, "latitude": 46.92922110000001, "date": {"sam. 02.10.2010": {"weekday": "saturday", "year": 2010, "categories": {"17-M20": {"pace": 346000000000, "rank": 1569, "distance": 17, "time": 5947.6}}, "day": 2, "month": 10, "livingplace": "Cormondreche"}, "sam. 05.10.2013": {"weekday": "saturday", "year": 2013, "categories": {"17-M20": {"pace": 272000000000, "rank": 548, "distance": 17, "time": 4755.0}}, "day": 5, "month": 10, "livingplace": "Cormondreche"}}, "location": "Murten"}, "BCN Tour #2 La Chaux-de-Fonds": {"race": "BCN Tour #2 La Chaux-de-Fonds", "longitude": 6.9175754, "latitude": 47.0624261, "date": {"mer. 01.05.2013": {"weekday": "wednesday", "year": 2013, "categories": {"HE": {"pace": 258000000000, "rank": 58, "distance": 11, "time": 2767.3}}, "day": 1, "month": 5, "livingplace": "Cormondreche"}}, "location": "Ch\u00e9zard-St-Martin"}, "BCN Tour #5 Colombier": {"race": "BCN Tour #5 Colombier", "longitude": 6.6324944, "latitude": 46.9262933, "date": {"mer. 22.05.2013": {"weekday": "wednesday", "year": 2013, "categories": {"HE": {"pace": 240000000000, "rank": 53, "distance": 11, "time": 2523.8}}, "day": 22, "month": 5, "livingplace": "Cormondreche"}}, "location": "Couvet"}, "BCN Tour #6 Neuch\u00e2tel": {"race": "BCN Tour #6 Neuch\u00e2tel", "longitude": 6.9292732, "latitude": 46.9899874, "date": {"mer. 29.05.2013": {"weekday": "wednesday", "year": 2013, "categories": {"HE": {"pace": 266000000000, "rank": 52, "distance": 11, "time": 2931.4}}, "day": 29, "month": 5, "livingplace": "Cormondreche"}}, "location": "Neuch\u00e2tel"}, "BCN Tour Colombier": {"race": "BCN Tour Colombier", "longitude": 6.8589727, "latitude": 46.9668714, "date": {"mer. 23.04.2008": {"weekday": "wednesday", "year": 2008, "categories": {"HE": {"pace": 276000000000, "rank": 28, "distance": 10, "time": 2816.7}}, "day": 23, "month": 4, "livingplace": "Cormondreche"}}, "location": "Colombier NE"}, "Lausanne Marathon": {"race": "Lausanne Marathon", "longitude": 6.6322734, "latitude": 46.5196535, "date": {"dim. 26.10.2014": {"weekday": "sunday", "year": 2014, "categories": {"21-H20": {"pace": 266000000000, "rank": 97, "distance": 21, "time": 5631.9}}, "day": 26, "month": 10, "livingplace": "Cormondreche"}}, "location": "Lausanne"}}, "name": "Hunkeler Timoth\u00e9e", "birth": 1988}