{"sex": "M", "races": {"Laufsporttag Winterthur": {"race": "Laufsporttag Winterthur", "longitude": -75.6037351, "latitude": 39.8088766, "date": {"sam. 01.03.2008": {"weekday": "saturday", "year": 2008, "categories": {"C": {"pace": 200000000000, "rank": 1, "distance": 11, "time": 2205.5}}, "day": 1, "month": 3, "livingplace": "Benken"}}, "location": "Winterthur"}, "Aegeriseelauf, Ober\u00e4geri": {"race": "Aegeriseelauf, Ober\u00e4geri", "date": {"ven. 24.07.2009": {"weekday": "friday", "year": 2009, "categories": {"S2": {"pace": 204000000000, "rank": 7, "distance": 15, "time": 2972.4}}, "day": 24, "month": 7, "livingplace": "Benken"}}, "location": "Ober\u00e4geri"}, "Bieler Lauftage, Biel Bienne": {"race": "Bieler Lauftage, Biel Bienne", "longitude": 7.2467909, "latitude": 47.1367785, "date": {"ven. 15.06.2007": {"weekday": "friday", "year": 2007, "categories": {"100/M35": {"pace": 267000000000, "rank": 1, "distance": 100, "time": 26769.2}}, "day": 15, "month": 6, "livingplace": "Benken"}, "ven. 13.06.2008": {"weekday": "friday", "year": 2008, "categories": {"TS1/M40": {"pace": 238000000000, "rank": 1, "distance": 39, "time": 9195.8}}, "day": 13, "month": 6, "livingplace": "Benken"}}, "location": "Biel/Bienne"}, "Zumiker-Lauf": {"race": "Zumiker-Lauf", "date": {"sam. 24.05.2008": {"weekday": "saturday", "year": 2008, "categories": {"C": {"pace": 155000000000, "rank": 1, "distance": 15, "time": 2314.9}}, "day": 24, "month": 5, "livingplace": "Saucony"}, "sam. 08.06.2013": {"weekday": "saturday", "year": 2013, "categories": {"C": {"pace": 217000000000, "rank": 2, "distance": 11, "time": 2436.3}}, "day": 8, "month": 6, "livingplace": "Oberurnen"}}, "location": "Zumikon"}, "Schlosslauf Rapperswil-Jona": {"race": "Schlosslauf Rapperswil-Jona", "longitude": 8.818437399999999, "latitude": 47.2266239, "date": {"dim. 08.10.2006": {"weekday": "sunday", "year": 2006, "categories": {"M2": {"pace": 213000000000, "rank": 4, "distance": 9, "time": 1930.3}}, "day": 8, "month": 10, "livingplace": "Benken"}, "dim. 09.10.2005": {"weekday": "sunday", "year": 2005, "categories": {"M2": {"pace": 209000000000, "rank": 6, "distance": 9, "time": 1894.0}}, "day": 9, "month": 10, "livingplace": "Benken"}}, "location": "Rapperswil SG"}, "Rheinfall-Lauf, Neuhausen": {"race": "Rheinfall-Lauf, Neuhausen", "longitude": 8.6126098, "latitude": 47.6837423, "date": {"dim. 18.08.2013": {"weekday": "sunday", "year": 2013, "categories": {"C": {"pace": 228000000000, "rank": 2, "distance": 20, "time": 4621.7}}, "day": 18, "month": 8, "livingplace": "Oberurnen"}}, "location": "Neuhausen am Rheinfall"}, "Dietiker Neujahrslauf, Dietikon": {"race": "Dietiker Neujahrslauf, Dietikon", "longitude": 8.39977, "latitude": 47.4053885, "date": {"sam. 12.01.2008": {"weekday": "saturday", "year": 2008, "categories": {"C": {"pace": 208000000000, "rank": 2, "distance": 12, "time": 2527.6}}, "day": 12, "month": 1, "livingplace": "Benken"}}, "location": "Dietikon"}, "Basler Marathon-Tage": {"race": "Basler Marathon-Tage", "longitude": 7.5885761, "latitude": 47.5595986, "date": {"sam. 30.10.2004": {"weekday": "saturday", "year": 2004, "categories": {"B - M30": {"pace": 231000000000, "rank": 1, "distance": 42, "time": 9752.0}}, "day": 30, "month": 10, "livingplace": "Benken"}}, "location": "Basel"}, "Neujahrsmarathon Z\u00fcrich, Schlieren": {"race": "Neujahrsmarathon Z\u00fcrich, Schlieren", "longitude": 8.448795, "latitude": 47.3982611, "date": {"mar. 01.01.2008": {"weekday": "tuesday", "year": 2008, "categories": {"MaraM": {"pace": 225000000000, "rank": 1, "distance": 42, "time": 9500.1}}, "day": 1, "month": 1, "livingplace": "Benken"}}, "location": "Schlieren"}, "Int Greifenseelauf, Uster": {"race": "Int Greifenseelauf, Uster", "longitude": 8.717873899999999, "latitude": 47.3482747, "date": {"sam. 16.09.2006": {"weekday": "saturday", "year": 2006, "categories": {"H/M35": {"pace": 237000000000, "rank": 32, "distance": 21, "time": 5019.0}}, "day": 16, "month": 9, "livingplace": "Benken"}}, "location": "Uster"}, "R\u00fctilauf, R\u00fcti ZH": {"race": "R\u00fctilauf, R\u00fcti ZH", "longitude": 8.854421, "latitude": 47.2566995, "date": {"sam. 24.08.2013": {"weekday": "saturday", "year": 2013, "categories": {"C": {"pace": 213000000000, "rank": 3, "distance": 11, "time": 2413.3}}, "day": 24, "month": 8, "livingplace": "Oberurnen"}}, "location": "R\u00fcti ZH"}}, "name": "Hunold Pius", "birth": 1968}