{"sex": "M", "races": {"Int Greifenseelauf, Uster": {"race": "Int Greifenseelauf, Uster", "longitude": 8.717873899999999, "latitude": 47.3482747, "date": {"sam. 22.09.2007": {"weekday": "saturday", "year": 2007, "categories": {"H/M45": {"pace": 296000000000, "rank": 266, "distance": 21, "time": 6263.4}}, "day": 22, "month": 9, "livingplace": "Staufen"}}, "location": "Uster"}, "Lenzburger Stadtlauf": {"race": "Lenzburger Stadtlauf", "longitude": 8.172154500000001, "latitude": 47.3904443, "date": {"sam. 22.05.2004": {"weekday": "saturday", "year": 2004, "categories": {"31": {"pace": 432000000000, "rank": 28, "distance": 2, "time": 1060.3}}, "day": 22, "month": 5, "livingplace": "Lenzburg"}}, "location": "Lenzburg"}, "Hallwilerseelauf, Beinwil am See": {"race": "Hallwilerseelauf, Beinwil am See", "date": {"sam. 14.10.2000": {"weekday": "saturday", "year": 2000, "categories": {"13": {"pace": 280000000000, "rank": 212, "distance": 21, "time": 5914.3}}, "day": 14, "month": 10, "livingplace": "Lenzburg"}}, "location": "Beinwil am See"}, "Thuner Stadtlauf, Thun": {"race": "Thuner Stadtlauf, Thun", "longitude": 7.6279881, "latitude": 46.7579868, "date": {"dim. 05.09.2004": {"weekday": "sunday", "year": 2004, "categories": {"M40": {"pace": 282000000000, "rank": 77, "distance": 10, "time": 2824.5}}, "day": 5, "month": 9, "livingplace": "Staufen"}}, "location": "Thun"}, "Kerzerslauf": {"race": "Kerzerslauf", "longitude": 7.1954365, "latitude": 46.97488999999999, "date": {"sam. 18.03.2006": {"weekday": "saturday", "year": 2006, "categories": {"M45": {"pace": 293000000000, "rank": 261, "distance": 15, "time": 4406.7}}, "day": 18, "month": 3, "livingplace": "Staufen"}, "sam. 17.03.2007": {"weekday": "saturday", "year": 2007, "categories": {"M45": {"pace": 281000000000, "rank": 213, "distance": 15, "time": 4219.8}}, "day": 17, "month": 3, "livingplace": "Staufen"}}, "location": "Kerzers"}, "Morat-Fribourg": {"race": "Morat-Fribourg", "longitude": 7.120184, "latitude": 46.92922110000001, "date": {"sam. 06.10.2007": {"weekday": "saturday", "year": 2007, "categories": {"C/M45": {"pace": 287000000000, "rank": 220, "distance": 17, "time": 4939.1}}, "day": 6, "month": 10, "livingplace": "Staufen"}}, "location": "Murten"}}, "name": "Hunziker Martin", "birth": 1960}