{"sex": "M", "races": {"Tour du Chablais #4 Champ\u00e9ry": {"race": "Tour du Chablais #4 Champ\u00e9ry", "date": {"mer. 02.05.2012": {"weekday": "wednesday", "year": 2012, "categories": {"M-M40": {"pace": 319000000000, "rank": 124, "distance": 8, "time": 2652.9}}, "day": 2, "month": 5, "livingplace": "Ollon"}}, "location": "Les Mosses"}, "Tour du Chablais #4 Morgins": {"race": "Tour du Chablais #4 Morgins", "date": {"mer. 18.05.2011": {"weekday": "wednesday", "year": 2011, "categories": {"M-M40": {"pace": 320000000000, "rank": 117, "distance": 8, "time": 2672.4}}, "day": 18, "month": 5, "livingplace": "Ollon"}}, "location": "Les Mosses"}, "Tour du Chablais #4 Yvorne": {"race": "Tour du Chablais #4 Yvorne", "date": {"mer. 28.04.2010": {"weekday": "wednesday", "year": 2010, "categories": {"M-M20": {"pace": 335000000000, "rank": 170, "distance": 8, "time": 2778.1}}, "day": 28, "month": 4, "livingplace": "Ollon"}}, "location": "Les Mosses"}, "Tour du Chablais #1 Roche": {"race": "Tour du Chablais #1 Roche", "longitude": 6.9916269, "latitude": 46.2957462, "date": {"mer. 07.04.2010": {"weekday": "wednesday", "year": 2010, "categories": {"M-M20": {"pace": 304000000000, "rank": 178, "distance": 9, "time": 2725.5}}, "day": 7, "month": 4, "livingplace": "Ollon"}}, "location": "Ollon VD"}, "Tour du Chablais #1 Martigny": {"race": "Tour du Chablais #1 Martigny", "longitude": 6.9916269, "latitude": 46.2957462, "date": {"mer. 23.04.2014": {"weekday": "wednesday", "year": 2014, "categories": {"M-M40": {"pace": 292000000000, "rank": 87, "distance": 9, "time": 2487.2}}, "day": 23, "month": 4, "livingplace": "Bex"}}, "location": "Ollon VD"}, "Tour du Chablais #2 Bex": {"race": "Tour du Chablais #2 Bex", "longitude": 6.854975199999999, "latitude": 46.3835529, "date": {"mer. 18.04.2012": {"weekday": "wednesday", "year": 2012, "categories": {"M-M40": {"pace": 322000000000, "rank": 138, "distance": 8, "time": 2580.1}}, "day": 18, "month": 4, "livingplace": "Ollon"}}, "location": "Bouveret"}, "Montreux - Les Rochers de Naye": {"race": "Montreux - Les Rochers de Naye", "longitude": 6.9106799, "latitude": 46.4312213, "date": {"dim. 11.07.2010": {"weekday": "sunday", "year": 2010, "categories": {"M-V\u00e9t1": {"pace": 623000000000, "rank": 205, "distance": 19, "time": 11730.0}}, "day": 11, "month": 7, "livingplace": "Ollon"}}, "location": "Montreux"}, "20km de Lausanne": {"race": "20km de Lausanne", "longitude": 6.6322734, "latitude": 46.5196535, "date": {"sam. 25.04.2009": {"weekday": "saturday", "year": 2009, "categories": {"10-H30": {"pace": 302000000000, "rank": 358, "distance": 10, "time": 3024.8}}, "day": 25, "month": 4, "livingplace": "Ollon"}, "sam. 28.04.2007": {"weekday": "saturday", "year": 2007, "categories": {"10H30": {"pace": 291000000000, "rank": 233, "distance": 10, "time": 2917.7}}, "day": 28, "month": 4, "livingplace": "Ollon"}, "sam. 22.04.2006": {"weekday": "saturday", "year": 2006, "categories": {"10/H30": {"pace": 314000000000, "rank": 253, "distance": 10, "time": 3140.2}}, "day": 22, "month": 4, "livingplace": "Ollon"}}, "location": "Lausanne"}, "Tour du Chablais #6 Mouthey": {"race": "Tour du Chablais #6 Mouthey", "longitude": 6.970566, "latitude": 46.3190253, "date": {"mer. 12.05.2010": {"weekday": "wednesday", "year": 2010, "categories": {"M-M20": {"pace": 294000000000, "rank": 177, "distance": 9, "time": 2706.7}}, "day": 12, "month": 5, "livingplace": "Ollon"}}, "location": "Aigle"}, "Tour du Chablais #6 Aigle": {"race": "Tour du Chablais #6 Aigle", "longitude": 6.970566, "latitude": 46.3190253, "date": {"mer. 01.06.2011": {"weekday": "wednesday", "year": 2011, "categories": {"M-M40": {"pace": 293000000000, "rank": 109, "distance": 10, "time": 2991.3}}, "day": 1, "month": 6, "livingplace": "Ollon"}}, "location": "Aigle"}, "Tour du Chablais #5 Leysin": {"race": "Tour du Chablais #5 Leysin", "longitude": 6.931504599999999, "latitude": 46.3603257, "date": {"mer. 05.05.2010": {"weekday": "wednesday", "year": 2010, "categories": {"M-M20": {"pace": 334000000000, "rank": 127, "distance": 8, "time": 2827.4}}, "day": 5, "month": 5, "livingplace": "Ollon"}}, "location": "Roche VD"}, "Tour du Chablais #5 Les Mosses": {"race": "Tour du Chablais #5 Les Mosses", "longitude": 6.931504599999999, "latitude": 46.3603257, "date": {"mer. 25.05.2011": {"weekday": "wednesday", "year": 2011, "categories": {"M-M40": {"pace": 327000000000, "rank": 98, "distance": 8, "time": 2617.6}}, "day": 25, "month": 5, "livingplace": "Ollon"}}, "location": "Roche VD"}, "Tour du Chablais #1 Lavey": {"race": "Tour du Chablais #1 Lavey", "longitude": 6.9916269, "latitude": 46.2957462, "date": {"mer. 27.04.2011": {"weekday": "wednesday", "year": 2011, "categories": {"M-M40": {"pace": 285000000000, "rank": 90, "distance": 9, "time": 2568.6}}, "day": 27, "month": 4, "livingplace": "Ollon"}}, "location": "Ollon VD"}, "Tour du Chablais #5 Bex": {"race": "Tour du Chablais #5 Bex", "longitude": 6.931504599999999, "latitude": 46.3603257, "date": {"mer. 09.05.2012": {"weekday": "wednesday", "year": 2012, "categories": {"M-M40": {"pace": 310000000000, "rank": 110, "distance": 9, "time": 2754.2}}, "day": 9, "month": 5, "livingplace": "Ollon"}}, "location": "Roche VD"}, "Tour du Chablais #3 Bex": {"race": "Tour du Chablais #3 Bex", "longitude": 7.0223787, "latitude": 46.1782231, "date": {"mer. 21.04.2010": {"weekday": "wednesday", "year": 2010, "categories": {"M-M20": {"pace": 312000000000, "rank": 166, "distance": 10, "time": 3123.3}}, "day": 21, "month": 4, "livingplace": "Ollon"}}, "location": "Evionnaz"}, "Tour du Chablais #1 Montreux": {"race": "Tour du Chablais #1 Montreux", "longitude": 6.9916269, "latitude": 46.2957462, "date": {"mer. 11.04.2012": {"weekday": "wednesday", "year": 2012, "categories": {"M-M40": {"pace": 320000000000, "rank": 132, "distance": 8, "time": 2438.0}}, "day": 11, "month": 4, "livingplace": "Ollon"}}, "location": "Ollon VD"}, "Tour du Chablais #3 Le Bouveret": {"race": "Tour du Chablais #3 Le Bouveret", "longitude": 7.0223787, "latitude": 46.1782231, "date": {"mer. 11.05.2011": {"weekday": "wednesday", "year": 2011, "categories": {"M-M40": {"pace": 293000000000, "rank": 111, "distance": 10, "time": 2936.9}}, "day": 11, "month": 5, "livingplace": "Ollon"}}, "location": "Evionnaz"}, "Tour du Chablais #2 St-Gingolph": {"race": "Tour du Chablais #2 St-Gingolph", "longitude": 6.854975199999999, "latitude": 46.3835529, "date": {"mer. 14.04.2010": {"weekday": "wednesday", "year": 2010, "categories": {"M-M20": {"pace": 334000000000, "rank": 146, "distance": 8, "time": 2796.5}}, "day": 14, "month": 4, "livingplace": "Ollon"}}, "location": "Bouveret"}, "Tour du Chablais #3 Collombey-Muraz": {"race": "Tour du Chablais #3 Collombey-Muraz", "longitude": 7.0223787, "latitude": 46.1782231, "date": {"mer. 25.04.2012": {"weekday": "wednesday", "year": 2012, "categories": {"M-M40": {"pace": 312000000000, "rank": 126, "distance": 9, "time": 2804.8}}, "day": 25, "month": 4, "livingplace": "Ollon"}}, "location": "Evionnaz"}, "Tour du Chablais #2 Rennaz": {"race": "Tour du Chablais #2 Rennaz", "longitude": 6.854975199999999, "latitude": 46.3835529, "date": {"mer. 04.05.2011": {"weekday": "wednesday", "year": 2011, "categories": {"M-M40": {"pace": 284000000000, "rank": 109, "distance": 9, "time": 2659.0}}, "day": 4, "month": 5, "livingplace": "Ollon"}}, "location": "Bouveret"}}, "name": "Iannalfo Jean-Alexandre", "birth": 1971}