{"sex": "M", "races": {"Tour du Chablais #5 Leysin": {"race": "Tour du Chablais #5 Leysin", "longitude": 6.931504599999999, "latitude": 46.3603257, "date": {"mer. 05.05.2010": {"weekday": "wednesday", "year": 2010, "categories": {"M-M40": {"pace": 295000000000, "rank": 59, "distance": 8, "time": 2497.9}}, "day": 5, "month": 5, "livingplace": "Port Valais"}}, "location": "Roche VD"}, "Tour du Chablais #2 St-Gingolph": {"race": "Tour du Chablais #2 St-Gingolph", "longitude": 6.854975199999999, "latitude": 46.3835529, "date": {"mer. 14.04.2010": {"weekday": "wednesday", "year": 2010, "categories": {"M-M40": {"pace": 304000000000, "rank": 100, "distance": 8, "time": 2542.8}}, "day": 14, "month": 4, "livingplace": "Port Valais"}}, "location": "Bouveret"}, "20km de Lausanne": {"race": "20km de Lausanne", "longitude": 6.6322734, "latitude": 46.5196535, "date": {"sam. 24.04.2010": {"weekday": "saturday", "year": 2010, "categories": {"20-H45": {"pace": 314000000000, "rank": 193, "distance": 20, "time": 6287.2}}, "day": 24, "month": 4, "livingplace": "Port Valais"}, "sam. 30.04.2011": {"weekday": "saturday", "year": 2011, "categories": {"20-H45": {"pace": 284000000000, "rank": 141, "distance": 20, "time": 5691.3}}, "day": 30, "month": 4, "livingplace": "Bouveret"}}, "location": "Lausanne"}, "Tour du Chablais #4 Yvorne": {"race": "Tour du Chablais #4 Yvorne", "date": {"mer. 28.04.2010": {"weekday": "wednesday", "year": 2010, "categories": {"M-M40": {"pace": 289000000000, "rank": 88, "distance": 8, "time": 2396.8}}, "day": 28, "month": 4, "livingplace": "Port Valais"}}, "location": "Les Mosses"}, "Tour du Chablais #1 Roche": {"race": "Tour du Chablais #1 Roche", "longitude": 6.9916269, "latitude": 46.2957462, "date": {"mer. 07.04.2010": {"weekday": "wednesday", "year": 2010, "categories": {"M-M40": {"pace": 281000000000, "rank": 107, "distance": 9, "time": 2516.2}}, "day": 7, "month": 4, "livingplace": "Port Valais"}}, "location": "Ollon VD"}, "Tour du Chablais #3 Le Bouveret": {"race": "Tour du Chablais #3 Le Bouveret", "longitude": 7.0223787, "latitude": 46.1782231, "date": {"mer. 11.05.2011": {"weekday": "wednesday", "year": 2011, "categories": {"M-M40": {"pace": 269000000000, "rank": 76, "distance": 10, "time": 2697.4}}, "day": 11, "month": 5, "livingplace": "Port Valais"}}, "location": "Evionnaz"}, "Tour du Chablais #3 Collombey-Muraz": {"race": "Tour du Chablais #3 Collombey-Muraz", "longitude": 7.0223787, "latitude": 46.1782231, "date": {"mer. 25.04.2012": {"weekday": "wednesday", "year": 2012, "categories": {"M-M40": {"pace": 273000000000, "rank": 69, "distance": 9, "time": 2454.7}}, "day": 25, "month": 4, "livingplace": "Bouveret"}}, "location": "Evionnaz"}, "Morat-Fribourg": {"race": "Morat-Fribourg", "longitude": 7.120184, "latitude": 46.92922110000001, "date": {"sam. 03.10.2009": {"weekday": "saturday", "year": 2009, "categories": {"C-M40": {"pace": 303000000000, "rank": 383, "distance": 17, "time": 5210.4}}, "day": 3, "month": 10, "livingplace": "Bouveret"}}, "location": "Murten"}, "Montreux - Les Rochers de Naye": {"race": "Montreux - Les Rochers de Naye", "longitude": 6.9106799, "latitude": 46.4312213, "date": {"dim. 11.07.2010": {"weekday": "sunday", "year": 2010, "categories": {"M-V\u00e9t1": {"pace": 497000000000, "rank": 133, "distance": 19, "time": 9351.1}}, "day": 11, "month": 7, "livingplace": "Bouveret"}}, "location": "Montreux"}, "Tour du Chablais #4 Morgins": {"race": "Tour du Chablais #4 Morgins", "date": {"mer. 18.05.2011": {"weekday": "wednesday", "year": 2011, "categories": {"M-M40": {"pace": 294000000000, "rank": 77, "distance": 8, "time": 2461.7}}, "day": 18, "month": 5, "livingplace": "Port Valais"}}, "location": "Les Mosses"}, "Tour du Chablais #6 Mouthey": {"race": "Tour du Chablais #6 Mouthey", "longitude": 6.970566, "latitude": 46.3190253, "date": {"mer. 12.05.2010": {"weekday": "wednesday", "year": 2010, "categories": {"M-M40": {"pace": 263000000000, "rank": 78, "distance": 9, "time": 2426.0}}, "day": 12, "month": 5, "livingplace": "Port Valais"}}, "location": "Aigle"}}, "name": "Imhof Pierre-Andr\u00e9", "birth": 1965}