{"sex": "F", "races": {"Int Greifenseelauf, Uster": {"race": "Int Greifenseelauf, Uster", "longitude": 8.717873899999999, "latitude": 47.3482747, "date": {"sam. 18.09.2004": {"weekday": "saturday", "year": 2004, "categories": {"H/W35": {"pace": 350000000000, "rank": 294, "distance": 21, "time": 7405.4}}, "day": 18, "month": 9, "livingplace": "Wollerau"}}, "location": "Uster"}, "Stralugano, Lugano": {"race": "Stralugano, Lugano", "longitude": 8.951051999999999, "latitude": 46.0036778, "date": {"dim. 25.09.2011": {"weekday": "sunday", "year": 2011, "categories": {"30-W35": {"pace": 350000000000, "rank": 52, "distance": 30, "time": 10503.7}}, "day": 25, "month": 9, "livingplace": "Kuttigen"}}, "location": "Lugano"}, "GP Fricktal, Eiken": {"race": "GP Fricktal, Eiken", "date": {"sam. 07.04.2012": {"weekday": "saturday", "year": 2012, "categories": {"F40": {"pace": 311000000000, "rank": 18, "distance": 16, "time": 5018.7}}, "day": 7, "month": 4, "livingplace": "Kuttigen"}}, "location": "Eiken"}, "Hallwilerseelauf, Beinwil am See": {"race": "Hallwilerseelauf, Beinwil am See", "date": {"sam. 14.10.2006": {"weekday": "saturday", "year": 2006, "categories": {"F30": {"pace": 328000000000, "rank": 153, "distance": 21, "time": 6923.3}}, "day": 14, "month": 10, "livingplace": "Kuttigen"}}, "location": "Beinwil am See"}, "ASICS Bremgarter Reusslauf": {"race": "ASICS Bremgarter Reusslauf", "longitude": 8.3397905, "latitude": 47.34917739999999, "date": {"sam. 27.02.2010": {"weekday": "saturday", "year": 2010, "categories": {"F40": {"pace": 300000000000, "rank": 78, "distance": 11, "time": 3307.1}}, "day": 27, "month": 2, "livingplace": "Kuttigen"}, "sam. 17.02.2007": {"weekday": "saturday", "year": 2007, "categories": {"F30": {"pace": 300000000000, "rank": 72, "distance": 11, "time": 3151.1}}, "day": 17, "month": 2, "livingplace": "Kuttigen"}}, "location": "Bremgarten AG"}, "Morat-Fribourg": {"race": "Morat-Fribourg", "longitude": 7.120184, "latitude": 46.92922110000001, "date": {"sam. 06.10.2007": {"weekday": "saturday", "year": 2007, "categories": {"C/W35": {"pace": 325000000000, "rank": 71, "distance": 17, "time": 5596.9}}, "day": 6, "month": 10, "livingplace": "Kuttigen"}}, "location": "Murten"}, "Z\u00fcrcher Silvesterlauf, Z\u00fcrich": {"race": "Z\u00fcrcher Silvesterlauf, Z\u00fcrich", "longitude": 8.541694, "latitude": 47.3768866, "date": {"dim. 16.12.2012": {"weekday": "sunday", "year": 2012, "categories": {"8-DaAK2": {"pace": 321000000000, "rank": 184, "distance": 9, "time": 2764.0}}, "day": 16, "month": 12, "livingplace": "Kuttigen"}, "dim. 11.12.2011": {"weekday": "sunday", "year": 2011, "categories": {"8-DaAK2": {"pace": 301000000000, "rank": 112, "distance": 9, "time": 2592.8}}, "day": 11, "month": 12, "livingplace": "Kuttigen"}, "dim. 14.12.2014": {"weekday": "sunday", "year": 2014, "categories": {"10-F40": {"pace": 311000000000, "rank": 141, "distance": 10, "time": 3119.5}}, "day": 14, "month": 12, "livingplace": "Kuttigen"}}, "location": "Z\u00fcrich"}, "SwissCityMarathon - Lucerne, Luzern": {"race": "SwissCityMarathon - Lucerne, Luzern", "longitude": 8.3093072, "latitude": 47.05016819999999, "date": {"dim. 26.10.2014": {"weekday": "sunday", "year": 2014, "categories": {"H-F40": {"pace": 339000000000, "rank": 305, "distance": 21, "time": 7170.5}}, "day": 26, "month": 10, "livingplace": "Kuttigen"}}, "location": "Luzern"}, "Schweizer Frauenlauf Bern": {"race": "Schweizer Frauenlauf Bern", "longitude": 7.4474468, "latitude": 46.9479739, "date": {"dim. 12.06.2005": {"weekday": "sunday", "year": 2005, "categories": {"10-W35": {"pace": 315000000000, "rank": 143, "distance": 10, "time": 3153.8}}, "day": 12, "month": 6, "livingplace": "Prangins"}}, "location": "Bern"}, "Basler Stadtlauf": {"race": "Basler Stadtlauf", "longitude": 7.5885761, "latitude": 47.5595986, "date": {"sam. 28.11.2015": {"weekday": "saturday", "year": 2015, "categories": {"F45": {"pace": 286000000000, "rank": 40, "distance": 6, "time": 1576.1}}, "day": 28, "month": 11, "livingplace": "Kuttigen"}}, "location": "Basel"}, "Badener Limmat-Lauf, Baden": {"race": "Badener Limmat-Lauf, Baden", "longitude": 8.5303972, "latitude": 48.5699281, "date": {"sam. 24.03.2012": {"weekday": "saturday", "year": 2012, "categories": {"F40": {"pace": 320000000000, "rank": 31, "distance": 13, "time": 4223.4}}, "day": 24, "month": 3, "livingplace": "Kuttigen"}}, "location": "Baden"}, "Z\u00fcrich Marathon, Teamrun und Cityrun": {"race": "Z\u00fcrich Marathon, Teamrun und Cityrun", "longitude": 8.541694, "latitude": 47.3768866, "date": {"dim. 04.04.2004": {"weekday": "sunday", "year": 2004, "categories": {"W30": {"pace": 338000000000, "rank": 220, "distance": 42, "time": 14287.2}}, "day": 4, "month": 4, "livingplace": "Wollerau"}}, "location": "Z\u00fcrich"}, "Gippinger Stauseelauf": {"race": "Gippinger Stauseelauf", "longitude": 8.2152586, "latitude": 47.5810513, "date": {"jeu. 31.12.2015": {"weekday": "thursday", "year": 2015, "categories": {"7-F40": {"pace": 303000000000, "rank": 19, "distance": 8, "time": 2284.8}}, "day": 31, "month": 12, "livingplace": "Kuttigen"}}, "location": "Leuggern"}, "Kerzerslauf": {"race": "Kerzerslauf", "longitude": 7.1954365, "latitude": 46.97488999999999, "date": {"sam. 17.03.2007": {"weekday": "saturday", "year": 2007, "categories": {"F35": {"pace": 305000000000, "rank": 70, "distance": 15, "time": 4589.5}}, "day": 17, "month": 3, "livingplace": "Kuttigen"}}, "location": "Kerzers"}}, "name": "Inderbitzin Jacqueline", "birth": 1969}