{"sex": "M", "races": {"BCN Tour La Chaux-de-Fonds": {"race": "BCN Tour La Chaux-de-Fonds", "longitude": 6.832783800000001, "latitude": 47.1034892, "date": {"mer. 11.05.2011": {"weekday": "wednesday", "year": 2011, "categories": {"HS2": {"pace": 320000000000, "rank": 73, "distance": 11, "time": 3425.1}}, "day": 11, "month": 5, "livingplace": "Fontaines"}}, "location": "La Chaux-de-Fonds"}, "BCN Tour Auvernier": {"race": "BCN Tour Auvernier", "longitude": 6.8589727, "latitude": 46.9668714, "date": {"mer. 20.04.2011": {"weekday": "wednesday", "year": 2011, "categories": {"HS2": {"pace": 274000000000, "rank": 57, "distance": 11, "time": 2966.2}}, "day": 20, "month": 4, "livingplace": "Fontaines"}}, "location": "Colombier NE"}, "BCN Tour Fontaine Cernier": {"race": "BCN Tour Fontaine Cernier", "longitude": 6.9175754, "latitude": 47.0624261, "date": {"mer. 27.04.2011": {"weekday": "wednesday", "year": 2011, "categories": {"HS2": {"pace": 259000000000, "rank": 52, "distance": 10, "time": 2669.4}}, "day": 27, "month": 4, "livingplace": "Fontaines"}}, "location": "Ch\u00e9zard-St-Martin"}, "Morat-Fribourg": {"race": "Morat-Fribourg", "longitude": 7.120184, "latitude": 46.92922110000001, "date": {"dim. 05.10.2003": {"weekday": "sunday", "year": 2003, "categories": {"M40": {"pace": 259000000000, "rank": 114, "distance": 17, "time": 4447.9}}, "day": 5, "month": 10, "livingplace": "Fontaines"}}, "location": "Murten"}, "BCN Tour La Br\u00e9vine": {"race": "BCN Tour La Br\u00e9vine", "longitude": 6.733554799999999, "latitude": 46.999113, "date": {"mer. 04.05.2011": {"weekday": "wednesday", "year": 2011, "categories": {"HS2": {"pace": 277000000000, "rank": 62, "distance": 10, "time": 2777.4}}, "day": 4, "month": 5, "livingplace": "Fontaines"}}, "location": "Les Ponts-de-Martel"}, "Jungfrau-Marathon, Interlaken": {"race": "Jungfrau-Marathon, Interlaken", "date": {"sam. 10.09.2011": {"weekday": "saturday", "year": 2011, "categories": {"M45": {"pace": 383000000000, "rank": 89, "distance": 42, "time": 16177.0}}, "day": 10, "month": 9, "livingplace": "Fontaines"}}, "location": "Interlaken"}}, "name": "J\u00e4ggi Hugo", "birth": 1962}