{"sex": "F", "races": {"Hallwilerseelauf, Beinwil am See": {"race": "Hallwilerseelauf, Beinwil am See", "date": {"sam. 13.10.2012": {"weekday": "saturday", "year": 2012, "categories": {"7-KF": {"pace": 333000000000, "rank": 26, "distance": 7, "time": 2299.6}}, "day": 13, "month": 10, "livingplace": "Birmenstorf"}}, "location": "Beinwil am See"}, "Sihltaler Fr\u00fchlingslauf, Gattikon": {"race": "Sihltaler Fr\u00fchlingslauf, Gattikon", "longitude": 8.5644799, "latitude": 47.2949282, "date": {"mer. 01.05.2013": {"weekday": "wednesday", "year": 2013, "categories": {"10-F20": {"pace": 331000000000, "rank": 11, "distance": 10, "time": 3315.4}}, "day": 1, "month": 5, "livingplace": "Birmenstorf"}}, "location": "Gattikon"}, "Badener Limmat-Lauf, Baden": {"race": "Badener Limmat-Lauf, Baden", "longitude": 8.5303972, "latitude": 48.5699281, "date": {"sam. 29.03.2014": {"weekday": "saturday", "year": 2014, "categories": {"F20": {"pace": 311000000000, "rank": 25, "distance": 13, "time": 4108.2}}, "day": 29, "month": 3, "livingplace": "Birmenstorf"}}, "location": "Baden"}, "Lenzburger Lauf": {"race": "Lenzburger Lauf", "longitude": 8.172154500000001, "latitude": 47.3904443, "date": {"sam. 24.05.2014": {"weekday": "saturday", "year": 2014, "categories": {"11-F20": {"pace": 311000000000, "rank": 7, "distance": 12, "time": 3617.1}}, "day": 24, "month": 5, "livingplace": "Birmenstorf"}}, "location": "Lenzburg"}, "Pfingstlauf Wohlen AG": {"race": "Pfingstlauf Wohlen AG", "longitude": 8.2768762, "latitude": 47.3493653, "date": {"sam. 18.05.2013": {"weekday": "saturday", "year": 2013, "categories": {"8-10-F20": {"pace": 331000000000, "rank": 8, "distance": 10, "time": 3311.0}}, "day": 18, "month": 5, "livingplace": "Birmenstorf"}}, "location": "Wohlen AG"}, "Z\u00fcrich Marathon, Teamrun und Cityrun": {"race": "Z\u00fcrich Marathon, Teamrun und Cityrun", "longitude": 8.541694, "latitude": 47.3768866, "date": {"dim. 07.04.2013": {"weekday": "sunday", "year": 2013, "categories": {"10-W20": {"pace": 312000000000, "rank": 63, "distance": 10, "time": 3125.7}}, "day": 7, "month": 4, "livingplace": "Birmenstorf"}}, "location": "Z\u00fcrich"}, "Gippinger Stauseelauf": {"race": "Gippinger Stauseelauf", "longitude": 8.2152586, "latitude": 47.5810513, "date": {"jeu. 31.12.2015": {"weekday": "thursday", "year": 2015, "categories": {"7-F30": {"pace": 291000000000, "rank": 18, "distance": 8, "time": 2191.5}}, "day": 31, "month": 12, "livingplace": "Birmenstorf"}}, "location": "Leuggern"}, "Z\u00fcrcher Silvesterlauf, Z\u00fcrich": {"race": "Z\u00fcrcher Silvesterlauf, Z\u00fcrich", "longitude": 8.541694, "latitude": 47.3768866, "date": {"dim. 16.12.2012": {"weekday": "sunday", "year": 2012, "categories": {"8-DaHK": {"pace": 327000000000, "rank": 240, "distance": 9, "time": 2820.1}}, "day": 16, "month": 12, "livingplace": "Birmenstorf"}, "dim. 15.12.2013": {"weekday": "sunday", "year": 2013, "categories": {"10-F20": {"pace": 297000000000, "rank": 134, "distance": 10, "time": 2975.7}}, "day": 15, "month": 12, "livingplace": "Birmenstorf"}}, "location": "Z\u00fcrich"}}, "name": "J\u00e4ggi Petra", "birth": 1985}