{"sex": "M", "races": {"Glacier 3000 Run, Gstaad": {"race": "Glacier 3000 Run, Gstaad", "longitude": 7.2865728, "latitude": 46.4717588, "date": {"sam. 07.08.2010": {"weekday": "saturday", "year": 2010, "categories": {"M40": {"pace": 438000000000, "rank": 25, "distance": 26, "time": 11391.1}}, "day": 7, "month": 8, "livingplace": "Chernex"}}, "location": "Gstaad"}, "Winterthur Marathon": {"race": "Winterthur Marathon", "longitude": -75.6037351, "latitude": 39.8088766, "date": {"dim. 25.05.2003": {"weekday": "sunday", "year": 2003, "categories": {"MM40": {"pace": 285000000000, "rank": 52, "distance": 42, "time": 12031.1}}, "day": 25, "month": 5, "livingplace": "Lausanne"}}, "location": "Winterthur"}, "Tour du Chablais #5 Leysin": {"race": "Tour du Chablais #5 Leysin", "longitude": 6.931504599999999, "latitude": 46.3603257, "date": {"mer. 05.05.2010": {"weekday": "wednesday", "year": 2010, "categories": {"M-M40": {"pace": 265000000000, "rank": 28, "distance": 8, "time": 2246.9}}, "day": 5, "month": 5, "livingplace": "Chernex"}}, "location": "Roche VD"}, "Tour du Chablais #4 Yvorne": {"race": "Tour du Chablais #4 Yvorne", "date": {"mer. 28.04.2010": {"weekday": "wednesday", "year": 2010, "categories": {"M-M40": {"pace": 257000000000, "rank": 36, "distance": 8, "time": 2133.1}}, "day": 28, "month": 4, "livingplace": "Chernex"}}, "location": "Les Mosses"}, "Tour du Chablais #3 Bex": {"race": "Tour du Chablais #3 Bex", "longitude": 7.0223787, "latitude": 46.1782231, "date": {"mer. 21.04.2010": {"weekday": "wednesday", "year": 2010, "categories": {"M-M40": {"pace": 252000000000, "rank": 36, "distance": 10, "time": 2524.0}}, "day": 21, "month": 4, "livingplace": "Chernex"}}, "location": "Evionnaz"}, "Tour du Chablais #1 Roche": {"race": "Tour du Chablais #1 Roche", "longitude": 6.9916269, "latitude": 46.2957462, "date": {"mer. 07.04.2010": {"weekday": "wednesday", "year": 2010, "categories": {"M-M40": {"pace": 250000000000, "rank": 49, "distance": 9, "time": 2243.8}}, "day": 7, "month": 4, "livingplace": "Chernex"}}, "location": "Ollon VD"}, "Kerzerslauf": {"race": "Kerzerslauf", "longitude": 7.1954365, "latitude": 46.97488999999999, "date": {"sam. 15.03.2003": {"weekday": "saturday", "year": 2003, "categories": {"M40": {"pace": 252000000000, "rank": 118, "distance": 15, "time": 3793.6}}, "day": 15, "month": 3, "livingplace": "Lausanne"}}, "location": "Kerzers"}, "Tour du Chablais #2 St-Gingolph": {"race": "Tour du Chablais #2 St-Gingolph", "longitude": 6.854975199999999, "latitude": 46.3835529, "date": {"mer. 14.04.2010": {"weekday": "wednesday", "year": 2010, "categories": {"M-M40": {"pace": 264000000000, "rank": 34, "distance": 8, "time": 2209.4}}, "day": 14, "month": 4, "livingplace": "Chernex"}}, "location": "Bouveret"}, "Montreux - Les Rochers de Naye": {"race": "Montreux - Les Rochers de Naye", "longitude": 6.9106799, "latitude": 46.4312213, "date": {"dim. 07.07.2013": {"weekday": "sunday", "year": 2013, "categories": {"M-HV\u00e9t2": {"pace": 421000000000, "rank": 8, "distance": 19, "time": 7917.5}}, "day": 7, "month": 7, "livingplace": "Chernex"}, "dim. 29.06.2003": {"weekday": "sunday", "year": 2003, "categories": {"V\u00e9t1": {"pace": 401000000000, "rank": 13, "distance": 20, "time": 8157.5}}, "day": 29, "month": 6, "livingplace": "Lausanne"}, "dim. 08.07.2012": {"weekday": "sunday", "year": 2012, "categories": {"M-HV\u00e9t2": {"pace": 409000000000, "rank": 8, "distance": 19, "time": 7698.4}}, "day": 8, "month": 7, "livingplace": "Chernex"}, "dim. 11.07.2010": {"weekday": "sunday", "year": 2010, "categories": {"M-V\u00e9t1": {"pace": 406000000000, "rank": 46, "distance": 19, "time": 7639.4}}, "day": 11, "month": 7, "livingplace": "Chernex"}, "dim. 26.06.2005": {"weekday": "sunday", "year": 2005, "categories": {"V\u00e9t1": {"pace": 388000000000, "rank": 12, "distance": 19, "time": 7297.7}}, "day": 26, "month": 6, "livingplace": "Apples"}}, "location": "Montreux"}, "Tour du Chablais #6 Mouthey": {"race": "Tour du Chablais #6 Mouthey", "longitude": 6.970566, "latitude": 46.3190253, "date": {"mer. 12.05.2010": {"weekday": "wednesday", "year": 2010, "categories": {"M-M40": {"pace": 244000000000, "rank": 43, "distance": 9, "time": 2247.8}}, "day": 12, "month": 5, "livingplace": "Chernex"}}, "location": "Aigle"}}, "name": "Jaquet Raymond", "birth": 1961}