{"sex": "M", "races": {"Course de l'Escalade, Gen\u00e8ve": {"race": "Course de l'Escalade, Gen\u00e8ve", "longitude": 6.1431577, "latitude": 46.2043907, "date": {"sam. 03.12.2011": {"weekday": "saturday", "year": 2011, "categories": {"H-EA": {"pace": 246000000000, "rank": 74, "distance": 2, "time": 573.8}}, "day": 3, "month": 12, "livingplace": "Blonay"}}, "location": "Gen\u00e8ve"}, "Tour du Chablais #4 Champ\u00e9ry": {"race": "Tour du Chablais #4 Champ\u00e9ry", "date": {"mer. 02.05.2012": {"weekday": "wednesday", "year": 2012, "categories": {"M-EC2": {"pace": 229000000000, "rank": 7, "distance": 3, "time": 733.4}}, "day": 2, "month": 5, "livingplace": "Blonay"}}, "location": "Les Mosses"}, "Sierre-Zinal, Sierre": {"race": "Sierre-Zinal, Sierre", "longitude": 7.533536199999999, "latitude": 46.29413110000001, "date": {"dim. 09.08.2015": {"weekday": "sunday", "year": 2015, "categories": {"Jun_Homm": {"pace": 321000000000, "rank": 28, "distance": 19, "time": 6102.3}}, "day": 9, "month": 8, "livingplace": "Blonay"}}, "location": "Sierre"}, "Course en f\u00f4ret, Romont": {"race": "Course en f\u00f4ret, Romont", "longitude": 6.9118086, "latitude": 46.691887, "date": {"dim. 18.09.2005": {"weekday": "sunday", "year": 2005, "categories": {"GC": {"pace": 367000000000, "rank": 30, "distance": 1, "time": 293.8}}, "day": 18, "month": 9, "livingplace": "Blonay"}}, "location": "Romont FR"}, "Tour du Chablais #2 Bex": {"race": "Tour du Chablais #2 Bex", "longitude": 6.854975199999999, "latitude": 46.3835529, "date": {"mer. 18.04.2012": {"weekday": "wednesday", "year": 2012, "categories": {"M-EC2": {"pace": 226000000000, "rank": 7, "distance": 3, "time": 770.0}}, "day": 18, "month": 4, "livingplace": "Blonay"}}, "location": "Bouveret"}, "Tour du Chablais #6 Montreux": {"race": "Tour du Chablais #6 Montreux", "longitude": 6.970566, "latitude": 46.3190253, "date": {"mer. 16.05.2012": {"weekday": "wednesday", "year": 2012, "categories": {"M-EC2": {"pace": 227000000000, "rank": 7, "distance": 3, "time": 716.7}}, "day": 16, "month": 5, "livingplace": "Blonay"}}, "location": "Aigle"}, "Montreux - Les Rochers de Naye": {"race": "Montreux - Les Rochers de Naye", "longitude": 6.9106799, "latitude": 46.4312213, "date": {"dim. 05.07.2015": {"weekday": "sunday", "year": 2015, "categories": {"C-HJun": {"pace": 360000000000, "rank": 1, "distance": 10, "time": 3429.1}}, "day": 5, "month": 7, "livingplace": "Blonay"}, "dim. 06.07.2014": {"weekday": "sunday", "year": 2014, "categories": {"C-HJun": {"pace": 375000000000, "rank": 5, "distance": 10, "time": 3568.3}}, "day": 6, "month": 7, "livingplace": "Blonay"}}, "location": "Montreux"}, "Tour du Chablais #4 Morgins": {"race": "Tour du Chablais #4 Morgins", "date": {"mer. 18.05.2011": {"weekday": "wednesday", "year": 2011, "categories": {"M-EC3": {"pace": 263000000000, "rank": 8, "distance": 4, "time": 946.9}}, "day": 18, "month": 5, "livingplace": "Blonay"}}, "location": "Les Mosses"}}, "name": "Jaton Yohan", "birth": 1999}