{"sex": "M", "races": {"20km de Lausanne": {"race": "20km de Lausanne", "longitude": 6.6322734, "latitude": 46.5196535, "date": {"sam. 25.04.2009": {"weekday": "saturday", "year": 2009, "categories": {"20-H30": {"pace": 274000000000, "rank": 210, "distance": 20, "time": 5486.3}}, "day": 25, "month": 4, "livingplace": "Yverdon"}}, "location": "Lausanne"}, "D\u00e9fi Val-de-Travers, Couvet": {"race": "D\u00e9fi Val-de-Travers, Couvet", "longitude": 6.6324944, "latitude": 46.9262933, "date": {"sam. 20.06.2009": {"weekday": "saturday", "year": 2009, "categories": {"EHS1": {"pace": 280000000000, "rank": 4, "distance": 12, "time": 3422.9}}, "day": 20, "month": 6, "livingplace": "Yverdon"}}, "location": "Couvet"}, "Internationaler Matterhornlauf, Zermatt": {"race": "Internationaler Matterhornlauf, Zermatt", "date": {"sam. 21.08.2010": {"weekday": "saturday", "year": 2010, "categories": {"MHL-M30": {"pace": 369000000000, "rank": 7, "distance": 12, "time": 4617.3}}, "day": 21, "month": 8, "livingplace": "Yverdon"}}, "location": "Zermatt"}, "Kerzerslauf": {"race": "Kerzerslauf", "longitude": 7.1954365, "latitude": 46.97488999999999, "date": {"sam. 15.03.2014": {"weekday": "saturday", "year": 2014, "categories": {"15-M35": {"pace": 237000000000, "rank": 51, "distance": 15, "time": 3565.2}}, "day": 15, "month": 3, "livingplace": "Cronay"}}, "location": "Kerzers"}, "Course de l'Avent, Yverdon": {"race": "Course de l'Avent, Yverdon", "longitude": 7.161971899999999, "latitude": 46.8064773, "date": {"dim. 27.11.2011": {"weekday": "sunday", "year": 2011, "categories": {"E-H3": {"pace": 237000000000, "rank": 14, "distance": 8, "time": 1839.5}}, "day": 27, "month": 11, "livingplace": "Yverdon les Bains"}}, "location": "Fribourg"}, "Morat-Fribourg": {"race": "Morat-Fribourg", "longitude": 7.120184, "latitude": 46.92922110000001, "date": {"sam. 05.10.2013": {"weekday": "saturday", "year": 2013, "categories": {"17-M20": {"pace": 245000000000, "rank": 163, "distance": 17, "time": 4281.3}}, "day": 5, "month": 10, "livingplace": "Cronay"}}, "location": "Murten"}, "Aletsch-Halbmarathon, Bettmeralp": {"race": "Aletsch-Halbmarathon, Bettmeralp", "date": {"dim. 28.06.2009": {"weekday": "sunday", "year": 2009, "categories": {"M30": {"pace": 371000000000, "rank": 46, "distance": 21, "time": 7795.4}}, "day": 28, "month": 6, "livingplace": "Hugues"}}, "location": "Bettmeralp"}}, "name": "Jeanrenaud Hugues", "birth": 1977}