{"sex": "M", "races": {"Laufsporttag Winterthur": {"race": "Laufsporttag Winterthur", "longitude": -75.6037351, "latitude": 39.8088766, "date": {"sam. 05.03.2005": {"weekday": "saturday", "year": 2005, "categories": {"C": {"pace": 369000000000, "rank": 170, "distance": 11, "time": 4063.0}}, "day": 5, "month": 3, "livingplace": "Frutigen"}}, "location": "Winterthur"}, "Hallwilerseelauf, Beinwil am See": {"race": "Hallwilerseelauf, Beinwil am See", "date": {"sam. 09.10.2004": {"weekday": "saturday", "year": 2004, "categories": {"13": {"pace": 322000000000, "rank": 520, "distance": 21, "time": 6800.5}}, "day": 9, "month": 10, "livingplace": "Frutigen"}}, "location": "Beinwil am See"}, "Thuner Stadtlauf, Thun": {"race": "Thuner Stadtlauf, Thun", "longitude": 7.6279881, "latitude": 46.7579868, "date": {"dim. 05.09.2004": {"weekday": "sunday", "year": 2004, "categories": {"VKLM": {"pace": 290000000000, "rank": 56, "distance": 5, "time": 1452.6}}, "day": 5, "month": 9, "livingplace": "Frutigen"}}, "location": "Thun"}, "ASICS Bremgarter Reusslauf": {"race": "ASICS Bremgarter Reusslauf", "longitude": 8.3397905, "latitude": 47.34917739999999, "date": {"sam. 26.02.2005": {"weekday": "saturday", "year": 2005, "categories": {"13": {"pace": 324000000000, "rank": 397, "distance": 11, "time": 3412.1}}, "day": 26, "month": 2, "livingplace": "Frutigen"}}, "location": "Bremgarten AG"}, "Z\u00fcrich Marathon, Teamrun und Cityrun": {"race": "Z\u00fcrich Marathon, Teamrun und Cityrun", "longitude": 8.541694, "latitude": 47.3768866, "date": {"dim. 03.04.2005": {"weekday": "sunday", "year": 2005, "categories": {"M40": {"pace": 400000000000, "rank": 1005, "distance": 42, "time": 16914.4}}, "day": 3, "month": 4, "livingplace": "Frutigen"}}, "location": "Z\u00fcrich"}, "Kerzerslauf": {"race": "Kerzerslauf", "longitude": 7.1954365, "latitude": 46.97488999999999, "date": {"sam. 19.03.2005": {"weekday": "saturday", "year": 2005, "categories": {"M40": {"pace": 359000000000, "rank": 492, "distance": 15, "time": 5387.2}}, "day": 19, "month": 3, "livingplace": "Frutigen"}}, "location": "Kerzers"}}, "name": "Jenzer Heinz", "birth": 1962}