{"sex": "F", "races": {"Gempenlauf, Dornach": {"race": "Gempenlauf, Dornach", "longitude": 7.6170412, "latitude": 47.4790491, "date": {"mer. 02.06.2010": {"weekday": "wednesday", "year": 2010, "categories": {"F20": {"pace": 410000000000, "rank": 35, "distance": 8, "time": 3204.2}}, "day": 2, "month": 6, "livingplace": "Basel"}, "mer. 08.06.2011": {"weekday": "wednesday", "year": 2011, "categories": {"F20": {"pace": 390000000000, "rank": 31, "distance": 8, "time": 3049.0}}, "day": 8, "month": 6, "livingplace": "Basel"}}, "location": "Dornach"}, "Dreil\u00e4nder-Lauf, Basel": {"race": "Dreil\u00e4nder-Lauf, Basel", "longitude": 7.5885761, "latitude": 47.5595986, "date": {"dim. 16.05.2010": {"weekday": "sunday", "year": 2010, "categories": {"21F20": {"pace": 346000000000, "rank": 26, "distance": 21, "time": 7302.9}}, "day": 16, "month": 5, "livingplace": "Basel"}}, "location": "Basel"}, "Schweizer Frauenlauf Bern": {"race": "Schweizer Frauenlauf Bern", "longitude": 7.4474468, "latitude": 46.9479739, "date": {"dim. 13.06.2010": {"weekday": "sunday", "year": 2010, "categories": {"10-W20": {"pace": 313000000000, "rank": 165, "distance": 10, "time": 3132.5}}, "day": 13, "month": 6, "livingplace": "Basel"}}, "location": "Bern"}, "GP Fricktal, Eiken": {"race": "GP Fricktal, Eiken", "date": {"sam. 23.04.2011": {"weekday": "saturday", "year": 2011, "categories": {"F20": {"pace": 332000000000, "rank": 8, "distance": 16, "time": 5355.2}}, "day": 23, "month": 4, "livingplace": "Basel"}}, "location": "Eiken"}, "Bl\u00fcemlisalp-Lauf, Reichenbach": {"race": "Bl\u00fcemlisalp-Lauf, Reichenbach", "longitude": 7.6940529, "latitude": 46.6254387, "date": {"dim. 29.05.2011": {"weekday": "sunday", "year": 2011, "categories": {"F20": {"pace": 441000000000, "rank": 13, "distance": 16, "time": 7102.7}}, "day": 29, "month": 5, "livingplace": "Lsvb"}}, "location": "Reichenbach im Kandertal"}, "Sempacherseelauf, Sursee": {"race": "Sempacherseelauf, Sursee", "date": {"sam. 08.05.2010": {"weekday": "saturday", "year": 2010, "categories": {"21F18": {"pace": 337000000000, "rank": 36, "distance": 21, "time": 7121.6}}, "day": 8, "month": 5, "livingplace": "Basel"}}, "location": "Sursee"}, "IWB Basel Marathon": {"race": "IWB Basel Marathon", "longitude": 7.5885761, "latitude": 47.5595986, "date": {"dim. 11.09.2011": {"weekday": "sunday", "year": 2011, "categories": {"H-21-F20": {"pace": 355000000000, "rank": 36, "distance": 21, "time": 7493.6}}, "day": 11, "month": 9, "livingplace": "Basel"}}, "location": "Basel"}, "Lucerne Marathon, Luzern": {"race": "Lucerne Marathon, Luzern", "longitude": 8.3093072, "latitude": 47.05016819999999, "date": {"dim. 30.10.2011": {"weekday": "sunday", "year": 2011, "categories": {"H-F20": {"pace": 300000000000, "rank": 64, "distance": 21, "time": 6336.4}}, "day": 30, "month": 10, "livingplace": "Basel"}}, "location": "Luzern"}}, "name": "Jermann Sandra", "birth": 1982}