{"sex": "M", "races": {"Tour du Chablais #4 Champ\u00e9ry": {"race": "Tour du Chablais #4 Champ\u00e9ry", "date": {"mer. 02.05.2012": {"weekday": "wednesday", "year": 2012, "categories": {"M-M20": {"pace": 306000000000, "rank": 160, "distance": 8, "time": 2540.8}}, "day": 2, "month": 5, "livingplace": "Le Tretien"}}, "location": "Les Mosses"}, "Tour du Chablais #2 Yvorne": {"race": "Tour du Chablais #2 Yvorne", "longitude": 6.854975199999999, "latitude": 46.3835529, "date": {"mer. 10.04.2013": {"weekday": "wednesday", "year": 2013, "categories": {"M-M20": {"pace": 361000000000, "rank": 220, "distance": 8, "time": 2889.1}}, "day": 10, "month": 4, "livingplace": "Le Tretien"}}, "location": "Bouveret"}, "Tour du Chablais #6 Monthey": {"race": "Tour du Chablais #6 Monthey", "longitude": 6.970566, "latitude": 46.3190253, "date": {"mer. 08.05.2013": {"weekday": "wednesday", "year": 2013, "categories": {"M-M20": {"pace": 292000000000, "rank": 152, "distance": 9, "time": 2728.2}}, "day": 8, "month": 5, "livingplace": "Le Tretien"}}, "location": "Aigle"}, "Tour du Chablais #2 Bex": {"race": "Tour du Chablais #2 Bex", "longitude": 6.854975199999999, "latitude": 46.3835529, "date": {"mer. 18.04.2012": {"weekday": "wednesday", "year": 2012, "categories": {"M-M20": {"pace": 322000000000, "rank": 188, "distance": 8, "time": 2578.6}}, "day": 18, "month": 4, "livingplace": "Le Tretien"}}, "location": "Bouveret"}, "Tour du Chablais #3 Bouveret": {"race": "Tour du Chablais #3 Bouveret", "longitude": 7.0223787, "latitude": 46.1782231, "date": {"mer. 17.04.2013": {"weekday": "wednesday", "year": 2013, "categories": {"M-M20": {"pace": 322000000000, "rank": 186, "distance": 10, "time": 3227.1}}, "day": 17, "month": 4, "livingplace": "Le Tretien"}}, "location": "Evionnaz"}, "Tour du Chablais #1 Roche": {"race": "Tour du Chablais #1 Roche", "longitude": 6.9916269, "latitude": 46.2957462, "date": {"mer. 03.04.2013": {"weekday": "wednesday", "year": 2013, "categories": {"M-M20": {"pace": 331000000000, "rank": 208, "distance": 9, "time": 2940.8}}, "day": 3, "month": 4, "livingplace": "Le Tretien"}}, "location": "Ollon VD"}, "Tour du Chablais #1 Martigny": {"race": "Tour du Chablais #1 Martigny", "longitude": 6.9916269, "latitude": 46.2957462, "date": {"mer. 23.04.2014": {"weekday": "wednesday", "year": 2014, "categories": {"M-M20": {"pace": 312000000000, "rank": 223, "distance": 9, "time": 2655.0}}, "day": 23, "month": 4, "livingplace": "Le Tretien"}}, "location": "Ollon VD"}, "Tour du Chablais #6 Montreux": {"race": "Tour du Chablais #6 Montreux", "longitude": 6.970566, "latitude": 46.3190253, "date": {"mer. 16.05.2012": {"weekday": "wednesday", "year": 2012, "categories": {"M-M20": {"pace": 294000000000, "rank": 174, "distance": 9, "time": 2727.7}}, "day": 16, "month": 5, "livingplace": "Le Tretien"}}, "location": "Aigle"}, "Tour du Chablais #6 Aigle": {"race": "Tour du Chablais #6 Aigle", "longitude": 6.970566, "latitude": 46.3190253, "date": {"mer. 01.06.2011": {"weekday": "wednesday", "year": 2011, "categories": {"M-M20": {"pace": 316000000000, "rank": 219, "distance": 10, "time": 3228.8}}, "day": 1, "month": 6, "livingplace": "Le Tretien"}}, "location": "Aigle"}, "Tour du Chablais #5 Les Mosses": {"race": "Tour du Chablais #5 Les Mosses", "longitude": 6.931504599999999, "latitude": 46.3603257, "date": {"mer. 25.05.2011": {"weekday": "wednesday", "year": 2011, "categories": {"M-M20": {"pace": 383000000000, "rank": 207, "distance": 8, "time": 3071.4}}, "day": 25, "month": 5, "livingplace": "Le Tretien"}}, "location": "Roche VD"}, "Tour du Chablais #5 Bex": {"race": "Tour du Chablais #5 Bex", "longitude": 6.931504599999999, "latitude": 46.3603257, "date": {"mer. 09.05.2012": {"weekday": "wednesday", "year": 2012, "categories": {"M-M20": {"pace": 296000000000, "rank": 135, "distance": 9, "time": 2630.6}}, "day": 9, "month": 5, "livingplace": "Le Tretien"}}, "location": "Roche VD"}, "Tour du Chablais #5 Morgins": {"race": "Tour du Chablais #5 Morgins", "longitude": 6.931504599999999, "latitude": 46.3603257, "date": {"mer. 01.05.2013": {"weekday": "wednesday", "year": 2013, "categories": {"M-M20": {"pace": 334000000000, "rank": 175, "distance": 8, "time": 2542.4}}, "day": 1, "month": 5, "livingplace": "Le Tretien"}}, "location": "Roche VD"}, "Tour du Chablais #4 St  Maurice": {"race": "Tour du Chablais #4 St  Maurice", "date": {"mer. 24.04.2013": {"weekday": "wednesday", "year": 2013, "categories": {"M-M20": {"pace": 315000000000, "rank": 185, "distance": 10, "time": 3158.9}}, "day": 24, "month": 4, "livingplace": "Le Tretien"}}, "location": "Les Mosses"}, "Tour du Chablais #3 Collombey-Muraz": {"race": "Tour du Chablais #3 Collombey-Muraz", "longitude": 7.0223787, "latitude": 46.1782231, "date": {"mer. 25.04.2012": {"weekday": "wednesday", "year": 2012, "categories": {"M-M20": {"pace": 313000000000, "rank": 171, "distance": 9, "time": 2815.4}}, "day": 25, "month": 4, "livingplace": "Le Tretien"}}, "location": "Evionnaz"}}, "name": "Jimenez Steve", "birth": 1982}