{"sex": "M", "races": {"BCN Tour Neuch\u00e2tel": {"race": "BCN Tour Neuch\u00e2tel", "longitude": 6.9292732, "latitude": 46.9899874, "date": {"mer. 26.05.2010": {"weekday": "wednesday", "year": 2010, "categories": {"HS2": {"pace": 297000000000, "rank": 70, "distance": 10, "time": 2881.5}}, "day": 26, "month": 5, "livingplace": "Corcelles"}}, "location": "Neuch\u00e2tel"}, "Aletsch-Halbmarathon, Bettmeralp": {"race": "Aletsch-Halbmarathon, Bettmeralp", "date": {"dim. 28.06.2015": {"weekday": "sunday", "year": 2015, "categories": {"M45": {"pace": 435000000000, "rank": 66, "distance": 21, "time": 9192.4}}, "day": 28, "month": 6, "livingplace": "Cormondreche"}}, "location": "Bettmeralp"}, "BCN Tour Ponts-de-Martel": {"race": "BCN Tour Ponts-de-Martel", "longitude": 6.9175754, "latitude": 47.0624261, "date": {"mer. 28.04.2010": {"weekday": "wednesday", "year": 2010, "categories": {"HS2": {"pace": 286000000000, "rank": 78, "distance": 11, "time": 3206.9}}, "day": 28, "month": 4, "livingplace": "Corcelles"}}, "location": "Ch\u00e9zard-St-Martin"}, "BCN Tour M\u00f4tier": {"race": "BCN Tour M\u00f4tier", "longitude": 6.6324944, "latitude": 46.9262933, "date": {"mer. 19.05.2010": {"weekday": "wednesday", "year": 2010, "categories": {"HS2": {"pace": 271000000000, "rank": 79, "distance": 10, "time": 2691.6}}, "day": 19, "month": 5, "livingplace": "Corcelles"}}, "location": "Couvet"}, "BCN Tour Colombier": {"race": "BCN Tour Colombier", "longitude": 6.8589727, "latitude": 46.9668714, "date": {"mer. 21.04.2010": {"weekday": "wednesday", "year": 2010, "categories": {"HS2": {"pace": 309000000000, "rank": 94, "distance": 10, "time": 3090.3}}, "day": 21, "month": 4, "livingplace": "Corcelles"}}, "location": "Colombier NE"}, "BCN Tour Le Locle": {"race": "BCN Tour Le Locle", "longitude": 6.733554799999999, "latitude": 46.999113, "date": {"mer. 05.05.2010": {"weekday": "wednesday", "year": 2010, "categories": {"HS2": {"pace": 278000000000, "rank": 75, "distance": 11, "time": 3040.0}}, "day": 5, "month": 5, "livingplace": "Corcelles"}}, "location": "Les Ponts-de-Martel"}, "BCN Tour La Chaux-de-fonds": {"race": "BCN Tour La Chaux-de-fonds", "longitude": 6.832783800000001, "latitude": 47.1034892, "date": {"mer. 12.05.2010": {"weekday": "wednesday", "year": 2010, "categories": {"HS2": {"pace": 340000000000, "rank": 71, "distance": 11, "time": 3647.7}}, "day": 12, "month": 5, "livingplace": "Corcelles"}}, "location": "La Chaux-de-Fonds"}}, "name": "Jobin St\u00e9phane", "birth": 1970}