{"sex": "F", "races": {"Int Greifenseelauf, Uster": {"race": "Int Greifenseelauf, Uster", "longitude": 8.717873899999999, "latitude": 47.3482747, "date": {"sam. 20.09.2008": {"weekday": "saturday", "year": 2008, "categories": {"H-W50": {"pace": 329000000000, "rank": 38, "distance": 21, "time": 6959.5}}, "day": 20, "month": 9, "livingplace": "Grosshochstetten"}}, "location": "Uster"}, "Schweizer Frauenlauf Bern": {"race": "Schweizer Frauenlauf Bern", "longitude": 7.4474468, "latitude": 46.9479739, "date": {"dim. 12.06.2005": {"weekday": "sunday", "year": 2005, "categories": {"10-W45": {"pace": 306000000000, "rank": 85, "distance": 10, "time": 3060.4}}, "day": 12, "month": 6, "livingplace": "Grosshoechstetten"}}, "location": "Bern"}, "Bl\u00fcemlisalp-Lauf, Reichenbach": {"race": "Bl\u00fcemlisalp-Lauf, Reichenbach", "longitude": 7.6940529, "latitude": 46.6254387, "date": {"dim. 31.05.2009": {"weekday": "sunday", "year": 2009, "categories": {"F50": {"pace": 413000000000, "rank": 11, "distance": 16, "time": 6650.1}}, "day": 31, "month": 5, "livingplace": "Grosshochstetten"}}, "location": "Reichenbach im Kandertal"}, "ASICS Bremgarter Reusslauf": {"race": "ASICS Bremgarter Reusslauf", "longitude": 8.3397905, "latitude": 47.34917739999999, "date": {"sam. 17.02.2007": {"weekday": "saturday", "year": 2007, "categories": {"F50": {"pace": 288000000000, "rank": 24, "distance": 11, "time": 3025.9}}, "day": 17, "month": 2, "livingplace": "Grosshochstetten"}}, "location": "Bremgarten AG"}, "Z\u00fcrich Marathon, Teamrun und Cityrun": {"race": "Z\u00fcrich Marathon, Teamrun und Cityrun", "longitude": 8.541694, "latitude": 47.3768866, "date": {"dim. 01.04.2007": {"weekday": "sunday", "year": 2007, "categories": {"W50": {"pace": 334000000000, "rank": 23, "distance": 42, "time": 14097.7}}, "day": 1, "month": 4, "livingplace": "Grosshochstetten"}, "dim. 09.04.2006": {"weekday": "sunday", "year": 2006, "categories": {"W45": {"pace": 339000000000, "rank": 61, "distance": 42, "time": 14338.3}}, "day": 9, "month": 4, "livingplace": "Grosshochstetten"}}, "location": "Z\u00fcrich"}, "Jungfrau-Marathon, Interlaken": {"race": "Jungfrau-Marathon, Interlaken", "date": {"sam. 09.09.2006": {"weekday": "saturday", "year": 2006, "categories": {"F45": {"pace": 437000000000, "rank": 31, "distance": 42, "time": 18473.5}}, "day": 9, "month": 9, "livingplace": "Grosshochstetten"}}, "location": "Interlaken"}, "Kerzerslauf": {"race": "Kerzerslauf", "longitude": 7.1954365, "latitude": 46.97488999999999, "date": {"sam. 18.03.2006": {"weekday": "saturday", "year": 2006, "categories": {"F45": {"pace": 312000000000, "rank": 47, "distance": 15, "time": 4690.1}}, "day": 18, "month": 3, "livingplace": "Grosshochstetten"}, "sam. 17.03.2007": {"weekday": "saturday", "year": 2007, "categories": {"F50": {"pace": 299000000000, "rank": 23, "distance": 15, "time": 4496.4}}, "day": 17, "month": 3, "livingplace": "Grosshochstetten"}}, "location": "Kerzers"}}, "name": "Jost Ursula", "birth": 1957}