{"sex": "M", "races": {"Course de l'Escalade, Gen\u00e8ve": {"race": "Course de l'Escalade, Gen\u00e8ve", "longitude": 6.1431577, "latitude": 46.2043907, "date": {"sam. 07.12.2002": {"weekday": "saturday", "year": 2002, "categories": {"Hommes1": {"pace": 224000000000, "rank": 40, "distance": 7, "time": 1629.0}}, "day": 7, "month": 12, "livingplace": "Neuchatel"}}, "location": "Gen\u00e8ve"}, "BCN Tour M\u00f4tier": {"race": "BCN Tour M\u00f4tier", "longitude": 6.6324944, "latitude": 46.9262933, "date": {"mer. 19.05.2010": {"weekday": "wednesday", "year": 2010, "categories": {"HS1": {"pace": 229000000000, "rank": 15, "distance": 10, "time": 2272.5}}, "day": 19, "month": 5, "livingplace": "Neuchatel"}}, "location": "Couvet"}, "La Trotteuse-Tissot, La Chaux-de-Fonds": {"race": "La Trotteuse-Tissot, La Chaux-de-Fonds", "longitude": 6.832783800000001, "latitude": 47.1034892, "date": {"sam. 18.12.2010": {"weekday": "saturday", "year": 2010, "categories": {"GC-H30": {"pace": 253000000000, "rank": 20, "distance": 8, "time": 2025.6}}, "day": 18, "month": 12, "livingplace": "Neuchatel"}}, "location": "La Chaux-de-Fonds"}, "D\u00e9fi Val-de-Travers, Couvet": {"race": "D\u00e9fi Val-de-Travers, Couvet", "longitude": 6.6324944, "latitude": 46.9262933, "date": {"sam. 21.06.2008": {"weekday": "saturday", "year": 2008, "categories": {"SHS1": {"pace": 289000000000, "rank": 3, "distance": 20, "time": 5700.1}}, "day": 21, "month": 6, "livingplace": "Neuchatel"}}, "location": "Couvet"}, "BCN Tour Boudry": {"race": "BCN Tour Boudry", "longitude": 6.8589727, "latitude": 46.9668714, "date": {"mer. 26.04.2006": {"weekday": "wednesday", "year": 2006, "categories": {"HS1": {"pace": 248000000000, "rank": 27, "distance": 10, "time": 2530.3}}, "day": 26, "month": 4, "livingplace": "Neuchatel"}}, "location": "Colombier NE"}, "Morat-Fribourg": {"race": "Morat-Fribourg", "longitude": 7.120184, "latitude": 46.92922110000001, "date": {"sam. 04.10.2014": {"weekday": "saturday", "year": 2014, "categories": {"17-M20": {"pace": 274000000000, "rank": 456, "distance": 17, "time": 4706.5}}, "day": 4, "month": 10, "livingplace": "Neuchatel"}, "dim. 05.10.2003": {"weekday": "sunday", "year": 2003, "categories": {"M20": {"pace": 241000000000, "rank": 188, "distance": 17, "time": 4146.7}}, "day": 5, "month": 10, "livingplace": "Neuchatel"}, "sam. 03.10.2015": {"weekday": "saturday", "year": 2015, "categories": {"17-M20": {"pace": 269000000000, "rank": 377, "distance": 17, "time": 4624.4}}, "day": 3, "month": 10, "livingplace": "Neuchatel"}, "sam. 04.10.2008": {"weekday": "saturday", "year": 2008, "categories": {"C-M20": {"pace": 236000000000, "rank": 76, "distance": 17, "time": 4065.0}}, "day": 4, "month": 10, "livingplace": "Neuchatel"}}, "location": "Murten"}, "BCN Tour Ponts-de-Martel": {"race": "BCN Tour Ponts-de-Martel", "longitude": 6.9175754, "latitude": 47.0624261, "date": {"mer. 28.04.2010": {"weekday": "wednesday", "year": 2010, "categories": {"HS1": {"pace": 250000000000, "rank": 22, "distance": 11, "time": 2801.7}}, "day": 28, "month": 4, "livingplace": "Neuchatel"}}, "location": "Ch\u00e9zard-St-Martin"}, "BCN Tour Neuch\u00e2tel": {"race": "BCN Tour Neuch\u00e2tel", "longitude": 6.9292732, "latitude": 46.9899874, "date": {"mer. 26.05.2010": {"weekday": "wednesday", "year": 2010, "categories": {"HS1": {"pace": 257000000000, "rank": 29, "distance": 10, "time": 2501.7}}, "day": 26, "month": 5, "livingplace": "Neuchatel"}}, "location": "Neuch\u00e2tel"}, "BCN Tour Le Landeron": {"race": "BCN Tour Le Landeron", "longitude": 6.8589727, "latitude": 46.9668714, "date": {"mer. 22.04.2009": {"weekday": "wednesday", "year": 2009, "categories": {"HS1": {"pace": 235000000000, "rank": 18, "distance": 11, "time": 2608.7}}, "day": 22, "month": 4, "livingplace": "Gsfm"}}, "location": "Colombier NE"}, "Grand Prix Craft, Neuch\u00e2tel": {"race": "Grand Prix Craft, Neuch\u00e2tel", "longitude": 6.9292732, "latitude": 46.9899874, "date": {"dim. 16.12.2007": {"weekday": "sunday", "year": 2007, "categories": {"HS1": {"pace": 206000000000, "rank": 10, "distance": 7, "time": 1442.6}}, "day": 16, "month": 12, "livingplace": "Neuchatel"}}, "location": "Neuch\u00e2tel"}, "BCN Tour Colombier": {"race": "BCN Tour Colombier", "longitude": 6.8589727, "latitude": 46.9668714, "date": {"mer. 21.04.2010": {"weekday": "wednesday", "year": 2010, "categories": {"HS1": {"pace": 271000000000, "rank": 28, "distance": 10, "time": 2716.3}}, "day": 21, "month": 4, "livingplace": "Neuchatel"}, "mer. 23.04.2008": {"weekday": "wednesday", "year": 2008, "categories": {"HS1": {"pace": 253000000000, "rank": 26, "distance": 10, "time": 2580.9}}, "day": 23, "month": 4, "livingplace": "Voumard"}}, "location": "Colombier NE"}, "BCN Tour Le Locle": {"race": "BCN Tour Le Locle", "longitude": 6.733554799999999, "latitude": 46.999113, "date": {"mer. 05.05.2010": {"weekday": "wednesday", "year": 2010, "categories": {"HS1": {"pace": 239000000000, "rank": 18, "distance": 11, "time": 2605.7}}, "day": 5, "month": 5, "livingplace": "Neuchatel"}}, "location": "Les Ponts-de-Martel"}, "Aletsch-Halbmarathon, Bettmeralp": {"race": "Aletsch-Halbmarathon, Bettmeralp", "date": {"dim. 28.06.2009": {"weekday": "sunday", "year": 2009, "categories": {"M30": {"pace": 346000000000, "rank": 25, "distance": 21, "time": 7275.6}}, "day": 28, "month": 6, "livingplace": "Neuchtel"}, "dim. 28.06.2015": {"weekday": "sunday", "year": 2015, "categories": {"M35": {"pace": 405000000000, "rank": 46, "distance": 21, "time": 8559.6}}, "day": 28, "month": 6, "livingplace": "Neuchatel"}, "dim. 27.06.2010": {"weekday": "sunday", "year": 2010, "categories": {"M30": {"pace": 349000000000, "rank": 26, "distance": 21, "time": 7330.4}}, "day": 27, "month": 6, "livingplace": "gsfm"}}, "location": "Bettmeralp"}, "BCN Tour La Chaux-de-fonds": {"race": "BCN Tour La Chaux-de-fonds", "longitude": 6.832783800000001, "latitude": 47.1034892, "date": {"mer. 12.05.2010": {"weekday": "wednesday", "year": 2010, "categories": {"HS1": {"pace": 326000000000, "rank": 55, "distance": 11, "time": 3491.3}}, "day": 12, "month": 5, "livingplace": "Neuchatel"}}, "location": "La Chaux-de-Fonds"}}, "name": "Junker Christophe", "birth": 1976}