{"sex": "M", "races": {"Int Greifenseelauf, Uster": {"race": "Int Greifenseelauf, Uster", "longitude": 8.717873899999999, "latitude": 47.3482747, "date": {"sam. 22.09.2007": {"weekday": "saturday", "year": 2007, "categories": {"H/M50": {"pace": 339000000000, "rank": 378, "distance": 21, "time": 7175.4}}, "day": 22, "month": 9, "livingplace": "Binningen"}}, "location": "Uster"}, "Dreil\u00e4nder-Lauf, Basel": {"race": "Dreil\u00e4nder-Lauf, Basel", "longitude": 7.5885761, "latitude": 47.5595986, "date": {"dim. 20.05.2007": {"weekday": "sunday", "year": 2007, "categories": {"21M50": {"pace": 334000000000, "rank": 48, "distance": 21, "time": 7055.9}}, "day": 20, "month": 5, "livingplace": "Binningen"}}, "location": "Basel"}, "Z\u00fcrich Marathon, Teamrun und Cityrun": {"race": "Z\u00fcrich Marathon, Teamrun und Cityrun", "longitude": 8.541694, "latitude": 47.3768866, "date": {"dim. 20.04.2008": {"weekday": "sunday", "year": 2008, "categories": {"M50": {"pace": 362000000000, "rank": 347, "distance": 42, "time": 15315.5}}, "day": 20, "month": 4, "livingplace": "Binningen"}}, "location": "Z\u00fcrich"}, "IWB Basel Marathon": {"race": "IWB Basel Marathon", "longitude": 7.5885761, "latitude": 47.5595986, "date": {"dim. 28.09.2014": {"weekday": "sunday", "year": 2014, "categories": {"21-M55": {"pace": 331000000000, "rank": 37, "distance": 21, "time": 7000.2}}, "day": 28, "month": 9, "livingplace": "Binningen"}}, "location": "Basel"}, "Hallwilerseelauf, Beinwil am See": {"race": "Hallwilerseelauf, Beinwil am See", "date": {"sam. 12.10.2013": {"weekday": "saturday", "year": 2013, "categories": {"21-M50": {"pace": 331000000000, "rank": 368, "distance": 21, "time": 7004.6}}, "day": 12, "month": 10, "livingplace": "Binningen"}}, "location": "Beinwil am See"}, "Lucerne Marathon, Luzern": {"race": "Lucerne Marathon, Luzern", "longitude": 8.3093072, "latitude": 47.05016819999999, "date": {"dim. 25.10.2009": {"weekday": "sunday", "year": 2009, "categories": {"H-M50": {"pace": 322000000000, "rank": 264, "distance": 21, "time": 6806.2}}, "day": 25, "month": 10, "livingplace": "Binningen"}}, "location": "Luzern"}, "Morat-Fribourg": {"race": "Morat-Fribourg", "longitude": 7.120184, "latitude": 46.92922110000001, "date": {"sam. 04.10.2008": {"weekday": "saturday", "year": 2008, "categories": {"C-M50": {"pace": 323000000000, "rank": 307, "distance": 17, "time": 5553.7}}, "day": 4, "month": 10, "livingplace": "Binningen"}}, "location": "Murten"}, "Basler Stadtlauf": {"race": "Basler Stadtlauf", "longitude": 7.5885761, "latitude": 47.5595986, "date": {"sam. 28.11.2015": {"weekday": "saturday", "year": 2015, "categories": {"M55": {"pace": 313000000000, "rank": 135, "distance": 6, "time": 1724.6}}, "day": 28, "month": 11, "livingplace": "Binningen"}, "sam. 24.11.2012": {"weekday": "saturday", "year": 2012, "categories": {"M55": {"pace": 299000000000, "rank": 111, "distance": 6, "time": 1649.9}}, "day": 24, "month": 11, "livingplace": "Binningen"}, "sam. 28.11.2009": {"weekday": "saturday", "year": 2009, "categories": {"X": {"pace": 297000000000, "rank": 226, "distance": 6, "time": 1636.5}}, "day": 28, "month": 11, "livingplace": "Binningen"}}, "location": "Basel"}}, "name": "Kaiser Durisch Chris", "birth": 1956}