{"sex": "M", "races": {"B\u00fcndner Fr\u00fchlingslauf, Domat   Ems": {"race": "B\u00fcndner Fr\u00fchlingslauf, Domat   Ems", "date": {"sam. 25.04.2009": {"weekday": "saturday", "year": 2009, "categories": {"M40": {"pace": 353000000000, "rank": 111, "distance": 25, "time": 8826.7}}, "day": 25, "month": 4, "livingplace": "Widen"}}, "location": "Thusis"}, "Glacier 3000 Run, Gstaad": {"race": "Glacier 3000 Run, Gstaad", "longitude": 7.2865728, "latitude": 46.4717588, "date": {"sam. 08.08.2009": {"weekday": "saturday", "year": 2009, "categories": {"M40": {"pace": 631000000000, "rank": 85, "distance": 26, "time": 16431.6}}, "day": 8, "month": 8, "livingplace": "Widen"}}, "location": "Gstaad"}, "Bl\u00fcemlisalp-Lauf, Reichenbach": {"race": "Bl\u00fcemlisalp-Lauf, Reichenbach", "longitude": 7.6940529, "latitude": 46.6254387, "date": {"dim. 31.05.2009": {"weekday": "sunday", "year": 2009, "categories": {"M40": {"pace": 416000000000, "rank": 115, "distance": 16, "time": 6705.6}}, "day": 31, "month": 5, "livingplace": "Widen"}}, "location": "Reichenbach im Kandertal"}, "Badener Limmat-Lauf, Baden": {"race": "Badener Limmat-Lauf, Baden", "longitude": 8.5303972, "latitude": 48.5699281, "date": {"sam. 24.03.2012": {"weekday": "saturday", "year": 2012, "categories": {"M40": {"pace": 333000000000, "rank": 169, "distance": 13, "time": 4396.4}}, "day": 24, "month": 3, "livingplace": "Widen"}}, "location": "Baden"}, "Hallwilerseelauf, Beinwil am See": {"race": "Hallwilerseelauf, Beinwil am See", "date": {"sam. 13.10.2012": {"weekday": "saturday", "year": 2012, "categories": {"21-M40": {"pace": 333000000000, "rank": 683, "distance": 21, "time": 7041.5}}, "day": 13, "month": 10, "livingplace": "Widen"}, "sam. 15.10.2011": {"weekday": "saturday", "year": 2011, "categories": {"21-M40": {"pace": 345000000000, "rank": 836, "distance": 21, "time": 7291.5}}, "day": 15, "month": 10, "livingplace": "Widen"}}, "location": "Beinwil am See"}, "Pfingstlauf Wohlen AG": {"race": "Pfingstlauf Wohlen AG", "longitude": 8.2768762, "latitude": 47.3493653, "date": {"sam. 10.05.2008": {"weekday": "saturday", "year": 2008, "categories": {"M40": {"pace": 318000000000, "rank": 67, "distance": 8, "time": 2611.9}}, "day": 10, "month": 5, "livingplace": "Wieden"}}, "location": "Wohlen AG"}, "Dietiker Neujahrslauf, Dietikon": {"race": "Dietiker Neujahrslauf, Dietikon", "longitude": 8.39977, "latitude": 47.4053885, "date": {"sam. 10.01.2009": {"weekday": "saturday", "year": 2009, "categories": {"C": {"pace": 321000000000, "rank": 217, "distance": 12, "time": 3975.1}}, "day": 10, "month": 1, "livingplace": "Widen"}}, "location": "Dietikon"}, "ASICS Bremgarter Reusslauf": {"race": "ASICS Bremgarter Reusslauf", "longitude": 8.3397905, "latitude": 47.34917739999999, "date": {"sam. 22.02.2014": {"weekday": "saturday", "year": 2014, "categories": {"11-M40": {"pace": 342000000000, "rank": 549, "distance": 11, "time": 3771.3}}, "day": 22, "month": 2, "livingplace": "Widen"}, "sam. 26.02.2011": {"weekday": "saturday", "year": 2011, "categories": {"M40": {"pace": 325000000000, "rank": 588, "distance": 11, "time": 3582.3}}, "day": 26, "month": 2, "livingplace": "Widen"}}, "location": "Bremgarten AG"}, "Lucerne Marathon, Luzern": {"race": "Lucerne Marathon, Luzern", "longitude": 8.3093072, "latitude": 47.05016819999999, "date": {"dim. 25.10.2009": {"weekday": "sunday", "year": 2009, "categories": {"H-M40": {"pace": 321000000000, "rank": 769, "distance": 21, "time": 6778.8}}, "day": 25, "month": 10, "livingplace": "Widen"}}, "location": "Luzern"}, "Gippinger Stauseelauf": {"race": "Gippinger Stauseelauf", "longitude": 8.2152586, "latitude": 47.5810513, "date": {"mer. 31.12.2008": {"weekday": "wednesday", "year": 2008, "categories": {"M40": {"pace": 305000000000, "rank": 174, "distance": 8, "time": 2303.4}}, "day": 31, "month": 12, "livingplace": "Wieden"}}, "location": "Leuggern"}}, "name": "Kammermann Roger", "birth": 1967}