{"sex": "M", "races": {"Muttenzer Herbstlauf": {"race": "Muttenzer Herbstlauf", "longitude": 7.6476369, "latitude": 47.5279292, "date": {"dim. 27.10.2013": {"weekday": "sunday", "year": 2013, "categories": {"5-Mann": {"pace": 334000000000, "rank": 22, "distance": 6, "time": 1875.1}}, "day": 27, "month": 10, "livingplace": "Lorrach"}}, "location": "Muttenz"}, "Dreil\u00e4nder-Lauf, Basel": {"race": "Dreil\u00e4nder-Lauf, Basel", "longitude": 7.5885761, "latitude": 47.5595986, "date": {"dim. 17.05.2009": {"weekday": "sunday", "year": 2009, "categories": {"10M20": {"pace": 311000000000, "rank": 23, "distance": 10, "time": 3143.5}}, "day": 17, "month": 5, "livingplace": "Lorrach"}}, "location": "Basel"}, "Augusta Raurica Lauf, Augst BL": {"race": "Augusta Raurica Lauf, Augst BL", "date": {"dim. 09.11.2014": {"weekday": "sunday", "year": 2014, "categories": {"5-JogM": {"pace": 312000000000, "rank": 34, "distance": 6, "time": 1719.8}}, "day": 9, "month": 11, "livingplace": "Lorrach"}, "dim. 10.11.2013": {"weekday": "sunday", "year": 2013, "categories": {"5-JogM": {"pace": 332000000000, "rank": 42, "distance": 6, "time": 1828.4}}, "day": 10, "month": 11, "livingplace": "Lorrach"}}, "location": "Augst BL"}, "Liestaler Stadtlauf": {"race": "Liestaler Stadtlauf", "longitude": 7.7334272, "latitude": 47.4866143, "date": {"mer. 28.08.2013": {"weekday": "wednesday", "year": 2013, "categories": {"St\u00e4M": {"pace": 283000000000, "rank": 35, "distance": 5, "time": 1475.9}}, "day": 28, "month": 8, "livingplace": "Lorrach"}}, "location": "Liestal"}, "ASICS Bremgarter Reusslauf": {"race": "ASICS Bremgarter Reusslauf", "longitude": 8.3397905, "latitude": 47.34917739999999, "date": {"sam. 22.02.2014": {"weekday": "saturday", "year": 2014, "categories": {"11-M30": {"pace": 324000000000, "rank": 384, "distance": 11, "time": 3569.2}}, "day": 22, "month": 2, "livingplace": "Lorrach"}}, "location": "Bremgarten AG"}, "Gippinger Stauseelauf": {"race": "Gippinger Stauseelauf", "longitude": 8.2152586, "latitude": 47.5810513, "date": {"jeu. 31.12.2015": {"weekday": "thursday", "year": 2015, "categories": {"7-JoggM": {"pace": 317000000000, "rank": 122, "distance": 8, "time": 2392.5}}, "day": 31, "month": 12, "livingplace": "Lorrach"}}, "location": "Leuggern"}, "Basler Stadtlauf": {"race": "Basler Stadtlauf", "longitude": 7.5885761, "latitude": 47.5595986, "date": {"sam. 29.11.2008": {"weekday": "saturday", "year": 2008, "categories": {"M": {"pace": 285000000000, "rank": 317, "distance": 6, "time": 1572.7}}, "day": 29, "month": 11, "livingplace": "Lorrach"}, "sam. 29.11.2014": {"weekday": "saturday", "year": 2014, "categories": {"M30": {"pace": 298000000000, "rank": 303, "distance": 6, "time": 1639.5}}, "day": 29, "month": 11, "livingplace": "Lorrach"}}, "location": "Basel"}, "Int Greifenseelauf, Uster": {"race": "Int Greifenseelauf, Uster", "longitude": 8.717873899999999, "latitude": 47.3482747, "date": {"sam. 20.09.2008": {"weekday": "saturday", "year": 2008, "categories": {"K-M20": {"pace": 311000000000, "rank": 61, "distance": 10, "time": 3119.4}}, "day": 20, "month": 9, "livingplace": "Lorrach"}}, "location": "Uster"}}, "name": "Karcher Manuel", "birth": 1980}