{"sex": "M", "races": {"Int Greifenseelauf, Uster": {"race": "Int Greifenseelauf, Uster", "longitude": 8.717873899999999, "latitude": 47.3482747, "date": {"sam. 22.09.2007": {"weekday": "saturday", "year": 2007, "categories": {"H/M35": {"pace": 254000000000, "rank": 68, "distance": 21, "time": 5378.0}}, "day": 22, "month": 9, "livingplace": "Effretikon"}}, "location": "Uster"}, "Badener Limmat-Lauf, Baden": {"race": "Badener Limmat-Lauf, Baden", "longitude": 8.5303972, "latitude": 48.5699281, "date": {"sam. 29.03.2008": {"weekday": "saturday", "year": 2008, "categories": {"M30": {"pace": 229000000000, "rank": 21, "distance": 13, "time": 3026.2}}, "day": 29, "month": 3, "livingplace": "Effretikon"}}, "location": "Baden"}, "Luzerner Stadtlauf": {"race": "Luzerner Stadtlauf", "longitude": 8.3093072, "latitude": 47.05016819999999, "date": {"sam. 03.05.2003": {"weekday": "saturday", "year": 2003, "categories": {"K/27": {"pace": 225000000000, "rank": 54, "distance": 6, "time": 1238.9}}, "day": 3, "month": 5, "livingplace": "Effretikon"}}, "location": "Luzern"}, "Z\u00fcrich Marathon, Teamrun und Cityrun": {"race": "Z\u00fcrich Marathon, Teamrun und Cityrun", "longitude": 8.541694, "latitude": 47.3768866, "date": {"dim. 13.04.2003": {"weekday": "sunday", "year": 2003, "categories": {"M30": {"pace": 252000000000, "rank": 122, "distance": 42, "time": 10669.3}}, "day": 13, "month": 4, "livingplace": "Effretikon"}}, "location": "Z\u00fcrich"}, "Z\u00fcrcher Silvesterlauf, Z\u00fcrich": {"race": "Z\u00fcrcher Silvesterlauf, Z\u00fcrich", "longitude": 8.541694, "latitude": 47.3768866, "date": {"dim. 14.12.2008": {"weekday": "sunday", "year": 2008, "categories": {"MenAK1-8": {"pace": 226000000000, "rank": 61, "distance": 9, "time": 1943.7}}, "day": 14, "month": 12, "livingplace": "Effretikon"}, "dim. 16.12.2007": {"weekday": "sunday", "year": 2007, "categories": {"MenAK1-8": {"pace": 218000000000, "rank": 42, "distance": 9, "time": 1879.1}}, "day": 16, "month": 12, "livingplace": "Effretikon"}}, "location": "Z\u00fcrich"}, "Kerzerslauf": {"race": "Kerzerslauf", "longitude": 7.1954365, "latitude": 46.97488999999999, "date": {"sam. 20.03.2010": {"weekday": "saturday", "year": 2010, "categories": {"15-M40": {"pace": 253000000000, "rank": 99, "distance": 15, "time": 3796.3}}, "day": 20, "month": 3, "livingplace": "Sargans"}, "sam. 15.03.2003": {"weekday": "saturday", "year": 2003, "categories": {"M20": {"pace": 237000000000, "rank": 134, "distance": 15, "time": 3557.1}}, "day": 15, "month": 3, "livingplace": "Effretikon"}}, "location": "Kerzers"}, "Hellebardenlauf Sempach": {"race": "Hellebardenlauf Sempach", "date": {"sam. 01.07.2006": {"weekday": "saturday", "year": 2006, "categories": {"LMS1": {"pace": 244000000000, "rank": 17, "distance": 16, "time": 3931.0}}, "day": 1, "month": 7, "livingplace": "Effretikon"}}, "location": "Sempach Stadt"}}, "name": "Keel Harry", "birth": 1970}