{"sex": "M", "races": {"Laufsporttag Winterthur": {"race": "Laufsporttag Winterthur", "longitude": -75.6037351, "latitude": 39.8088766, "date": {"sam. 01.03.2014": {"weekday": "saturday", "year": 2014, "categories": {"U": {"pace": 252000000000, "rank": 12, "distance": 2, "time": 480.2}}, "day": 1, "month": 3, "livingplace": "Wattwil"}}, "location": "Winterthur"}, "Kyburglauf, Kyburg": {"race": "Kyburglauf, Kyburg", "date": {"sam. 08.11.2014": {"weekday": "saturday", "year": 2014, "categories": {"K-KnaB": {"pace": 236000000000, "rank": 7, "distance": 2, "time": 472.9}}, "day": 8, "month": 11, "livingplace": "Wattwil"}}, "location": "Kyburg"}, "Pf\u00e4ffikerseelauf, Wetzikon": {"race": "Pf\u00e4ffikerseelauf, Wetzikon", "date": {"dim. 28.09.2014": {"weekday": "sunday", "year": 2014, "categories": {"U": {"pace": 217000000000, "rank": 10, "distance": 2, "time": 412.4}}, "day": 28, "month": 9, "livingplace": "Wattwil"}}, "location": "Wetzikon ZH"}, "Zumiker-Lauf": {"race": "Zumiker-Lauf", "date": {"sam. 10.05.2014": {"weekday": "saturday", "year": 2014, "categories": {"U": {"pace": 187000000000, "rank": 8, "distance": 1, "time": 224.9}}, "day": 10, "month": 5, "livingplace": "Wattwil"}}, "location": "Zumikon"}, "GP der Stadt D\u00fcbendorf": {"race": "GP der Stadt D\u00fcbendorf", "longitude": 8.618012799999999, "latitude": 47.3971476, "date": {"sam. 12.04.2014": {"weekday": "saturday", "year": 2014, "categories": {"U": {"pace": 242000000000, "rank": 12, "distance": 2, "time": 323.1}}, "day": 12, "month": 4, "livingplace": "Wattwil"}}, "location": "D\u00fcbendorf"}, "Rheinfall-Lauf, Neuhausen": {"race": "Rheinfall-Lauf, Neuhausen", "longitude": 8.6126098, "latitude": 47.6837423, "date": {"dim. 24.08.2014": {"weekday": "sunday", "year": 2014, "categories": {"U": {"pace": 200000000000, "rank": 10, "distance": 2, "time": 462.2}}, "day": 24, "month": 8, "livingplace": "Wattwil"}}, "location": "Neuhausen am Rheinfall"}, "Dietiker Neujahrslauf, Dietikon": {"race": "Dietiker Neujahrslauf, Dietikon", "longitude": 8.39977, "latitude": 47.4053885, "date": {"sam. 10.01.2015": {"weekday": "saturday", "year": 2015, "categories": {"U": {"pace": 253000000000, "rank": 8, "distance": 2, "time": 456.9}}, "day": 10, "month": 1, "livingplace": "Wattwil"}}, "location": "Dietikon"}, "ASICS Bremgarter Reusslauf": {"race": "ASICS Bremgarter Reusslauf", "longitude": 8.3397905, "latitude": 47.34917739999999, "date": {"sam. 28.02.2015": {"weekday": "saturday", "year": 2015, "categories": {"1-U12m": {"pace": 237000000000, "rank": 5, "distance": 1, "time": 308.3}}, "day": 28, "month": 2, "livingplace": "Wattwil"}}, "location": "Bremgarten AG"}, "R\u00fctilauf, R\u00fcti ZH": {"race": "R\u00fctilauf, R\u00fcti ZH", "longitude": 8.854421, "latitude": 47.2566995, "date": {"sam. 13.09.2014": {"weekday": "saturday", "year": 2014, "categories": {"U": {"pace": 243000000000, "rank": 7, "distance": 1, "time": 340.7}}, "day": 13, "month": 9, "livingplace": "Wattwil"}}, "location": "R\u00fcti ZH"}, "M\u00e4nned\u00f6rfler Waldlauf": {"race": "M\u00e4nned\u00f6rfler Waldlauf", "longitude": 8.6946733, "latitude": 47.2574625, "date": {"sam. 29.03.2014": {"weekday": "saturday", "year": 2014, "categories": {"U": {"pace": 287000000000, "rank": 21, "distance": 1, "time": 344.6}}, "day": 29, "month": 3, "livingplace": "Wattwil"}}, "location": "M\u00e4nnedorf"}, "Z\u00fcrcher Silvesterlauf, Z\u00fcrich": {"race": "Z\u00fcrcher Silvesterlauf, Z\u00fcrich", "longitude": 8.541694, "latitude": 47.3768866, "date": {"dim. 14.12.2014": {"weekday": "sunday", "year": 2014, "categories": {"U12M": {"pace": 262000000000, "rank": 77, "distance": 1, "time": 419.6}}, "day": 14, "month": 12, "livingplace": "Wattwil"}}, "location": "Z\u00fcrich"}}, "name": "Keller Marvin", "birth": 2004}