{"sex": "M", "races": {"Lucerne Marathon, Luzern": {"race": "Lucerne Marathon, Luzern", "longitude": 8.3093072, "latitude": 47.05016819999999, "date": {"dim. 28.10.2012": {"weekday": "sunday", "year": 2012, "categories": {"H-M40": {"pace": 326000000000, "rank": 872, "distance": 21, "time": 6893.6}}, "day": 28, "month": 10, "livingplace": "Bern"}}, "location": "Luzern"}, "Stralugano, Lugano": {"race": "Stralugano, Lugano", "longitude": 8.951051999999999, "latitude": 46.0036778, "date": {"dim. 30.09.2012": {"weekday": "sunday", "year": 2012, "categories": {"10-M40": {"pace": 289000000000, "rank": 192, "distance": 10, "time": 2892.2}}, "day": 30, "month": 9, "livingplace": "Bern"}, "dim. 28.09.2014": {"weekday": "sunday", "year": 2014, "categories": {"10-M40": {"pace": 274000000000, "rank": 197, "distance": 10, "time": 2743.5}}, "day": 28, "month": 9, "livingplace": "Bern"}}, "location": "Lugano"}, "SwissCityMarathon - Lucerne, Luzern": {"race": "SwissCityMarathon - Lucerne, Luzern", "longitude": 8.3093072, "latitude": 47.05016819999999, "date": {"dim. 26.10.2014": {"weekday": "sunday", "year": 2014, "categories": {"H-M40": {"pace": 307000000000, "rank": 660, "distance": 21, "time": 6497.2}}, "day": 26, "month": 10, "livingplace": "Bern"}}, "location": "Luzern"}, "Kerzerslauf": {"race": "Kerzerslauf", "longitude": 7.1954365, "latitude": 46.97488999999999, "date": {"sam. 17.03.2012": {"weekday": "saturday", "year": 2012, "categories": {"15-M40": {"pace": 317000000000, "rank": 450, "distance": 15, "time": 4759.9}}, "day": 17, "month": 3, "livingplace": "Bern"}}, "location": "Kerzers"}, "Ch\u00e4sitzerlouf, Kehrsatz": {"race": "Ch\u00e4sitzerlouf, Kehrsatz", "date": {"sam. 04.05.2013": {"weekday": "saturday", "year": 2013, "categories": {"12-M40": {"pace": 291000000000, "rank": 114, "distance": 12, "time": 3501.1}}, "day": 4, "month": 5, "livingplace": "Bern"}, "sam. 25.04.2015": {"weekday": "saturday", "year": 2015, "categories": {"12-M40": {"pace": 293000000000, "rank": 115, "distance": 12, "time": 3525.4}}, "day": 25, "month": 4, "livingplace": "Bern"}}, "location": "Kehrsatz"}, "Z\u00fcrcher Silvesterlauf, Z\u00fcrich": {"race": "Z\u00fcrcher Silvesterlauf, Z\u00fcrich", "longitude": 8.541694, "latitude": 47.3768866, "date": {"dim. 11.12.2011": {"weekday": "sunday", "year": 2011, "categories": {"8-MenAK2": {"pace": 309000000000, "rank": 819, "distance": 9, "time": 2660.1}}, "day": 11, "month": 12, "livingplace": "Bern"}}, "location": "Z\u00fcrich"}, "Basler Stadtlauf": {"race": "Basler Stadtlauf", "longitude": 7.5885761, "latitude": 47.5595986, "date": {"sam. 24.11.2012": {"weekday": "saturday", "year": 2012, "categories": {"M40": {"pace": 273000000000, "rank": 212, "distance": 6, "time": 1502.7}}, "day": 24, "month": 11, "livingplace": "Bern"}}, "location": "Basel"}}, "name": "Keller Roland", "birth": 1971}