{"sex": "F", "races": {"Tour du Chablais #6 Montreux": {"race": "Tour du Chablais #6 Montreux", "longitude": 6.970566, "latitude": 46.3190253, "date": {"mer. 16.05.2012": {"weekday": "wednesday", "year": 2012, "categories": {"F-F50": {"pace": 319000000000, "rank": 13, "distance": 9, "time": 2954.4}}, "day": 16, "month": 5, "livingplace": "Martigny"}}, "location": "Aigle"}, "Tour du Chablais #5 Leysin": {"race": "Tour du Chablais #5 Leysin", "longitude": 6.931504599999999, "latitude": 46.3603257, "date": {"mer. 05.05.2010": {"weekday": "wednesday", "year": 2010, "categories": {"F-F40": {"pace": 349000000000, "rank": 27, "distance": 8, "time": 2950.4}}, "day": 5, "month": 5, "livingplace": "Martigny"}}, "location": "Roche VD"}, "Tour du Chablais #2 Bex": {"race": "Tour du Chablais #2 Bex", "longitude": 6.854975199999999, "latitude": 46.3835529, "date": {"mer. 18.04.2012": {"weekday": "wednesday", "year": 2012, "categories": {"F-F50": {"pace": 324000000000, "rank": 11, "distance": 8, "time": 2593.7}}, "day": 18, "month": 4, "livingplace": "Martigny"}}, "location": "Bouveret"}, "Tour du Chablais #4 Yvorne": {"race": "Tour du Chablais #4 Yvorne", "date": {"mer. 28.04.2010": {"weekday": "wednesday", "year": 2010, "categories": {"F-F40": {"pace": 344000000000, "rank": 35, "distance": 8, "time": 2848.9}}, "day": 28, "month": 4, "livingplace": "Martigny"}}, "location": "Les Mosses"}, "Tour du Chablais #1 Roche": {"race": "Tour du Chablais #1 Roche", "longitude": 6.9916269, "latitude": 46.2957462, "date": {"mer. 07.04.2010": {"weekday": "wednesday", "year": 2010, "categories": {"F-F40": {"pace": 320000000000, "rank": 32, "distance": 9, "time": 2872.1}}, "day": 7, "month": 4, "livingplace": "Martigny"}}, "location": "Ollon VD"}, "Tour du Chablais #1 Martigny": {"race": "Tour du Chablais #1 Martigny", "longitude": 6.9916269, "latitude": 46.2957462, "date": {"mer. 23.04.2014": {"weekday": "wednesday", "year": 2014, "categories": {"F-F50": {"pace": 340000000000, "rank": 24, "distance": 9, "time": 2896.6}}, "day": 23, "month": 4, "livingplace": "Nartigny"}}, "location": "Ollon VD"}, "Tour du Chablais #5 Bex": {"race": "Tour du Chablais #5 Bex", "longitude": 6.931504599999999, "latitude": 46.3603257, "date": {"mer. 09.05.2012": {"weekday": "wednesday", "year": 2012, "categories": {"F-F50": {"pace": 320000000000, "rank": 12, "distance": 9, "time": 2843.1}}, "day": 9, "month": 5, "livingplace": "Martigny"}}, "location": "Roche VD"}, "Morat-Fribourg": {"race": "Morat-Fribourg", "longitude": 7.120184, "latitude": 46.92922110000001, "date": {"sam. 03.10.2009": {"weekday": "saturday", "year": 2009, "categories": {"C-W45": {"pace": 425000000000, "rank": 218, "distance": 17, "time": 7297.5}}, "day": 3, "month": 10, "livingplace": "Martigny"}, "sam. 04.10.2008": {"weekday": "saturday", "year": 2008, "categories": {"C-W45": {"pace": 353000000000, "rank": 137, "distance": 17, "time": 6073.4}}, "day": 4, "month": 10, "livingplace": "Martigny"}}, "location": "Murten"}, "Tour du Chablais #6 Aigle": {"race": "Tour du Chablais #6 Aigle", "longitude": 6.970566, "latitude": 46.3190253, "date": {"mer. 01.06.2011": {"weekday": "wednesday", "year": 2011, "categories": {"F-F40": {"pace": 316000000000, "rank": 35, "distance": 10, "time": 3232.8}}, "day": 1, "month": 6, "livingplace": "Martigny"}}, "location": "Aigle"}, "Tour du Chablais #4 Morgins": {"race": "Tour du Chablais #4 Morgins", "date": {"mer. 18.05.2011": {"weekday": "wednesday", "year": 2011, "categories": {"F-F40": {"pace": 336000000000, "rank": 43, "distance": 8, "time": 2808.9}}, "day": 18, "month": 5, "livingplace": "Martigny"}}, "location": "Les Mosses"}, "Tour du Chablais #6 Mouthey": {"race": "Tour du Chablais #6 Mouthey", "longitude": 6.970566, "latitude": 46.3190253, "date": {"mer. 12.05.2010": {"weekday": "wednesday", "year": 2010, "categories": {"F-F40": {"pace": 318000000000, "rank": 44, "distance": 9, "time": 2932.9}}, "day": 12, "month": 5, "livingplace": "Martigny"}}, "location": "Aigle"}, "Schweizer Frauenlauf Bern": {"race": "Schweizer Frauenlauf Bern", "longitude": 7.4474468, "latitude": 46.9479739, "date": {"dim. 01.06.2008": {"weekday": "sunday", "year": 2008, "categories": {"W45-10": {"pace": 332000000000, "rank": 191, "distance": 10, "time": 3327.9}}, "day": 1, "month": 6, "livingplace": "Martigny"}}, "location": "Bern"}, "Tour du Chablais #5 Les Mosses": {"race": "Tour du Chablais #5 Les Mosses", "longitude": 6.931504599999999, "latitude": 46.3603257, "date": {"mer. 25.05.2011": {"weekday": "wednesday", "year": 2011, "categories": {"F-F40": {"pace": 342000000000, "rank": 29, "distance": 8, "time": 2743.2}}, "day": 25, "month": 5, "livingplace": "Martigny"}}, "location": "Roche VD"}, "Tour du Chablais #1 Lavey": {"race": "Tour du Chablais #1 Lavey", "longitude": 6.9916269, "latitude": 46.2957462, "date": {"mer. 27.04.2011": {"weekday": "wednesday", "year": 2011, "categories": {"F-F40": {"pace": 338000000000, "rank": 48, "distance": 9, "time": 3043.1}}, "day": 27, "month": 4, "livingplace": "Martigny"}}, "location": "Ollon VD"}, "Tour du Chablais #4 Champ\u00e9ry": {"race": "Tour du Chablais #4 Champ\u00e9ry", "date": {"mer. 02.05.2012": {"weekday": "wednesday", "year": 2012, "categories": {"F-F50": {"pace": 325000000000, "rank": 12, "distance": 8, "time": 2700.0}}, "day": 2, "month": 5, "livingplace": "Martigny"}}, "location": "Les Mosses"}, "Tour du Chablais #3 Bex": {"race": "Tour du Chablais #3 Bex", "longitude": 7.0223787, "latitude": 46.1782231, "date": {"mer. 21.04.2010": {"weekday": "wednesday", "year": 2010, "categories": {"F-F40": {"pace": 340000000000, "rank": 40, "distance": 10, "time": 3405.1}}, "day": 21, "month": 4, "livingplace": "Martigny"}}, "location": "Evionnaz"}, "Tour du Chablais #1 Montreux": {"race": "Tour du Chablais #1 Montreux", "longitude": 6.9916269, "latitude": 46.2957462, "date": {"mer. 11.04.2012": {"weekday": "wednesday", "year": 2012, "categories": {"F-F50": {"pace": 334000000000, "rank": 9, "distance": 8, "time": 2542.2}}, "day": 11, "month": 4, "livingplace": "Martigny"}}, "location": "Ollon VD"}, "Tour du Chablais #3 Le Bouveret": {"race": "Tour du Chablais #3 Le Bouveret", "longitude": 7.0223787, "latitude": 46.1782231, "date": {"mer. 11.05.2011": {"weekday": "wednesday", "year": 2011, "categories": {"F-F40": {"pace": 328000000000, "rank": 40, "distance": 10, "time": 3282.4}}, "day": 11, "month": 5, "livingplace": "Martigny"}}, "location": "Evionnaz"}, "Tour du Chablais #2 St-Gingolph": {"race": "Tour du Chablais #2 St-Gingolph", "longitude": 6.854975199999999, "latitude": 46.3835529, "date": {"mer. 14.04.2010": {"weekday": "wednesday", "year": 2010, "categories": {"F-F40": {"pace": 350000000000, "rank": 34, "distance": 8, "time": 2928.4}}, "day": 14, "month": 4, "livingplace": "Martigny"}}, "location": "Bouveret"}, "Tour du Chablais #3 Collombey-Muraz": {"race": "Tour du Chablais #3 Collombey-Muraz", "longitude": 7.0223787, "latitude": 46.1782231, "date": {"mer. 25.04.2012": {"weekday": "wednesday", "year": 2012, "categories": {"F-F50": {"pace": 325000000000, "rank": 15, "distance": 9, "time": 2920.4}}, "day": 25, "month": 4, "livingplace": "Martigny"}}, "location": "Evionnaz"}, "Tour du Chablais #2 Rennaz": {"race": "Tour du Chablais #2 Rennaz", "longitude": 6.854975199999999, "latitude": 46.3835529, "date": {"mer. 04.05.2011": {"weekday": "wednesday", "year": 2011, "categories": {"F-F40": {"pace": 325000000000, "rank": 47, "distance": 9, "time": 3044.8}}, "day": 4, "month": 5, "livingplace": "Martigny"}}, "location": "Bouveret"}}, "name": "Keller Marianne", "birth": 1962}