{"sex": "M", "races": {"Int Greifenseelauf, Uster": {"race": "Int Greifenseelauf, Uster", "longitude": 8.717873899999999, "latitude": 47.3482747, "date": {"sam. 17.09.2005": {"weekday": "saturday", "year": 2005, "categories": {"H/M35": {"pace": 261000000000, "rank": 214, "distance": 21, "time": 5513.0}}, "day": 17, "month": 9, "livingplace": "Bolligen"}}, "location": "Uster"}, "Gurtenclassic, Wabern": {"race": "Gurtenclassic, Wabern", "longitude": 7.448973199999999, "latitude": 46.92901639999999, "date": {"dim. 05.11.2006": {"weekday": "sunday", "year": 2006, "categories": {"M33": {"pace": 296000000000, "rank": 39, "distance": 15, "time": 4447.0}}, "day": 5, "month": 11, "livingplace": "Jegenstorf"}, "dim. 01.11.2009": {"weekday": "sunday", "year": 2009, "categories": {"M40": {"pace": 306000000000, "rank": 81, "distance": 15, "time": 4602.1}}, "day": 1, "month": 11, "livingplace": "Jegenstorf"}, "dim. 06.11.2011": {"weekday": "sunday", "year": 2011, "categories": {"M40": {"pace": 299000000000, "rank": 44, "distance": 15, "time": 4495.4}}, "day": 6, "month": 11, "livingplace": "Jegenstorf"}}, "location": "Wabern"}, "Winterthur Marathon": {"race": "Winterthur Marathon", "longitude": -75.6037351, "latitude": 39.8088766, "date": {"dim. 26.05.2002": {"weekday": "sunday", "year": 2002, "categories": {"MM35": {"pace": 303000000000, "rank": 88, "distance": 42, "time": 12804.7}}, "day": 26, "month": 5, "livingplace": "Bolligen"}}, "location": "Winterthur"}, "Kerzerslauf": {"race": "Kerzerslauf", "longitude": 7.1954365, "latitude": 46.97488999999999, "date": {"sam. 17.03.2007": {"weekday": "saturday", "year": 2007, "categories": {"M40": {"pace": 265000000000, "rank": 214, "distance": 15, "time": 3987.4}}, "day": 17, "month": 3, "livingplace": "Jegenstorf"}}, "location": "Kerzers"}, "Gippinger Stauseelauf": {"race": "Gippinger Stauseelauf", "longitude": 8.2152586, "latitude": 47.5810513, "date": {"mar. 31.12.2002": {"weekday": "tuesday", "year": 2002, "categories": {"M30": {"pace": 252000000000, "rank": 123, "distance": 8, "time": 1893.1}}, "day": 31, "month": 12, "livingplace": "Gebenstorf"}}, "location": "Leuggern"}, "Z\u00fcrcher Silvesterlauf, Z\u00fcrich": {"race": "Z\u00fcrcher Silvesterlauf, Z\u00fcrich", "longitude": 8.541694, "latitude": 47.3768866, "date": {"dim. 16.12.2007": {"weekday": "sunday", "year": 2007, "categories": {"MenAK2-8": {"pace": 268000000000, "rank": 410, "distance": 9, "time": 2311.2}}, "day": 16, "month": 12, "livingplace": "Jegenstorf"}}, "location": "Z\u00fcrich"}, "Aletsch-Halbmarathon, Bettmeralp": {"race": "Aletsch-Halbmarathon, Bettmeralp", "date": {"dim. 24.06.2007": {"weekday": "sunday", "year": 2007, "categories": {"M40": {"pace": 426000000000, "rank": 76, "distance": 21, "time": 8952.2}}, "day": 24, "month": 6, "livingplace": "Jegenstorf"}}, "location": "Bettmeralp"}}, "name": "Keller Daniel", "birth": 1967}