{"sex": "M", "races": {"BCN Tour #4 Fleurier": {"race": "BCN Tour #4 Fleurier", "longitude": 6.832783800000001, "latitude": 47.1034892, "date": {"mer. 15.05.2013": {"weekday": "wednesday", "year": 2013, "categories": {"HJ": {"pace": 217000000000, "rank": 3, "distance": 9, "time": 1877.7}}, "day": 15, "month": 5, "livingplace": "Chaumont"}}, "location": "La Chaux-de-Fonds"}, "BCN Tour La Chaux-de-Fonds": {"race": "BCN Tour La Chaux-de-Fonds", "longitude": 6.832783800000001, "latitude": 47.1034892, "date": {"mer. 11.05.2011": {"weekday": "wednesday", "year": 2011, "categories": {"KG4": {"pace": 164000000000, "rank": 1, "distance": 4, "time": 639.7}}, "day": 11, "month": 5, "livingplace": "Chaumont"}, "mer. 23.05.2012": {"weekday": "wednesday", "year": 2012, "categories": {"HJ": {"pace": 227000000000, "rank": 2, "distance": 11, "time": 2458.4}}, "day": 23, "month": 5, "livingplace": "Chaumont"}}, "location": "La Chaux-de-Fonds"}, "Course p\u00e9destre Thyon-Dixence, Thyon": {"race": "Course p\u00e9destre Thyon-Dixence, Thyon", "date": {"dim. 03.08.2014": {"weekday": "sunday", "year": 2014, "categories": {"JunHom": {"pace": 342000000000, "rank": 7, "distance": 16, "time": 5603.6}}, "day": 3, "month": 8, "livingplace": "Chaumont"}}, "location": "Thyon-Les Collons"}, "BCN Tour Les Ponts de Martel": {"race": "BCN Tour Les Ponts de Martel", "longitude": 6.6324944, "latitude": 46.9262933, "date": {"mer. 18.05.2011": {"weekday": "wednesday", "year": 2011, "categories": {"KG4": {"pace": 203000000000, "rank": 2, "distance": 4, "time": 793.8}}, "day": 18, "month": 5, "livingplace": "Chaumont"}}, "location": "Couvet"}, "Morat-Fribourg": {"race": "Morat-Fribourg", "longitude": 7.120184, "latitude": 46.92922110000001, "date": {"sam. 03.10.2015": {"weekday": "saturday", "year": 2015, "categories": {"17-JunH": {"pace": 212000000000, "rank": 1, "distance": 17, "time": 3652.0}}, "day": 3, "month": 10, "livingplace": "Chaumont"}, "sam. 05.10.2013": {"weekday": "saturday", "year": 2013, "categories": {"17-CadH": {"pace": 227000000000, "rank": 1, "distance": 17, "time": 3977.9}}, "day": 5, "month": 10, "livingplace": "Chaumont"}, "sam. 06.10.2012": {"weekday": "saturday", "year": 2012, "categories": {"17-CadH": {"pace": 233000000000, "rank": 1, "distance": 17, "time": 4082.9}}, "day": 6, "month": 10, "livingplace": "Chaumont"}}, "location": "Murten"}, "BCN Tour Fontaine Cernier": {"race": "BCN Tour Fontaine Cernier", "longitude": 6.9175754, "latitude": 47.0624261, "date": {"mer. 27.04.2011": {"weekday": "wednesday", "year": 2011, "categories": {"KG4": {"pace": 233000000000, "rank": 1, "distance": 3, "time": 700.7}}, "day": 27, "month": 4, "livingplace": "Chaumont"}}, "location": "Ch\u00e9zard-St-Martin"}, "BCN Tour #6 Neuch\u00e2tel": {"race": "BCN Tour #6 Neuch\u00e2tel", "longitude": 6.9292732, "latitude": 46.9899874, "date": {"mer. 29.05.2013": {"weekday": "wednesday", "year": 2013, "categories": {"HJ": {"pace": 226000000000, "rank": 1, "distance": 11, "time": 2489.9}}, "day": 29, "month": 5, "livingplace": "Chaumont"}}, "location": "Neuch\u00e2tel"}, "BCN Tour #5 Colombier": {"race": "BCN Tour #5 Colombier", "longitude": 6.6324944, "latitude": 46.9262933, "date": {"mer. 22.05.2013": {"weekday": "wednesday", "year": 2013, "categories": {"HJ": {"pace": 210000000000, "rank": 2, "distance": 11, "time": 2209.7}}, "day": 22, "month": 5, "livingplace": "Chaumont"}}, "location": "Couvet"}, "BCN Tour Neuch\u00e2tel": {"race": "BCN Tour Neuch\u00e2tel", "longitude": 6.9292732, "latitude": 46.9899874, "date": {"mer. 25.05.2011": {"weekday": "wednesday", "year": 2011, "categories": {"KG4": {"pace": 200000000000, "rank": 2, "distance": 4, "time": 727.8}}, "day": 25, "month": 5, "livingplace": "Chaumont"}, "mer. 26.05.2010": {"weekday": "wednesday", "year": 2010, "categories": {"KG4": {"pace": 182000000000, "rank": 5, "distance": 3, "time": 621.8}}, "day": 26, "month": 5, "livingplace": "Chaumont"}, "mer. 30.05.2012": {"weekday": "wednesday", "year": 2012, "categories": {"HJ": {"pace": 239000000000, "rank": 2, "distance": 11, "time": 2681.7}}, "day": 30, "month": 5, "livingplace": "Chaumont"}}, "location": "Neuch\u00e2tel"}, "Sierre-Zinal, Sierre": {"race": "Sierre-Zinal, Sierre", "longitude": 7.533536199999999, "latitude": 46.29413110000001, "date": {"dim. 12.08.2012": {"weekday": "sunday", "year": 2012, "categories": {"Jun_Homm": {"pace": 310000000000, "rank": 7, "distance": 19, "time": 5904.9}}, "day": 12, "month": 8, "livingplace": "Chaumont"}}, "location": "Sierre"}, "Groupe E Tour Fribourg #3, Kerzers": {"race": "Groupe E Tour Fribourg #3, Kerzers", "longitude": 7.1954365, "latitude": 46.97488999999999, "date": {"mer. 03.09.2014": {"weekday": "wednesday", "year": 2014, "categories": {"H-Jun": {"pace": 215000000000, "rank": 1, "distance": 10, "time": 2187.7}}, "day": 3, "month": 9, "livingplace": "Chaumont"}}, "location": "Kerzers"}, "BCN Tour Les Ponts-de-Martel": {"race": "BCN Tour Les Ponts-de-Martel", "longitude": 6.733554799999999, "latitude": 46.999113, "date": {"mer. 09.05.2012": {"weekday": "wednesday", "year": 2012, "categories": {"HJ": {"pace": 239000000000, "rank": 5, "distance": 10, "time": 2464.5}}, "day": 9, "month": 5, "livingplace": "Chaumont"}}, "location": "Les Ponts-de-Martel"}, "BCN Tour Le Locle": {"race": "BCN Tour Le Locle", "longitude": 6.733554799999999, "latitude": 46.999113, "date": {"mer. 05.05.2010": {"weekday": "wednesday", "year": 2010, "categories": {"KG4": {"pace": 210000000000, "rank": 3, "distance": 4, "time": 779.0}}, "day": 5, "month": 5, "livingplace": "Chaumont"}}, "location": "Les Ponts-de-Martel"}, "BCN Tour Auvernier": {"race": "BCN Tour Auvernier", "longitude": 6.8589727, "latitude": 46.9668714, "date": {"mer. 20.04.2011": {"weekday": "wednesday", "year": 2011, "categories": {"HJ": {"pace": 253000000000, "rank": 4, "distance": 11, "time": 2736.2}}, "day": 20, "month": 4, "livingplace": "Chaumont"}}, "location": "Colombier NE"}, "BCN Tour #3 Dombresson": {"race": "BCN Tour #3 Dombresson", "longitude": 6.733554799999999, "latitude": 46.999113, "date": {"mer. 08.05.2013": {"weekday": "wednesday", "year": 2013, "categories": {"HJ": {"pace": 216000000000, "rank": 2, "distance": 10, "time": 2142.4}}, "day": 8, "month": 5, "livingplace": "Chaumont"}}, "location": "Les Ponts-de-Martel"}, "BCN Tour #1 Corcelles": {"race": "BCN Tour #1 Corcelles", "longitude": 6.8589727, "latitude": 46.9668714, "date": {"mer. 24.04.2013": {"weekday": "wednesday", "year": 2013, "categories": {"HJ": {"pace": 217000000000, "rank": 3, "distance": 10, "time": 2129.8}}, "day": 24, "month": 4, "livingplace": "Chaumont"}}, "location": "Colombier NE"}, "BCN Tour M\u00f4tier": {"race": "BCN Tour M\u00f4tier", "longitude": 6.6324944, "latitude": 46.9262933, "date": {"mer. 19.05.2010": {"weekday": "wednesday", "year": 2010, "categories": {"KG4": {"pace": 228000000000, "rank": 3, "distance": 4, "time": 868.0}}, "day": 19, "month": 5, "livingplace": "Chaumont"}}, "location": "Couvet"}, "BCN Tour Ponts-de-Martel": {"race": "BCN Tour Ponts-de-Martel", "longitude": 6.9175754, "latitude": 47.0624261, "date": {"mer. 28.04.2010": {"weekday": "wednesday", "year": 2010, "categories": {"KG4": {"pace": 193000000000, "rank": 3, "distance": 4, "time": 812.4}}, "day": 28, "month": 4, "livingplace": "Chaumont"}}, "location": "Ch\u00e9zard-St-Martin"}, "BCN Tour Couvet": {"race": "BCN Tour Couvet", "longitude": 6.9175754, "latitude": 47.0624261, "date": {"mer. 02.05.2012": {"weekday": "wednesday", "year": 2012, "categories": {"HJ": {"pace": 235000000000, "rank": 2, "distance": 11, "time": 2625.5}}, "day": 2, "month": 5, "livingplace": "Chaumont"}}, "location": "Ch\u00e9zard-St-Martin"}, "BCN Tour Cornaux": {"race": "BCN Tour Cornaux", "longitude": 6.8589727, "latitude": 46.9668714, "date": {"mer. 25.04.2012": {"weekday": "wednesday", "year": 2012, "categories": {"HJ": {"pace": 253000000000, "rank": 2, "distance": 11, "time": 2786.9}}, "day": 25, "month": 4, "livingplace": "Chaumont"}}, "location": "Colombier NE"}, "BCN Tour La Br\u00e9vine": {"race": "BCN Tour La Br\u00e9vine", "longitude": 6.733554799999999, "latitude": 46.999113, "date": {"mer. 04.05.2011": {"weekday": "wednesday", "year": 2011, "categories": {"KG4": {"pace": 215000000000, "rank": 1, "distance": 4, "time": 818.8}}, "day": 4, "month": 5, "livingplace": "Chaumont"}}, "location": "Les Ponts-de-Martel"}, "D\u00e9fi Val-de-Travers, Couvet": {"race": "D\u00e9fi Val-de-Travers, Couvet", "longitude": 6.6324944, "latitude": 46.9262933, "date": {"sam. 21.06.2008": {"weekday": "saturday", "year": 2008, "categories": {"GA": {"pace": 243000000000, "rank": 4, "distance": 3, "time": 621.8}}, "day": 21, "month": 6, "livingplace": "Chaumont"}}, "location": "Couvet"}, "BCN Tour #2 La Chaux-de-Fonds": {"race": "BCN Tour #2 La Chaux-de-Fonds", "longitude": 6.9175754, "latitude": 47.0624261, "date": {"mer. 01.05.2013": {"weekday": "wednesday", "year": 2013, "categories": {"HJ": {"pace": 219000000000, "rank": 3, "distance": 11, "time": 2350.7}}, "day": 1, "month": 5, "livingplace": "Chaumont"}}, "location": "Ch\u00e9zard-St-Martin"}, "BCN Tour Le Landeron": {"race": "BCN Tour Le Landeron", "longitude": 6.8589727, "latitude": 46.9668714, "date": {"mer. 22.04.2009": {"weekday": "wednesday", "year": 2009, "categories": {"KG3": {"pace": 221000000000, "rank": 2, "distance": 4, "time": 886.1}}, "day": 22, "month": 4, "livingplace": "Corcelles"}}, "location": "Colombier NE"}, "BCN Tour Boudry": {"race": "BCN Tour Boudry", "longitude": 6.8589727, "latitude": 46.9668714, "date": {"mer. 26.04.2006": {"weekday": "wednesday", "year": 2006, "categories": {"KG2": {"pace": 266000000000, "rank": 14, "distance": 2, "time": 506.0}}, "day": 26, "month": 4, "livingplace": "Chaumont"}}, "location": "Colombier NE"}, "BCN Tour Colombier": {"race": "BCN Tour Colombier", "longitude": 6.8589727, "latitude": 46.9668714, "date": {"mer. 21.04.2010": {"weekday": "wednesday", "year": 2010, "categories": {"KG4": {"pace": 219000000000, "rank": 2, "distance": 4, "time": 878.9}}, "day": 21, "month": 4, "livingplace": "Chaumont"}, "mer. 16.05.2012": {"weekday": "wednesday", "year": 2012, "categories": {"HJ": {"pace": 227000000000, "rank": 1, "distance": 11, "time": 2453.9}}, "day": 16, "month": 5, "livingplace": "Chaumont"}, "mer. 23.04.2008": {"weekday": "wednesday", "year": 2008, "categories": {"KG3": {"pace": 261000000000, "rank": 9, "distance": 4, "time": 1046.1}}, "day": 23, "month": 4, "livingplace": "Corcelles"}}, "location": "Colombier NE"}, "Kerzerslauf": {"race": "Kerzerslauf", "longitude": 7.1954365, "latitude": 46.97488999999999, "date": {"sam. 15.03.2008": {"weekday": "saturday", "year": 2008, "categories": {"2/M13": {"pace": 208000000000, "rank": 16, "distance": 1, "time": 291.7}}, "day": 15, "month": 3, "livingplace": "Chaumont"}}, "location": "Kerzers"}, "Aletsch-Halbmarathon, Bettmeralp": {"race": "Aletsch-Halbmarathon, Bettmeralp", "date": {"dim. 29.06.2014": {"weekday": "sunday", "year": 2014, "categories": {"MU20": {"pace": 260000000000, "rank": 1, "distance": 13, "time": 3464.4}}, "day": 29, "month": 6, "livingplace": "Chaumont"}}, "location": "Bettmeralp"}, "BCN Tour La Chaux-de-fonds": {"race": "BCN Tour La Chaux-de-fonds", "longitude": 6.832783800000001, "latitude": 47.1034892, "date": {"mer. 12.05.2010": {"weekday": "wednesday", "year": 2010, "categories": {"KG4": {"pace": 208000000000, "rank": 3, "distance": 4, "time": 813.0}}, "day": 12, "month": 5, "livingplace": "Chaumont"}}, "location": "La Chaux-de-Fonds"}}, "name": "Kipfer Tristan", "birth": 1996}