{"sex": "F", "races": {"10km Schweizer Meisterschaften Lyss": {"race": "10km Schweizer Meisterschaften Lyss", "longitude": 7.3077022, "latitude": 47.0746504, "date": {"sam. 31.03.2012": {"weekday": "saturday", "year": 2012, "categories": {"10-W35": {"pace": 291000000000, "rank": 14, "distance": 10, "time": 2910.2}}, "day": 31, "month": 3, "livingplace": "Zurich"}}, "location": "Lyss"}, "Z\u00fcrich Marathon, Teamrun und Cityrun": {"race": "Z\u00fcrich Marathon, Teamrun und Cityrun", "longitude": 8.541694, "latitude": 47.3768866, "date": {"dim. 22.04.2012": {"weekday": "sunday", "year": 2012, "categories": {"10-W30": {"pace": 277000000000, "rank": 28, "distance": 10, "time": 2771.8}}, "day": 22, "month": 4, "livingplace": "Zurich"}}, "location": "Z\u00fcrich"}, "Badener Limmat-Lauf, Baden": {"race": "Badener Limmat-Lauf, Baden", "longitude": 8.5303972, "latitude": 48.5699281, "date": {"sam. 24.03.2012": {"weekday": "saturday", "year": 2012, "categories": {"F30": {"pace": 309000000000, "rank": 31, "distance": 13, "time": 4074.5}}, "day": 24, "month": 3, "livingplace": "Zurich"}}, "location": "Baden"}, "Hallwilerseelauf, Beinwil am See": {"race": "Hallwilerseelauf, Beinwil am See", "date": {"sam. 16.10.2010": {"weekday": "saturday", "year": 2010, "categories": {"21-F30": {"pace": 303000000000, "rank": 75, "distance": 21, "time": 6407.9}}, "day": 16, "month": 10, "livingplace": "Zurich"}}, "location": "Beinwil am See"}, "Thuner Stadtlauf, Thun": {"race": "Thuner Stadtlauf, Thun", "longitude": 7.6279881, "latitude": 46.7579868, "date": {"dim. 22.08.2010": {"weekday": "sunday", "year": 2010, "categories": {"10-W30": {"pace": 313000000000, "rank": 29, "distance": 10, "time": 3135.2}}, "day": 22, "month": 8, "livingplace": "Zurich"}}, "location": "Thun"}, "ASICS Bremgarter Reusslauf": {"race": "ASICS Bremgarter Reusslauf", "longitude": 8.3397905, "latitude": 47.34917739999999, "date": {"sam. 25.02.2012": {"weekday": "saturday", "year": 2012, "categories": {"F30": {"pace": 297000000000, "rank": 79, "distance": 11, "time": 3272.3}}, "day": 25, "month": 2, "livingplace": "SM Run"}, "sam. 26.02.2011": {"weekday": "saturday", "year": 2011, "categories": {"F30": {"pace": 298000000000, "rank": 82, "distance": 11, "time": 3278.7}}, "day": 26, "month": 2, "livingplace": "SM Run"}}, "location": "Bremgarten AG"}, "Lucerne Marathon, Luzern": {"race": "Lucerne Marathon, Luzern", "longitude": 8.3093072, "latitude": 47.05016819999999, "date": {"dim. 31.10.2010": {"weekday": "sunday", "year": 2010, "categories": {"H-F30": {"pace": 309000000000, "rank": 120, "distance": 21, "time": 6528.5}}, "day": 31, "month": 10, "livingplace": "Zurich"}}, "location": "Luzern"}, "Morat-Fribourg": {"race": "Morat-Fribourg", "longitude": 7.120184, "latitude": 46.92922110000001, "date": {"sam. 02.10.2010": {"weekday": "saturday", "year": 2010, "categories": {"17-W35": {"pace": 348000000000, "rank": 111, "distance": 17, "time": 5976.7}}, "day": 2, "month": 10, "livingplace": "Zurich"}}, "location": "Murten"}, "Langenthaler Stadtlauf": {"race": "Langenthaler Stadtlauf", "longitude": 7.790562299999999, "latitude": 47.2120786, "date": {"sam. 21.11.2009": {"weekday": "saturday", "year": 2009, "categories": {"W35": {"pace": 273000000000, "rank": 10, "distance": 6, "time": 1710.7}}, "day": 21, "month": 11, "livingplace": "Zurich"}}, "location": "Langenthal"}, "Kerzerslauf": {"race": "Kerzerslauf", "longitude": 7.1954365, "latitude": 46.97488999999999, "date": {"sam. 20.03.2010": {"weekday": "saturday", "year": 2010, "categories": {"15-F35": {"pace": 331000000000, "rank": 104, "distance": 15, "time": 4973.8}}, "day": 20, "month": 3, "livingplace": "Zurich"}}, "location": "Kerzers"}}, "name": "Kohler Christine", "birth": 1974}