{"sex": "M", "races": {"BCN Tour Les Ponts de Martel": {"race": "BCN Tour Les Ponts de Martel", "longitude": 6.6324944, "latitude": 46.9262933, "date": {"mer. 18.05.2011": {"weekday": "wednesday", "year": 2011, "categories": {"HV2": {"pace": 334000000000, "rank": 12, "distance": 13, "time": 4275.7}}, "day": 18, "month": 5, "livingplace": "Le Locle"}}, "location": "Couvet"}, "BCN Tour La Chaux-de-Fonds": {"race": "BCN Tour La Chaux-de-Fonds", "longitude": 6.832783800000001, "latitude": 47.1034892, "date": {"mer. 11.05.2011": {"weekday": "wednesday", "year": 2011, "categories": {"HV2": {"pace": 377000000000, "rank": 13, "distance": 11, "time": 4040.8}}, "day": 11, "month": 5, "livingplace": "Le Locle"}}, "location": "La Chaux-de-Fonds"}, "BCN Tour Auvernier": {"race": "BCN Tour Auvernier", "longitude": 6.8589727, "latitude": 46.9668714, "date": {"mer. 20.04.2011": {"weekday": "wednesday", "year": 2011, "categories": {"HV2": {"pace": 338000000000, "rank": 13, "distance": 11, "time": 3655.4}}, "day": 20, "month": 4, "livingplace": "Le Locle"}}, "location": "Colombier NE"}, "BCN Tour #3 Dombresson": {"race": "BCN Tour #3 Dombresson", "longitude": 6.733554799999999, "latitude": 46.999113, "date": {"mer. 08.05.2013": {"weekday": "wednesday", "year": 2013, "categories": {"HV2": {"pace": 370000000000, "rank": 39, "distance": 10, "time": 3671.4}}, "day": 8, "month": 5, "livingplace": "Le Locle"}}, "location": "Les Ponts-de-Martel"}, "BCN Tour Ponts-de-Martel": {"race": "BCN Tour Ponts-de-Martel", "longitude": 6.9175754, "latitude": 47.0624261, "date": {"mer. 28.04.2010": {"weekday": "wednesday", "year": 2010, "categories": {"HV2": {"pace": 334000000000, "rank": 18, "distance": 11, "time": 3740.8}}, "day": 28, "month": 4, "livingplace": "Le Locle"}}, "location": "Ch\u00e9zard-St-Martin"}, "BCN Tour Fontaine Cernier": {"race": "BCN Tour Fontaine Cernier", "longitude": 6.9175754, "latitude": 47.0624261, "date": {"mer. 27.04.2011": {"weekday": "wednesday", "year": 2011, "categories": {"HV2": {"pace": 315000000000, "rank": 16, "distance": 10, "time": 3249.7}}, "day": 27, "month": 4, "livingplace": "Le Locle"}}, "location": "Ch\u00e9zard-St-Martin"}, "BCN Tour #2 La Chaux-de-Fonds": {"race": "BCN Tour #2 La Chaux-de-Fonds", "longitude": 6.9175754, "latitude": 47.0624261, "date": {"mer. 01.05.2013": {"weekday": "wednesday", "year": 2013, "categories": {"HV2": {"pace": 384000000000, "rank": 40, "distance": 11, "time": 4115.7}}, "day": 1, "month": 5, "livingplace": "Le Locle"}}, "location": "Ch\u00e9zard-St-Martin"}, "BCN Tour La Br\u00e9vine": {"race": "BCN Tour La Br\u00e9vine", "longitude": 6.733554799999999, "latitude": 46.999113, "date": {"mer. 04.05.2011": {"weekday": "wednesday", "year": 2011, "categories": {"HV2": {"pace": 333000000000, "rank": 11, "distance": 10, "time": 3333.9}}, "day": 4, "month": 5, "livingplace": "Le Locle"}}, "location": "Les Ponts-de-Martel"}, "BCN Tour #5 Colombier": {"race": "BCN Tour #5 Colombier", "longitude": 6.6324944, "latitude": 46.9262933, "date": {"mer. 22.05.2013": {"weekday": "wednesday", "year": 2013, "categories": {"HV2": {"pace": 342000000000, "rank": 34, "distance": 11, "time": 3591.4}}, "day": 22, "month": 5, "livingplace": "Le Locle"}}, "location": "Couvet"}, "BCN Tour Neuch\u00e2tel": {"race": "BCN Tour Neuch\u00e2tel", "longitude": 6.9292732, "latitude": 46.9899874, "date": {"mer. 25.05.2011": {"weekday": "wednesday", "year": 2011, "categories": {"HV2": {"pace": 338000000000, "rank": 14, "distance": 11, "time": 3855.0}}, "day": 25, "month": 5, "livingplace": "Le Locle"}, "mer. 26.05.2010": {"weekday": "wednesday", "year": 2010, "categories": {"HV2": {"pace": 411000000000, "rank": 20, "distance": 10, "time": 3992.1}}, "day": 26, "month": 5, "livingplace": "Le Locle"}}, "location": "Neuch\u00e2tel"}, "BCN Tour Colombier": {"race": "BCN Tour Colombier", "longitude": 6.8589727, "latitude": 46.9668714, "date": {"mer. 21.04.2010": {"weekday": "wednesday", "year": 2010, "categories": {"HV2": {"pace": 371000000000, "rank": 27, "distance": 10, "time": 3711.4}}, "day": 21, "month": 4, "livingplace": "Le Locle"}}, "location": "Colombier NE"}, "Jungfrau-Marathon, Interlaken": {"race": "Jungfrau-Marathon, Interlaken", "date": {"sam. 10.09.2005": {"weekday": "saturday", "year": 2005, "categories": {"M55": {"pace": 442000000000, "rank": 89, "distance": 42, "time": 18666.0}}, "day": 10, "month": 9, "livingplace": "Le Locle"}}, "location": "Interlaken"}, "BCN Tour Le Locle": {"race": "BCN Tour Le Locle", "longitude": 6.733554799999999, "latitude": 46.999113, "date": {"mer. 05.05.2010": {"weekday": "wednesday", "year": 2010, "categories": {"HV2": {"pace": 334000000000, "rank": 18, "distance": 11, "time": 3649.1}}, "day": 5, "month": 5, "livingplace": "Le Locle"}}, "location": "Les Ponts-de-Martel"}, "BCN Tour La Chaux-de-fonds": {"race": "BCN Tour La Chaux-de-fonds", "longitude": 6.832783800000001, "latitude": 47.1034892, "date": {"mer. 12.05.2010": {"weekday": "wednesday", "year": 2010, "categories": {"HV2": {"pace": 420000000000, "rank": 25, "distance": 11, "time": 4503.0}}, "day": 12, "month": 5, "livingplace": "Le Locle"}}, "location": "La Chaux-de-Fonds"}}, "name": "Koller Richard", "birth": 1950}