{"sex": "M", "races": {"Gurtenclassic, Wabern": {"race": "Gurtenclassic, Wabern", "longitude": 7.448973199999999, "latitude": 46.92901639999999, "date": {"dim. 06.11.2011": {"weekday": "sunday", "year": 2011, "categories": {"KM20": {"pace": 344000000000, "rank": 90, "distance": 8, "time": 2897.8}}, "day": 6, "month": 11, "livingplace": "Lyssach"}}, "location": "Wabern"}, "Emmenlauf Utzenstorf": {"race": "Emmenlauf Utzenstorf", "longitude": 7.5588034, "latitude": 47.12816670000001, "date": {"mer. 21.08.2013": {"weekday": "wednesday", "year": 2013, "categories": {"Herren3": {"pace": 255000000000, "rank": 28, "distance": 11, "time": 2685.5}}, "day": 21, "month": 8, "livingplace": "Lyssach"}}, "location": "Utzenstorf"}, "Hallwilerseelauf, Beinwil am See": {"race": "Hallwilerseelauf, Beinwil am See", "date": {"sam. 12.10.2013": {"weekday": "saturday", "year": 2013, "categories": {"10-Mann": {"pace": 249000000000, "rank": 116, "distance": 10, "time": 2490.4}}, "day": 12, "month": 10, "livingplace": "Lyssach"}}, "location": "Beinwil am See"}, "Course de l'Avent, Fribourg": {"race": "Course de l'Avent, Fribourg", "longitude": 7.161971899999999, "latitude": 46.8064773, "date": {"dim. 24.11.2013": {"weekday": "sunday", "year": 2013, "categories": {"P-H40": {"pace": 265000000000, "rank": 6, "distance": 6, "time": 1675.2}}, "day": 24, "month": 11, "livingplace": "Lyssach"}}, "location": "Fribourg"}, "ASICS Bremgarter Reusslauf": {"race": "ASICS Bremgarter Reusslauf", "longitude": 8.3397905, "latitude": 47.34917739999999, "date": {"sam. 25.02.2012": {"weekday": "saturday", "year": 2012, "categories": {"M40": {"pace": 277000000000, "rank": 378, "distance": 11, "time": 3054.8}}, "day": 25, "month": 2, "livingplace": "Lyssach"}}, "location": "Bremgarten AG"}, "Lausanne Marathon": {"race": "Lausanne Marathon", "longitude": 6.6322734, "latitude": 46.5196535, "date": {"dim. 27.10.2013": {"weekday": "sunday", "year": 2013, "categories": {"10-H3": {"pace": 248000000000, "rank": 51, "distance": 10, "time": 2485.5}}, "day": 27, "month": 10, "livingplace": "Lyssach"}}, "location": "Lausanne"}, "Kerzerslauf": {"race": "Kerzerslauf", "longitude": 7.1954365, "latitude": 46.97488999999999, "date": {"sam. 17.03.2012": {"weekday": "saturday", "year": 2012, "categories": {"15-M40": {"pace": 292000000000, "rank": 315, "distance": 15, "time": 4385.0}}, "day": 17, "month": 3, "livingplace": "Lyssach"}}, "location": "Kerzers"}, "Z\u00fcrcher Silvesterlauf, Z\u00fcrich": {"race": "Z\u00fcrcher Silvesterlauf, Z\u00fcrich", "longitude": 8.541694, "latitude": 47.3768866, "date": {"dim. 11.12.2011": {"weekday": "sunday", "year": 2011, "categories": {"8-MenAK1": {"pace": 270000000000, "rank": 351, "distance": 9, "time": 2329.0}}, "day": 11, "month": 12, "livingplace": "Lyssach"}}, "location": "Z\u00fcrich"}}, "name": "Kr\u00e4henb\u00fchl Thomas", "birth": 1972}