{"sex": "F", "races": {"Int Greifenseelauf, Uster": {"race": "Int Greifenseelauf, Uster", "longitude": 8.717873899999999, "latitude": 47.3482747, "date": {"sam. 19.09.2009": {"weekday": "saturday", "year": 2009, "categories": {"H-W35": {"pace": 356000000000, "rank": 226, "distance": 21, "time": 7513.7}}, "day": 19, "month": 9, "livingplace": "St. Pantaleon"}}, "location": "Uster"}, "Z\u00fcrich Marathon, Teamrun und Cityrun": {"race": "Z\u00fcrich Marathon, Teamrun und Cityrun", "longitude": 8.541694, "latitude": 47.3768866, "date": {"dim. 17.04.2011": {"weekday": "sunday", "year": 2011, "categories": {"42-W30": {"pace": 348000000000, "rank": 98, "distance": 42, "time": 14717.5}}, "day": 17, "month": 4, "livingplace": "St. Pantaleon"}}, "location": "Z\u00fcrich"}, "IWB Basel Marathon": {"race": "IWB Basel Marathon", "longitude": 7.5885761, "latitude": 47.5595986, "date": {"dim. 23.09.2012": {"weekday": "sunday", "year": 2012, "categories": {"H-21-F40": {"pace": 314000000000, "rank": 17, "distance": 21, "time": 6634.1}}, "day": 23, "month": 9, "livingplace": "St. Pantaleon"}}, "location": "Basel"}, "Gempenlauf, Dornach": {"race": "Gempenlauf, Dornach", "longitude": 7.6170412, "latitude": 47.4790491, "date": {"mer. 04.06.2014": {"weekday": "wednesday", "year": 2014, "categories": {"F40": {"pace": 369000000000, "rank": 12, "distance": 8, "time": 2885.0}}, "day": 4, "month": 6, "livingplace": "St. Pantaleon"}, "mer. 08.06.2011": {"weekday": "wednesday", "year": 2011, "categories": {"F35": {"pace": 386000000000, "rank": 10, "distance": 8, "time": 3014.5}}, "day": 8, "month": 6, "livingplace": "St. Pantaleon"}}, "location": "Dornach"}, "Lucerne Marathon, Luzern": {"race": "Lucerne Marathon, Luzern", "longitude": 8.3093072, "latitude": 47.05016819999999, "date": {"dim. 28.10.2012": {"weekday": "sunday", "year": 2012, "categories": {"M-F40": {"pace": 339000000000, "rank": 39, "distance": 42, "time": 14332.4}}, "day": 28, "month": 10, "livingplace": "St. Pantaleon"}}, "location": "Luzern"}, "Jungfrau-Marathon, Interlaken": {"race": "Jungfrau-Marathon, Interlaken", "date": {"sam. 10.09.2011": {"weekday": "saturday", "year": 2011, "categories": {"F20": {"pace": 492000000000, "rank": 170, "distance": 42, "time": 20768.1}}, "day": 10, "month": 9, "livingplace": "St. Pantaleon"}}, "location": "Interlaken"}}, "name": "Kuhn Patricia", "birth": 1972}