{"sex": "M", "races": {"Int Greifenseelauf, Uster": {"race": "Int Greifenseelauf, Uster", "longitude": 8.717873899999999, "latitude": 47.3482747, "date": {"sam. 17.09.2005": {"weekday": "saturday", "year": 2005, "categories": {"H/M20": {"pace": 256000000000, "rank": 110, "distance": 21, "time": 5421.5}}, "day": 17, "month": 9, "livingplace": "Zurich"}}, "location": "Uster"}, "SM CS 10km Strasse route + Volkslauf 10km, Uster": {"race": "SM CS 10km Strasse route + Volkslauf 10km, Uster", "longitude": 8.717873899999999, "latitude": 47.3482747, "date": {"sam. 23.03.2013": {"weekday": "saturday", "year": 2013, "categories": {"10-M35": {"pace": 216000000000, "rank": 18, "distance": 10, "time": 2169.1}}, "day": 23, "month": 3, "livingplace": "Dubendorf"}}, "location": "Uster"}, "Sihltaler Fr\u00fchlingslauf, Gattikon": {"race": "Sihltaler Fr\u00fchlingslauf, Gattikon", "longitude": 8.5644799, "latitude": 47.2949282, "date": {"jeu. 01.05.2014": {"weekday": "thursday", "year": 2014, "categories": {"10-M30": {"pace": 216000000000, "rank": 5, "distance": 10, "time": 2162.5}}, "day": 1, "month": 5, "livingplace": "Dubendorf"}}, "location": "Gattikon"}, "Schlosslauf Rapperswil-Jona": {"race": "Schlosslauf Rapperswil-Jona", "longitude": 8.818437399999999, "latitude": 47.2266239, "date": {"dim. 18.10.2015": {"weekday": "sunday", "year": 2015, "categories": {"10-M2": {"pace": 212000000000, "rank": 4, "distance": 10, "time": 2129.5}}, "day": 18, "month": 10, "livingplace": "Dubendorf"}}, "location": "Rapperswil SG"}, "ASICS Bremgarter Reusslauf": {"race": "ASICS Bremgarter Reusslauf", "longitude": 8.3397905, "latitude": 47.34917739999999, "date": {"sam. 28.02.2015": {"weekday": "saturday", "year": 2015, "categories": {"11-M30": {"pace": 214000000000, "rank": 25, "distance": 11, "time": 2362.6}}, "day": 28, "month": 2, "livingplace": "Dubendorf"}, "sam. 22.02.2014": {"weekday": "saturday", "year": 2014, "categories": {"11-M30": {"pace": 228000000000, "rank": 68, "distance": 11, "time": 2513.0}}, "day": 22, "month": 2, "livingplace": "Dubendorf"}, "sam. 23.02.2013": {"weekday": "saturday", "year": 2013, "categories": {"11-M30": {"pace": 221000000000, "rank": 37, "distance": 11, "time": 2431.1}}, "day": 23, "month": 2, "livingplace": "Dubendorf"}}, "location": "Bremgarten AG"}, "Z\u00fcrich Marathon, Teamrun und Cityrun": {"race": "Z\u00fcrich Marathon, Teamrun und Cityrun", "longitude": 8.541694, "latitude": 47.3768866, "date": {"dim. 20.04.2008": {"weekday": "sunday", "year": 2008, "categories": {"M30": {"pace": 270000000000, "rank": 205, "distance": 42, "time": 11419.3}}, "day": 20, "month": 4, "livingplace": "Zurich"}}, "location": "Z\u00fcrich"}, "Lausanne Marathon": {"race": "Lausanne Marathon", "longitude": 6.6322734, "latitude": 46.5196535, "date": {"dim. 26.10.2014": {"weekday": "sunday", "year": 2014, "categories": {"42-H30": {"pace": 295000000000, "rank": 63, "distance": 42, "time": 12457.1}}, "day": 26, "month": 10, "livingplace": "Dubendorf"}}, "location": "Lausanne"}, "Walliseller Lauf, Wallisellen": {"race": "Walliseller Lauf, Wallisellen", "date": {"dim. 01.11.2015": {"weekday": "sunday", "year": 2015, "categories": {"M2": {"pace": 213000000000, "rank": 2, "distance": 10, "time": 2133.2}}, "day": 1, "month": 11, "livingplace": "Sv Wiedikon"}}, "location": "Wallisellen"}}, "name": "Lagerstr\u00f6m Mark", "birth": 1977}