{"sex": "M", "races": {"Tour du Chablais #1 Montreux": {"race": "Tour du Chablais #1 Montreux", "longitude": 6.9916269, "latitude": 46.2957462, "date": {"mer. 11.04.2012": {"weekday": "wednesday", "year": 2012, "categories": {"M-M20": {"pace": 300000000000, "rank": 140, "distance": 8, "time": 2281.8}}, "day": 11, "month": 4, "livingplace": "Muraz Collombey"}}, "location": "Ollon VD"}, "Tour du Chablais #4 Champ\u00e9ry": {"race": "Tour du Chablais #4 Champ\u00e9ry", "date": {"mer. 02.05.2012": {"weekday": "wednesday", "year": 2012, "categories": {"M-M20": {"pace": 283000000000, "rank": 126, "distance": 8, "time": 2350.9}}, "day": 2, "month": 5, "livingplace": "Muraz Collombey"}}, "location": "Les Mosses"}, "Tour du Chablais #2 Bex": {"race": "Tour du Chablais #2 Bex", "longitude": 6.854975199999999, "latitude": 46.3835529, "date": {"mer. 18.04.2012": {"weekday": "wednesday", "year": 2012, "categories": {"M-M20": {"pace": 300000000000, "rank": 158, "distance": 8, "time": 2405.8}}, "day": 18, "month": 4, "livingplace": "Muraz Collombey"}}, "location": "Bouveret"}, "Tour du Chablais #3 Collombey-Muraz": {"race": "Tour du Chablais #3 Collombey-Muraz", "longitude": 7.0223787, "latitude": 46.1782231, "date": {"mer. 25.04.2012": {"weekday": "wednesday", "year": 2012, "categories": {"M-M20": {"pace": 296000000000, "rank": 144, "distance": 9, "time": 2661.4}}, "day": 25, "month": 4, "livingplace": "Muraz Collombey"}}, "location": "Evionnaz"}, "Tour du Chablais #5 Bex": {"race": "Tour du Chablais #5 Bex", "longitude": 6.931504599999999, "latitude": 46.3603257, "date": {"mer. 09.05.2012": {"weekday": "wednesday", "year": 2012, "categories": {"M-M20": {"pace": 274000000000, "rank": 108, "distance": 9, "time": 2434.4}}, "day": 9, "month": 5, "livingplace": "Muraz Collombey"}}, "location": "Roche VD"}, "Tour du Chablais #6 Montreux": {"race": "Tour du Chablais #6 Montreux", "longitude": 6.970566, "latitude": 46.3190253, "date": {"mer. 16.05.2012": {"weekday": "wednesday", "year": 2012, "categories": {"M-M20": {"pace": 287000000000, "rank": 154, "distance": 9, "time": 2656.0}}, "day": 16, "month": 5, "livingplace": "Muraz Collombey"}}, "location": "Aigle"}}, "name": "Lahtion Fabien", "birth": 1982}