{"sex": "M", "races": {"Tour du Chablais #5 Leysin": {"race": "Tour du Chablais #5 Leysin", "longitude": 6.931504599999999, "latitude": 46.3603257, "date": {"mer. 05.05.2010": {"weekday": "wednesday", "year": 2010, "categories": {"M-M20": {"pace": 207000000000, "rank": 1, "distance": 8, "time": 1755.0}}, "day": 5, "month": 5, "livingplace": "Orsieres"}}, "location": "Roche VD"}, "Course p\u00e9destre Thyon-Dixence, Thyon": {"race": "Course p\u00e9destre Thyon-Dixence, Thyon", "date": {"dim. 04.08.2013": {"weekday": "sunday", "year": 2013, "categories": {"HomElite": {"pace": 288000000000, "rank": 13, "distance": 16, "time": 4721.0}}, "day": 4, "month": 8, "livingplace": "Orsieres"}}, "location": "Thyon-Les Collons"}, "Tour du Chablais #2 Bex": {"race": "Tour du Chablais #2 Bex", "longitude": 6.854975199999999, "latitude": 46.3835529, "date": {"mer. 18.04.2012": {"weekday": "wednesday", "year": 2012, "categories": {"M-M20": {"pace": 195000000000, "rank": 2, "distance": 8, "time": 1567.3}}, "day": 18, "month": 4, "livingplace": "Orsieres"}}, "location": "Bouveret"}, "Kerzerslauf": {"race": "Kerzerslauf", "longitude": 7.1954365, "latitude": 46.97488999999999, "date": {"sam. 15.03.2008": {"weekday": "saturday", "year": 2008, "categories": {"5/M05": {"pace": 201000000000, "rank": 5, "distance": 5, "time": 1006.7}}, "day": 15, "month": 3, "livingplace": "Orsieres"}, "sam. 21.03.2009": {"weekday": "saturday", "year": 2009, "categories": {"5-M05": {"pace": 189000000000, "rank": 4, "distance": 5, "time": 949.6}}, "day": 21, "month": 3, "livingplace": "Orsieres"}, "sam. 21.03.2015": {"weekday": "saturday", "year": 2015, "categories": {"5-M20": {"pace": 203000000000, "rank": 15, "distance": 5, "time": 1019.5}}, "day": 21, "month": 3, "livingplace": "Martigny"}}, "location": "Kerzers"}, "Sierre-Zinal, Sierre": {"race": "Sierre-Zinal, Sierre", "longitude": 7.533536199999999, "latitude": 46.29413110000001, "date": {"dim. 09.08.2015": {"weekday": "sunday", "year": 2015, "categories": {"ElitesHo": {"pace": 338000000000, "rank": 23, "distance": 31, "time": 10498.1}}, "day": 9, "month": 8, "livingplace": "Martigny"}}, "location": "Sierre"}, "Tour du Chablais #6 Montreux": {"race": "Tour du Chablais #6 Montreux", "longitude": 6.970566, "latitude": 46.3190253, "date": {"mer. 16.05.2012": {"weekday": "wednesday", "year": 2012, "categories": {"M-M20": {"pace": 192000000000, "rank": 2, "distance": 9, "time": 1780.1}}, "day": 16, "month": 5, "livingplace": "Orsieres"}}, "location": "Aigle"}, "SwissCityMarathon - Lucerne, Luzern": {"race": "SwissCityMarathon - Lucerne, Luzern", "longitude": 8.3093072, "latitude": 47.05016819999999, "date": {"dim. 26.10.2014": {"weekday": "sunday", "year": 2014, "categories": {"F-Mann": {"pace": 210000000000, "rank": 6, "distance": 9, "time": 1812.6}}, "day": 26, "month": 10, "livingplace": "Martigny"}}, "location": "Luzern"}, "Tour du Chablais #2 St-Gingolph": {"race": "Tour du Chablais #2 St-Gingolph", "longitude": 6.854975199999999, "latitude": 46.3835529, "date": {"mer. 14.04.2010": {"weekday": "wednesday", "year": 2010, "categories": {"M-M20": {"pace": 202000000000, "rank": 2, "distance": 8, "time": 1691.1}}, "day": 14, "month": 4, "livingplace": "Orsieres"}}, "location": "Bouveret"}, "Tour du Chablais #1 Montreux": {"race": "Tour du Chablais #1 Montreux", "longitude": 6.9916269, "latitude": 46.2957462, "date": {"mer. 11.04.2012": {"weekday": "wednesday", "year": 2012, "categories": {"M-M20": {"pace": 197000000000, "rank": 1, "distance": 8, "time": 1500.3}}, "day": 11, "month": 4, "livingplace": "Orsieres"}}, "location": "Ollon VD"}, "Tour du Chablais #5 Bex": {"race": "Tour du Chablais #5 Bex", "longitude": 6.931504599999999, "latitude": 46.3603257, "date": {"mer. 09.05.2012": {"weekday": "wednesday", "year": 2012, "categories": {"M-M20": {"pace": 188000000000, "rank": 2, "distance": 9, "time": 1671.8}}, "day": 9, "month": 5, "livingplace": "Orsieres"}}, "location": "Roche VD"}, "Tour du Chablais #3 Bex": {"race": "Tour du Chablais #3 Bex", "longitude": 7.0223787, "latitude": 46.1782231, "date": {"mer. 21.04.2010": {"weekday": "wednesday", "year": 2010, "categories": {"M-M20": {"pace": 195000000000, "rank": 1, "distance": 10, "time": 1958.8}}, "day": 21, "month": 4, "livingplace": "Orsieres"}}, "location": "Evionnaz"}, "Tour du Pays de Vaud #4, La Sarraz": {"race": "Tour du Pays de Vaud #4, La Sarraz", "longitude": 6.5707689, "latitude": 46.7088129, "date": {"mer. 03.09.2014": {"weekday": "wednesday", "year": 2014, "categories": {"H-Hom": {"pace": 205000000000, "rank": 1, "distance": 9, "time": 1744.5}}, "day": 3, "month": 9, "livingplace": "Martigny"}}, "location": "Chavornay"}, "Lausanne Marathon": {"race": "Lausanne Marathon", "longitude": 6.6322734, "latitude": 46.5196535, "date": {"dim. 31.10.2010": {"weekday": "sunday", "year": 2010, "categories": {"10-H1": {"pace": 194000000000, "rank": 9, "distance": 10, "time": 1946.7}}, "day": 31, "month": 10, "livingplace": "Orsieres"}, "dim. 28.10.2012": {"weekday": "sunday", "year": 2012, "categories": {"10-H1": {"pace": 194000000000, "rank": 10, "distance": 10, "time": 1946.0}}, "day": 28, "month": 10, "livingplace": "Orsieres"}}, "location": "Lausanne"}, "Tour du Chablais #4 Champ\u00e9ry": {"race": "Tour du Chablais #4 Champ\u00e9ry", "date": {"mer. 02.05.2012": {"weekday": "wednesday", "year": 2012, "categories": {"M-M20": {"pace": 195000000000, "rank": 3, "distance": 8, "time": 1620.2}}, "day": 2, "month": 5, "livingplace": "Orsieres"}}, "location": "Les Mosses"}, "Tour du Chablais #2 Yvorne": {"race": "Tour du Chablais #2 Yvorne", "longitude": 6.854975199999999, "latitude": 46.3835529, "date": {"mer. 10.04.2013": {"weekday": "wednesday", "year": 2013, "categories": {"M-M20": {"pace": 207000000000, "rank": 2, "distance": 8, "time": 1663.5}}, "day": 10, "month": 4, "livingplace": "Orsieres"}}, "location": "Bouveret"}, "A travers Carouge - Run to Run": {"race": "A travers Carouge - Run to Run", "longitude": 6.1378539, "latitude": 46.1829674, "date": {"sam. 20.09.2008": {"weekday": "saturday", "year": 2008, "categories": {"U23M/10": {"pace": 202000000000, "rank": 8, "distance": 10, "time": 2023.9}}, "day": 20, "month": 9, "livingplace": "CABV Martigny"}}, "location": "Carouge GE"}, "Tour du Chablais #3 Bouveret": {"race": "Tour du Chablais #3 Bouveret", "longitude": 7.0223787, "latitude": 46.1782231, "date": {"mer. 17.04.2013": {"weekday": "wednesday", "year": 2013, "categories": {"M-M20": {"pace": 202000000000, "rank": 4, "distance": 10, "time": 2026.0}}, "day": 17, "month": 4, "livingplace": "Orsieres"}}, "location": "Evionnaz"}, "Tour du Chablais #1 Roche": {"race": "Tour du Chablais #1 Roche", "longitude": 6.9916269, "latitude": 46.2957462, "date": {"mer. 07.04.2010": {"weekday": "wednesday", "year": 2010, "categories": {"M-M20": {"pace": 189000000000, "rank": 1, "distance": 9, "time": 1698.3}}, "day": 7, "month": 4, "livingplace": "Orsieres"}}, "location": "Ollon VD"}, "ASICS Bremgarter Reusslauf": {"race": "ASICS Bremgarter Reusslauf", "longitude": 8.3397905, "latitude": 47.34917739999999, "date": {"sam. 25.02.2012": {"weekday": "saturday", "year": 2012, "categories": {"M20": {"pace": 191000000000, "rank": 8, "distance": 11, "time": 2111.7}}, "day": 25, "month": 2, "livingplace": "Cabv"}, "sam. 26.02.2011": {"weekday": "saturday", "year": 2011, "categories": {"M20": {"pace": 191000000000, "rank": 11, "distance": 11, "time": 2103.4}}, "day": 26, "month": 2, "livingplace": "Orsieres"}}, "location": "Bremgarten AG"}, "Tour du Chablais #4 Yvorne": {"race": "Tour du Chablais #4 Yvorne", "date": {"mer. 28.04.2010": {"weekday": "wednesday", "year": 2010, "categories": {"M-M20": {"pace": 205000000000, "rank": 1, "distance": 8, "time": 1699.6}}, "day": 28, "month": 4, "livingplace": "Orsieres"}}, "location": "Les Mosses"}, "Morat-Fribourg": {"race": "Morat-Fribourg", "longitude": 7.120184, "latitude": 46.92922110000001, "date": {"sam. 01.10.2011": {"weekday": "saturday", "year": 2011, "categories": {"17-M20": {"pace": 220000000000, "rank": 40, "distance": 17, "time": 3783.1}}, "day": 1, "month": 10, "livingplace": "Orsieres"}}, "location": "Murten"}, "Tour du Chablais #6 Mouthey": {"race": "Tour du Chablais #6 Mouthey", "longitude": 6.970566, "latitude": 46.3190253, "date": {"mer. 12.05.2010": {"weekday": "wednesday", "year": 2010, "categories": {"M-M20": {"pace": 192000000000, "rank": 3, "distance": 9, "time": 1767.7}}, "day": 12, "month": 5, "livingplace": "Orsieres"}}, "location": "Aigle"}, "Tour du Chablais #1 Lavey": {"race": "Tour du Chablais #1 Lavey", "longitude": 6.9916269, "latitude": 46.2957462, "date": {"mer. 27.04.2011": {"weekday": "wednesday", "year": 2011, "categories": {"M-M20": {"pace": 201000000000, "rank": 5, "distance": 9, "time": 1816.8}}, "day": 27, "month": 4, "livingplace": "Orsieres"}}, "location": "Ollon VD"}, "Int  Bieler Cross, Biel-Bienne": {"race": "Int  Bieler Cross, Biel-Bienne", "longitude": 7.2467909, "latitude": 47.1367785, "date": {"dim. 29.11.2009": {"weekday": "sunday", "year": 2009, "categories": {"M23": {"pace": 191000000000, "rank": 9, "distance": 8, "time": 1532.6}}, "day": 29, "month": 11, "livingplace": "CABV Martigny"}, "dim. 14.11.2010": {"weekday": "sunday", "year": 2010, "categories": {"M23": {"pace": 196000000000, "rank": 5, "distance": 8, "time": 1573.9}}, "day": 14, "month": 11, "livingplace": "CABV Martigny"}}, "location": "Biel/Bienne"}, "Tour du Chablais #5 Morgins": {"race": "Tour du Chablais #5 Morgins", "longitude": 6.931504599999999, "latitude": 46.3603257, "date": {"mer. 01.05.2013": {"weekday": "wednesday", "year": 2013, "categories": {"M-M20": {"pace": 209000000000, "rank": 4, "distance": 8, "time": 1588.4}}, "day": 1, "month": 5, "livingplace": "Orsieres"}}, "location": "Roche VD"}, "Tour du Chablais #3 Le Bouveret": {"race": "Tour du Chablais #3 Le Bouveret", "longitude": 7.0223787, "latitude": 46.1782231, "date": {"mer. 11.05.2011": {"weekday": "wednesday", "year": 2011, "categories": {"M-M20": {"pace": 201000000000, "rank": 4, "distance": 10, "time": 2017.9}}, "day": 11, "month": 5, "livingplace": "Orsieres"}}, "location": "Evionnaz"}, "Tour du pays de Vaud #1 - Penthaz": {"race": "Tour du pays de Vaud #1 - Penthaz", "longitude": 6.539251200000001, "latitude": 46.5993131, "date": {"mer. 08.08.2012": {"weekday": "wednesday", "year": 2012, "categories": {"H-Hom": {"pace": 202000000000, "rank": 2, "distance": 9, "time": 1726.5}}, "day": 8, "month": 8, "livingplace": "Orsieres"}}, "location": "Penthaz"}, "Tour du Chablais #3 Collombey-Muraz": {"race": "Tour du Chablais #3 Collombey-Muraz", "longitude": 7.0223787, "latitude": 46.1782231, "date": {"mer. 25.04.2012": {"weekday": "wednesday", "year": 2012, "categories": {"M-M20": {"pace": 192000000000, "rank": 2, "distance": 9, "time": 1729.7}}, "day": 25, "month": 4, "livingplace": "Orsieres"}}, "location": "Evionnaz"}, "Aletsch-Halbmarathon, Bettmeralp": {"race": "Aletsch-Halbmarathon, Bettmeralp", "date": {"dim. 29.06.2014": {"weekday": "sunday", "year": 2014, "categories": {"M20": {"pace": 250000000000, "rank": 3, "distance": 13, "time": 3338.0}}, "day": 29, "month": 6, "livingplace": "Verticalp.ch"}}, "location": "Bettmeralp"}, "Tour du Chablais #1 Martigny": {"race": "Tour du Chablais #1 Martigny", "longitude": 6.9916269, "latitude": 46.2957462, "date": {"mer. 23.04.2014": {"weekday": "wednesday", "year": 2014, "categories": {"M-M20": {"pace": 199000000000, "rank": 4, "distance": 9, "time": 1696.9}}, "day": 23, "month": 4, "livingplace": "Martigny"}}, "location": "Ollon VD"}}, "name": "Lattion Emmanuel", "birth": 1988}