{"sex": "F", "races": {"Tour du Chablais #5 Leysin": {"race": "Tour du Chablais #5 Leysin", "longitude": 6.931504599999999, "latitude": 46.3603257, "date": {"mer. 05.05.2010": {"weekday": "wednesday", "year": 2010, "categories": {"F-F20": {"pace": 303000000000, "rank": 16, "distance": 8, "time": 2563.7}}, "day": 5, "month": 5, "livingplace": "St Gingolph"}}, "location": "Roche VD"}, "Tour du Chablais #4 Yvorne": {"race": "Tour du Chablais #4 Yvorne", "date": {"mer. 28.04.2010": {"weekday": "wednesday", "year": 2010, "categories": {"F-F20": {"pace": 300000000000, "rank": 15, "distance": 8, "time": 2486.2}}, "day": 28, "month": 4, "livingplace": "St Gingolph"}}, "location": "Les Mosses"}, "Tour du Chablais #1 Roche": {"race": "Tour du Chablais #1 Roche", "longitude": 6.9916269, "latitude": 46.2957462, "date": {"mer. 07.04.2010": {"weekday": "wednesday", "year": 2010, "categories": {"F-F20": {"pace": 278000000000, "rank": 19, "distance": 9, "time": 2491.3}}, "day": 7, "month": 4, "livingplace": "St Gingolph"}}, "location": "Ollon VD"}, "Tour du Chablais #2 Bex": {"race": "Tour du Chablais #2 Bex", "longitude": 6.854975199999999, "latitude": 46.3835529, "date": {"mer. 18.04.2012": {"weekday": "wednesday", "year": 2012, "categories": {"F-F20": {"pace": 272000000000, "rank": 11, "distance": 8, "time": 2183.8}}, "day": 18, "month": 4, "livingplace": "St Gingolph"}}, "location": "Bouveret"}, "Morat-Fribourg": {"race": "Morat-Fribourg", "longitude": 7.120184, "latitude": 46.92922110000001, "date": {"sam. 03.10.2009": {"weekday": "saturday", "year": 2009, "categories": {"C-W20": {"pace": 309000000000, "rank": 71, "distance": 17, "time": 5314.5}}, "day": 3, "month": 10, "livingplace": "Bouveret"}, "sam. 06.10.2007": {"weekday": "saturday", "year": 2007, "categories": {"C/W20": {"pace": 363000000000, "rank": 288, "distance": 17, "time": 6237.3}}, "day": 6, "month": 10, "livingplace": "Bouveret"}, "sam. 02.10.2010": {"weekday": "saturday", "year": 2010, "categories": {"17-W20": {"pace": 345000000000, "rank": 192, "distance": 17, "time": 5931.0}}, "day": 2, "month": 10, "livingplace": "St Gingolph"}, "sam. 04.10.2008": {"weekday": "saturday", "year": 2008, "categories": {"C-W20": {"pace": 360000000000, "rank": 282, "distance": 17, "time": 6191.6}}, "day": 4, "month": 10, "livingplace": "Bouveret"}}, "location": "Murten"}, "Tour du Chablais #6 Aigle": {"race": "Tour du Chablais #6 Aigle", "longitude": 6.970566, "latitude": 46.3190253, "date": {"mer. 01.06.2011": {"weekday": "wednesday", "year": 2011, "categories": {"F-F20": {"pace": 278000000000, "rank": 30, "distance": 10, "time": 2844.8}}, "day": 1, "month": 6, "livingplace": "St Gingolph"}}, "location": "Aigle"}, "Tour du Chablais #4 Morgins": {"race": "Tour du Chablais #4 Morgins", "date": {"mer. 18.05.2011": {"weekday": "wednesday", "year": 2011, "categories": {"F-F20": {"pace": 302000000000, "rank": 22, "distance": 8, "time": 2526.4}}, "day": 18, "month": 5, "livingplace": "St Gingolph"}}, "location": "Les Mosses"}, "Tour du Chablais #6 Mouthey": {"race": "Tour du Chablais #6 Mouthey", "longitude": 6.970566, "latitude": 46.3190253, "date": {"mer. 12.05.2010": {"weekday": "wednesday", "year": 2010, "categories": {"F-F20": {"pace": 268000000000, "rank": 17, "distance": 9, "time": 2468.8}}, "day": 12, "month": 5, "livingplace": "St Gingolph"}}, "location": "Aigle"}, "Tour du Chablais #5 Les Mosses": {"race": "Tour du Chablais #5 Les Mosses", "longitude": 6.931504599999999, "latitude": 46.3603257, "date": {"mer. 25.05.2011": {"weekday": "wednesday", "year": 2011, "categories": {"F-F20": {"pace": 312000000000, "rank": 28, "distance": 8, "time": 2496.8}}, "day": 25, "month": 5, "livingplace": "St Gingolph"}}, "location": "Roche VD"}, "Tour du Chablais #1 Lavey": {"race": "Tour du Chablais #1 Lavey", "longitude": 6.9916269, "latitude": 46.2957462, "date": {"mer. 27.04.2011": {"weekday": "wednesday", "year": 2011, "categories": {"F-F20": {"pace": 292000000000, "rank": 20, "distance": 9, "time": 2634.8}}, "day": 27, "month": 4, "livingplace": "St Gingolph"}}, "location": "Ollon VD"}, "Tour du Chablais #3 Bex": {"race": "Tour du Chablais #3 Bex", "longitude": 7.0223787, "latitude": 46.1782231, "date": {"mer. 21.04.2010": {"weekday": "wednesday", "year": 2010, "categories": {"F-F20": {"pace": 280000000000, "rank": 14, "distance": 10, "time": 2803.2}}, "day": 21, "month": 4, "livingplace": "St Gingolph"}}, "location": "Evionnaz"}, "Tour du Chablais #3 Le Bouveret": {"race": "Tour du Chablais #3 Le Bouveret", "longitude": 7.0223787, "latitude": 46.1782231, "date": {"mer. 11.05.2011": {"weekday": "wednesday", "year": 2011, "categories": {"F-F20": {"pace": 300000000000, "rank": 37, "distance": 10, "time": 3005.2}}, "day": 11, "month": 5, "livingplace": "St Gingolph"}}, "location": "Evionnaz"}, "Tour du Chablais #2 St-Gingolph": {"race": "Tour du Chablais #2 St-Gingolph", "longitude": 6.854975199999999, "latitude": 46.3835529, "date": {"mer. 14.04.2010": {"weekday": "wednesday", "year": 2010, "categories": {"F-F20": {"pace": 298000000000, "rank": 14, "distance": 8, "time": 2494.7}}, "day": 14, "month": 4, "livingplace": "St Gingolph"}}, "location": "Bouveret"}, "Tour du Chablais #2 Rennaz": {"race": "Tour du Chablais #2 Rennaz", "longitude": 6.854975199999999, "latitude": 46.3835529, "date": {"mer. 04.05.2011": {"weekday": "wednesday", "year": 2011, "categories": {"F-F20": {"pace": 286000000000, "rank": 16, "distance": 9, "time": 2680.8}}, "day": 4, "month": 5, "livingplace": "St Gingolph"}}, "location": "Bouveret"}}, "name": "Laurencet Sandrine", "birth": 1976}