{"sex": "M", "races": {"BCN Tour #4 Fleurier": {"race": "BCN Tour #4 Fleurier", "longitude": 6.832783800000001, "latitude": 47.1034892, "date": {"mer. 15.05.2013": {"weekday": "wednesday", "year": 2013, "categories": {"HJ": {"pace": 292000000000, "rank": 41, "distance": 9, "time": 2526.8}}, "day": 15, "month": 5, "livingplace": "Bole"}}, "location": "La Chaux-de-Fonds"}, "BCN Tour Les Ponts de Martel": {"race": "BCN Tour Les Ponts de Martel", "longitude": 6.6324944, "latitude": 46.9262933, "date": {"mer. 18.05.2011": {"weekday": "wednesday", "year": 2011, "categories": {"KG3": {"pace": 242000000000, "rank": 12, "distance": 4, "time": 947.0}}, "day": 18, "month": 5, "livingplace": "Bole"}}, "location": "Couvet"}, "BCN Tour M\u00f4tier": {"race": "BCN Tour M\u00f4tier", "longitude": 6.6324944, "latitude": 46.9262933, "date": {"mer. 19.05.2010": {"weekday": "wednesday", "year": 2010, "categories": {"HJ": {"pace": 284000000000, "rank": 36, "distance": 10, "time": 2816.8}}, "day": 19, "month": 5, "livingplace": "Bole"}}, "location": "Couvet"}, "BCN Tour Auvernier": {"race": "BCN Tour Auvernier", "longitude": 6.8589727, "latitude": 46.9668714, "date": {"mer. 20.04.2011": {"weekday": "wednesday", "year": 2011, "categories": {"KG3": {"pace": 230000000000, "rank": 10, "distance": 2, "time": 540.9}}, "day": 20, "month": 4, "livingplace": "Bole"}}, "location": "Colombier NE"}, "D\u00e9fi Val-de-Travers, Couvet": {"race": "D\u00e9fi Val-de-Travers, Couvet", "longitude": 6.6324944, "latitude": 46.9262933, "date": {"sam. 21.06.2008": {"weekday": "saturday", "year": 2008, "categories": {"GB": {"pace": 276000000000, "rank": 10, "distance": 3, "time": 705.1}}, "day": 21, "month": 6, "livingplace": "Bole"}, "sam. 19.06.2010": {"weekday": "saturday", "year": 2010, "categories": {"GA": {"pace": 238000000000, "rank": 1, "distance": 3, "time": 607.4}}, "day": 19, "month": 6, "livingplace": "Bole"}}, "location": "Couvet"}, "BCN Tour Boudry": {"race": "BCN Tour Boudry", "longitude": 6.8589727, "latitude": 46.9668714, "date": {"mer. 26.04.2006": {"weekday": "wednesday", "year": 2006, "categories": {"KG1": {"pace": 335000000000, "rank": 28, "distance": 2, "time": 637.0}}, "day": 26, "month": 4, "livingplace": "Bole"}}, "location": "Colombier NE"}, "BCN Tour Fontaine Cernier": {"race": "BCN Tour Fontaine Cernier", "longitude": 6.9175754, "latitude": 47.0624261, "date": {"mer. 27.04.2011": {"weekday": "wednesday", "year": 2011, "categories": {"KG3": {"pace": 284000000000, "rank": 14, "distance": 3, "time": 852.0}}, "day": 27, "month": 4, "livingplace": "Bole"}}, "location": "Ch\u00e9zard-St-Martin"}, "BCN Tour Cornaux": {"race": "BCN Tour Cornaux", "longitude": 6.8589727, "latitude": 46.9668714, "date": {"mer. 25.04.2012": {"weekday": "wednesday", "year": 2012, "categories": {"KG4": {"pace": 272000000000, "rank": 30, "distance": 3, "time": 762.6}}, "day": 25, "month": 4, "livingplace": "Bole"}}, "location": "Colombier NE"}, "BCN Tour La Br\u00e9vine": {"race": "BCN Tour La Br\u00e9vine", "longitude": 6.733554799999999, "latitude": 46.999113, "date": {"mer. 04.05.2011": {"weekday": "wednesday", "year": 2011, "categories": {"HJ": {"pace": 302000000000, "rank": 39, "distance": 10, "time": 3029.2}}, "day": 4, "month": 5, "livingplace": "Bole"}}, "location": "Les Ponts-de-Martel"}, "BCN Tour Ponts-de-Martel": {"race": "BCN Tour Ponts-de-Martel", "longitude": 6.9175754, "latitude": 47.0624261, "date": {"mer. 28.04.2010": {"weekday": "wednesday", "year": 2010, "categories": {"KG3": {"pace": 228000000000, "rank": 16, "distance": 4, "time": 959.8}}, "day": 28, "month": 4, "livingplace": "Bole"}}, "location": "Ch\u00e9zard-St-Martin"}, "BCN Tour #5 Colombier": {"race": "BCN Tour #5 Colombier", "longitude": 6.6324944, "latitude": 46.9262933, "date": {"mer. 22.05.2013": {"weekday": "wednesday", "year": 2013, "categories": {"HJ": {"pace": 267000000000, "rank": 44, "distance": 11, "time": 2805.4}}, "day": 22, "month": 5, "livingplace": "Bole"}}, "location": "Couvet"}, "BCN Tour Neuch\u00e2tel": {"race": "BCN Tour Neuch\u00e2tel", "longitude": 6.9292732, "latitude": 46.9899874, "date": {"mer. 25.05.2011": {"weekday": "wednesday", "year": 2011, "categories": {"KG3": {"pace": 246000000000, "rank": 16, "distance": 4, "time": 894.1}}, "day": 25, "month": 5, "livingplace": "Bole"}, "mer. 26.05.2010": {"weekday": "wednesday", "year": 2010, "categories": {"KG3": {"pace": 211000000000, "rank": 15, "distance": 3, "time": 718.3}}, "day": 26, "month": 5, "livingplace": "Bole"}}, "location": "Neuch\u00e2tel"}, "BCN Tour Le Locle": {"race": "BCN Tour Le Locle", "longitude": 6.733554799999999, "latitude": 46.999113, "date": {"mer. 05.05.2010": {"weekday": "wednesday", "year": 2010, "categories": {"KG3": {"pace": 260000000000, "rank": 12, "distance": 4, "time": 962.7}}, "day": 5, "month": 5, "livingplace": "Bole"}}, "location": "Les Ponts-de-Martel"}, "BCN Tour La Chaux-de-Fonds": {"race": "BCN Tour La Chaux-de-Fonds", "longitude": 6.832783800000001, "latitude": 47.1034892, "date": {"mer. 11.05.2011": {"weekday": "wednesday", "year": 2011, "categories": {"KG3": {"pace": 194000000000, "rank": 11, "distance": 4, "time": 759.7}}, "day": 11, "month": 5, "livingplace": "Bole"}, "mer. 23.05.2012": {"weekday": "wednesday", "year": 2012, "categories": {"HJ": {"pace": 312000000000, "rank": 43, "distance": 11, "time": 3370.1}}, "day": 23, "month": 5, "livingplace": "Bole"}}, "location": "La Chaux-de-Fonds"}, "BCN Tour Colombier": {"race": "BCN Tour Colombier", "longitude": 6.8589727, "latitude": 46.9668714, "date": {"mer. 21.04.2010": {"weekday": "wednesday", "year": 2010, "categories": {"KG3": {"pace": 263000000000, "rank": 13, "distance": 4, "time": 1055.4}}, "day": 21, "month": 4, "livingplace": "Bole"}, "mer. 23.04.2008": {"weekday": "wednesday", "year": 2008, "categories": {"KG2": {"pace": 290000000000, "rank": 17, "distance": 2, "time": 581.2}}, "day": 23, "month": 4, "livingplace": "Bole"}}, "location": "Colombier NE"}, "Internationaler Matterhornlauf, Zermatt": {"race": "Internationaler Matterhornlauf, Zermatt", "date": {"sam. 21.08.2010": {"weekday": "saturday", "year": 2010, "categories": {"KMHL-MSA": {"pace": 240000000000, "rank": 2, "distance": 1, "time": 289.0}}, "day": 21, "month": 8, "livingplace": "Ch"}}, "location": "Zermatt"}, "BCN Tour Les Ponts-de-Martel": {"race": "BCN Tour Les Ponts-de-Martel", "longitude": 6.733554799999999, "latitude": 46.999113, "date": {"mer. 09.05.2012": {"weekday": "wednesday", "year": 2012, "categories": {"KG4": {"pace": 259000000000, "rank": 14, "distance": 4, "time": 987.1}}, "day": 9, "month": 5, "livingplace": "Bole"}}, "location": "Les Ponts-de-Martel"}, "BCN Tour Le Landeron": {"race": "BCN Tour Le Landeron", "longitude": 6.8589727, "latitude": 46.9668714, "date": {"mer. 22.04.2009": {"weekday": "wednesday", "year": 2009, "categories": {"KG2": {"pace": 245000000000, "rank": 8, "distance": 2, "time": 491.7}}, "day": 22, "month": 4, "livingplace": "Bole"}}, "location": "Colombier NE"}, "BCN Tour La Chaux-de-fonds": {"race": "BCN Tour La Chaux-de-fonds", "longitude": 6.832783800000001, "latitude": 47.1034892, "date": {"mer. 12.05.2010": {"weekday": "wednesday", "year": 2010, "categories": {"KG3": {"pace": 246000000000, "rank": 14, "distance": 4, "time": 962.9}}, "day": 12, "month": 5, "livingplace": "Bole"}}, "location": "La Chaux-de-Fonds"}}, "name": "Lebet Baptiste", "birth": 1998}