{"sex": "M", "races": {"Tour du Pays de Vaud #5 - La Sarraz": {"race": "Tour du Pays de Vaud #5 - La Sarraz", "longitude": 6.539251200000001, "latitude": 46.5993131, "date": {"mer. 08.09.2010": {"weekday": "wednesday", "year": 2010, "categories": {"HSen2": {"pace": 368000000000, "rank": 159, "distance": 9, "time": 3350.8}}, "day": 8, "month": 9, "livingplace": "Clarens"}}, "location": "Penthaz"}, "Tour du Pays de Vaud #4 - La Sarraz": {"race": "Tour du Pays de Vaud #4 - La Sarraz", "longitude": 6.5707689, "latitude": 46.7088129, "date": {"mer. 29.08.2012": {"weekday": "wednesday", "year": 2012, "categories": {"H-Sen2": {"pace": 341000000000, "rank": 158, "distance": 9, "time": 2901.8}}, "day": 29, "month": 8, "livingplace": "Clarens"}}, "location": "Chavornay"}, "Tour du Chablais #2 Bex": {"race": "Tour du Chablais #2 Bex", "longitude": 6.854975199999999, "latitude": 46.3835529, "date": {"mer. 18.04.2012": {"weekday": "wednesday", "year": 2012, "categories": {"M-M40": {"pace": 369000000000, "rank": 155, "distance": 8, "time": 2955.9}}, "day": 18, "month": 4, "livingplace": "Clarens"}}, "location": "Bouveret"}, "Tour du pays de Vaud #1 \u2013 St  Prex": {"race": "Tour du pays de Vaud #1 \u2013 St  Prex", "longitude": 6.641183, "latitude": 46.7784736, "date": {"mer. 11.08.2010": {"weekday": "wednesday", "year": 2010, "categories": {"HSen2": {"pace": 386000000000, "rank": 187, "distance": 8, "time": 3247.4}}, "day": 11, "month": 8, "livingplace": "Clarens"}}, "location": "Yverdon-les-Bains"}, "Tour du Chablais #6 Montreux": {"race": "Tour du Chablais #6 Montreux", "longitude": 6.970566, "latitude": 46.3190253, "date": {"mer. 16.05.2012": {"weekday": "wednesday", "year": 2012, "categories": {"M-M40": {"pace": 322000000000, "rank": 160, "distance": 9, "time": 2983.7}}, "day": 16, "month": 5, "livingplace": "Clarens"}}, "location": "Aigle"}, "20km de Lausanne": {"race": "20km de Lausanne", "longitude": 6.6322734, "latitude": 46.5196535, "date": {"sam. 24.04.2010": {"weekday": "saturday", "year": 2010, "categories": {"10-H40": {"pace": 377000000000, "rank": 407, "distance": 10, "time": 3775.0}}, "day": 24, "month": 4, "livingplace": "Clarens"}, "sam. 30.04.2011": {"weekday": "saturday", "year": 2011, "categories": {"10-H40": {"pace": 371000000000, "rank": 442, "distance": 10, "time": 3712.5}}, "day": 30, "month": 4, "livingplace": "Clarens"}, "sam. 28.04.2012": {"weekday": "saturday", "year": 2012, "categories": {"10-H40": {"pace": 330000000000, "rank": 302, "distance": 10, "time": 3307.9}}, "day": 28, "month": 4, "livingplace": "Clarens"}, "sam. 27.04.2013": {"weekday": "saturday", "year": 2013, "categories": {"20-H45": {"pace": 393000000000, "rank": 340, "distance": 20, "time": 7872.1}}, "day": 27, "month": 4, "livingplace": "Clarens"}}, "location": "Lausanne"}, "Tour du Pays de Vaud printanier #1 Chavornay": {"race": "Tour du Pays de Vaud printanier #1 Chavornay", "longitude": 6.2347852, "latitude": 46.3832683, "date": {"mer. 30.05.2012": {"weekday": "wednesday", "year": 2012, "categories": {"H-Sen2": {"pace": 401000000000, "rank": 74, "distance": 9, "time": 3592.6}}, "day": 30, "month": 5, "livingplace": "Clarens"}}, "location": "Nyon"}, "Tour du Chablais #1 Montreux": {"race": "Tour du Chablais #1 Montreux", "longitude": 6.9916269, "latitude": 46.2957462, "date": {"mer. 11.04.2012": {"weekday": "wednesday", "year": 2012, "categories": {"M-M40": {"pace": 354000000000, "rank": 158, "distance": 8, "time": 2696.2}}, "day": 11, "month": 4, "livingplace": "Clarens"}}, "location": "Ollon VD"}, "Tour du Pays de Vaud #2 - Genolier": {"race": "Tour du Pays de Vaud #2 - Genolier", "longitude": 6.7702883, "latitude": 46.5955273, "date": {"mer. 15.08.2012": {"weekday": "wednesday", "year": 2012, "categories": {"H-Sen2": {"pace": 343000000000, "rank": 142, "distance": 9, "time": 2915.9}}, "day": 15, "month": 8, "livingplace": "Clarens"}, "mer. 18.08.2010": {"weekday": "wednesday", "year": 2010, "categories": {"HSen2": {"pace": 373000000000, "rank": 181, "distance": 8, "time": 3022.3}}, "day": 18, "month": 8, "livingplace": "Clarens"}, "mer. 17.08.2011": {"weekday": "wednesday", "year": 2011, "categories": {"H-Sen2": {"pace": 353000000000, "rank": 152, "distance": 9, "time": 3001.2}}, "day": 17, "month": 8, "livingplace": "Clarens"}}, "location": "M\u00e9zi\u00e8res VD"}, "Tour du Chablais #5 Bex": {"race": "Tour du Chablais #5 Bex", "longitude": 6.931504599999999, "latitude": 46.3603257, "date": {"mer. 09.05.2012": {"weekday": "wednesday", "year": 2012, "categories": {"M-M40": {"pace": 335000000000, "rank": 126, "distance": 9, "time": 2969.3}}, "day": 9, "month": 5, "livingplace": "Clarens"}}, "location": "Roche VD"}, "Tour du Pays de Vaud printanier #2 Yens": {"race": "Tour du Pays de Vaud printanier #2 Yens", "longitude": 6.7975224, "latitude": 46.6698891, "date": {"mer. 06.06.2012": {"weekday": "wednesday", "year": 2012, "categories": {"H-Sen2": {"pace": 412000000000, "rank": 77, "distance": 9, "time": 3754.3}}, "day": 6, "month": 6, "livingplace": "Clarens"}}, "location": "Moudon"}, "Tour du Chablais #4 Champ\u00e9ry": {"race": "Tour du Chablais #4 Champ\u00e9ry", "date": {"mer. 02.05.2012": {"weekday": "wednesday", "year": 2012, "categories": {"M-M40": {"pace": 331000000000, "rank": 134, "distance": 8, "time": 2747.9}}, "day": 2, "month": 5, "livingplace": "Clarens"}}, "location": "Les Mosses"}, "Tour du Chablais #2 Yvorne": {"race": "Tour du Chablais #2 Yvorne", "longitude": 6.854975199999999, "latitude": 46.3835529, "date": {"mer. 10.04.2013": {"weekday": "wednesday", "year": 2013, "categories": {"M-M40": {"pace": 357000000000, "rank": 121, "distance": 8, "time": 2858.7}}, "day": 10, "month": 4, "livingplace": "Clarens"}}, "location": "Bouveret"}, "Tour du Chablais #6 Monthey": {"race": "Tour du Chablais #6 Monthey", "longitude": 6.970566, "latitude": 46.3190253, "date": {"mer. 08.05.2013": {"weekday": "wednesday", "year": 2013, "categories": {"M-M40": {"pace": 322000000000, "rank": 133, "distance": 9, "time": 3006.1}}, "day": 8, "month": 5, "livingplace": "Clarens"}}, "location": "Aigle"}, "Tour du Chablais #3 Bouveret": {"race": "Tour du Chablais #3 Bouveret", "longitude": 7.0223787, "latitude": 46.1782231, "date": {"mer. 17.04.2013": {"weekday": "wednesday", "year": 2013, "categories": {"M-M40": {"pace": 331000000000, "rank": 131, "distance": 10, "time": 3313.5}}, "day": 17, "month": 4, "livingplace": "Clarens"}}, "location": "Evionnaz"}, "Tour du Chablais #1 Roche": {"race": "Tour du Chablais #1 Roche", "longitude": 6.9916269, "latitude": 46.2957462, "date": {"mer. 03.04.2013": {"weekday": "wednesday", "year": 2013, "categories": {"M-M40": {"pace": 325000000000, "rank": 129, "distance": 9, "time": 2885.2}}, "day": 3, "month": 4, "livingplace": "Clarens"}}, "location": "Ollon VD"}, "Tour du Chablais #3 Collombey-Muraz": {"race": "Tour du Chablais #3 Collombey-Muraz", "longitude": 7.0223787, "latitude": 46.1782231, "date": {"mer. 25.04.2012": {"weekday": "wednesday", "year": 2012, "categories": {"M-M40": {"pace": 347000000000, "rank": 139, "distance": 9, "time": 3124.4}}, "day": 25, "month": 4, "livingplace": "Clarens"}}, "location": "Evionnaz"}, "Tour du pays de Vaud #1 - Mezi\u00e8res": {"race": "Tour du pays de Vaud #1 - Mezi\u00e8res", "longitude": 6.641183, "latitude": 46.7784736, "date": {"mer. 10.08.2011": {"weekday": "wednesday", "year": 2011, "categories": {"H-Sen2": {"pace": 340000000000, "rank": 180, "distance": 9, "time": 2892.4}}, "day": 10, "month": 8, "livingplace": "Clarens"}}, "location": "Yverdon-les-Bains"}, "Tour du pays de Vaud #5 - Penthaz": {"race": "Tour du pays de Vaud #5 - Penthaz", "longitude": 6.539251200000001, "latitude": 46.5993131, "date": {"mer. 07.09.2011": {"weekday": "wednesday", "year": 2011, "categories": {"H-Sen2": {"pace": 384000000000, "rank": 149, "distance": 8, "time": 3210.6}}, "day": 7, "month": 9, "livingplace": "Clarens"}}, "location": "Penthaz"}, "Tour du pays de Vaud #6 - St  Prex": {"race": "Tour du pays de Vaud #6 - St  Prex", "longitude": 6.458343500000001, "latitude": 46.4829113, "date": {"mer. 14.09.2011": {"weekday": "wednesday", "year": 2011, "categories": {"H-Sen2": {"pace": 330000000000, "rank": 188, "distance": 9, "time": 2845.6}}, "day": 14, "month": 9, "livingplace": "Clarens"}}, "location": "St-Prex"}, "Tour du Chablais #5 Morgins": {"race": "Tour du Chablais #5 Morgins", "longitude": 6.931504599999999, "latitude": 46.3603257, "date": {"mer. 01.05.2013": {"weekday": "wednesday", "year": 2013, "categories": {"M-M40": {"pace": 358000000000, "rank": 116, "distance": 8, "time": 2726.8}}, "day": 1, "month": 5, "livingplace": "Clarens"}}, "location": "Roche VD"}, "Lausanne Marathon": {"race": "Lausanne Marathon", "longitude": 6.6322734, "latitude": 46.5196535, "date": {"dim. 31.10.2010": {"weekday": "sunday", "year": 2010, "categories": {"10-H3": {"pace": 319000000000, "rank": 335, "distance": 10, "time": 3199.0}}, "day": 31, "month": 10, "livingplace": "Clarens"}}, "location": "Lausanne"}, "Tour du pays de Vaud #1 - Penthaz": {"race": "Tour du pays de Vaud #1 - Penthaz", "longitude": 6.539251200000001, "latitude": 46.5993131, "date": {"mer. 14.08.2013": {"weekday": "wednesday", "year": 2013, "categories": {"H-Sen2": {"pace": 360000000000, "rank": 166, "distance": 9, "time": 3076.7}}, "day": 14, "month": 8, "livingplace": "Clarens"}, "mer. 08.08.2012": {"weekday": "wednesday", "year": 2012, "categories": {"H-Sen2": {"pace": 343000000000, "rank": 146, "distance": 9, "time": 2934.2}}, "day": 8, "month": 8, "livingplace": "Clarens"}}, "location": "Penthaz"}}, "name": "Lebrun Eddy", "birth": 1968}