{"sex": "M", "races": {"Tour du Pays de Vaud #3 - Chavornay": {"race": "Tour du Pays de Vaud #3 - Chavornay", "longitude": 6.641183, "latitude": 46.7784736, "date": {"mer. 28.08.2013": {"weekday": "wednesday", "year": 2013, "categories": {"H-Sen2": {"pace": 287000000000, "rank": 92, "distance": 9, "time": 2557.7}}, "day": 28, "month": 8, "livingplace": "Aigle"}}, "location": "Yverdon-les-Bains"}, "Tour du Chablais #4 Champ\u00e9ry": {"race": "Tour du Chablais #4 Champ\u00e9ry", "date": {"mer. 02.05.2012": {"weekday": "wednesday", "year": 2012, "categories": {"M-M40": {"pace": 286000000000, "rank": 83, "distance": 8, "time": 2375.5}}, "day": 2, "month": 5, "livingplace": "Aigle"}}, "location": "Les Mosses"}, "Tour du Chablais #6 Monthey": {"race": "Tour du Chablais #6 Monthey", "longitude": 6.970566, "latitude": 46.3190253, "date": {"mer. 08.05.2013": {"weekday": "wednesday", "year": 2013, "categories": {"M-M40": {"pace": 271000000000, "rank": 73, "distance": 9, "time": 2534.4}}, "day": 8, "month": 5, "livingplace": "Aigle"}}, "location": "Aigle"}, "Tour du Chablais #2 Yvorne": {"race": "Tour du Chablais #2 Yvorne", "longitude": 6.854975199999999, "latitude": 46.3835529, "date": {"mer. 10.04.2013": {"weekday": "wednesday", "year": 2013, "categories": {"M-M40": {"pace": 293000000000, "rank": 55, "distance": 8, "time": 2346.7}}, "day": 10, "month": 4, "livingplace": "Aigle"}}, "location": "Bouveret"}, "Tour du Chablais #2 Bex": {"race": "Tour du Chablais #2 Bex", "longitude": 6.854975199999999, "latitude": 46.3835529, "date": {"mer. 18.04.2012": {"weekday": "wednesday", "year": 2012, "categories": {"M-M40": {"pace": 291000000000, "rank": 101, "distance": 8, "time": 2328.2}}, "day": 18, "month": 4, "livingplace": "Aigle"}}, "location": "Bouveret"}, "Tour du Chablais #3 Bouveret": {"race": "Tour du Chablais #3 Bouveret", "longitude": 7.0223787, "latitude": 46.1782231, "date": {"mer. 17.04.2013": {"weekday": "wednesday", "year": 2013, "categories": {"M-M40": {"pace": 271000000000, "rank": 62, "distance": 10, "time": 2717.0}}, "day": 17, "month": 4, "livingplace": "Aigle"}}, "location": "Evionnaz"}, "Tour du Chablais #1 Roche": {"race": "Tour du Chablais #1 Roche", "longitude": 6.9916269, "latitude": 46.2957462, "date": {"mer. 03.04.2013": {"weekday": "wednesday", "year": 2013, "categories": {"M-M40": {"pace": 267000000000, "rank": 60, "distance": 9, "time": 2366.2}}, "day": 3, "month": 4, "livingplace": "Aigle"}}, "location": "Ollon VD"}, "Tour du Chablais #6 Montreux": {"race": "Tour du Chablais #6 Montreux", "longitude": 6.970566, "latitude": 46.3190253, "date": {"mer. 16.05.2012": {"weekday": "wednesday", "year": 2012, "categories": {"M-M40": {"pace": 280000000000, "rank": 105, "distance": 9, "time": 2593.0}}, "day": 16, "month": 5, "livingplace": "Aigle"}}, "location": "Aigle"}, "Morat-Fribourg": {"race": "Morat-Fribourg", "longitude": 7.120184, "latitude": 46.92922110000001, "date": {"sam. 06.10.2012": {"weekday": "saturday", "year": 2012, "categories": {"17-M45": {"pace": 297000000000, "rank": 250, "distance": 17, "time": 5195.8}}, "day": 6, "month": 10, "livingplace": "Aigle"}}, "location": "Murten"}, "Montreux - Les Rochers de Naye": {"race": "Montreux - Les Rochers de Naye", "longitude": 6.9106799, "latitude": 46.4312213, "date": {"dim. 08.07.2012": {"weekday": "sunday", "year": 2012, "categories": {"M-HV\u00e9t1": {"pace": 510000000000, "rank": 89, "distance": 19, "time": 9594.5}}, "day": 8, "month": 7, "livingplace": "Aigle"}}, "location": "Montreux"}, "20km de Lausanne": {"race": "20km de Lausanne", "longitude": 6.6322734, "latitude": 46.5196535, "date": {"sam. 27.04.2013": {"weekday": "saturday", "year": 2013, "categories": {"10-H45": {"pace": 279000000000, "rank": 91, "distance": 10, "time": 2791.3}}, "day": 27, "month": 4, "livingplace": "Aigle"}}, "location": "Lausanne"}, "Tour du Chablais #1 Montreux": {"race": "Tour du Chablais #1 Montreux", "longitude": 6.9916269, "latitude": 46.2957462, "date": {"mer. 11.04.2012": {"weekday": "wednesday", "year": 2012, "categories": {"M-M40": {"pace": 314000000000, "rank": 126, "distance": 8, "time": 2389.5}}, "day": 11, "month": 4, "livingplace": "Aigle"}}, "location": "Ollon VD"}, "Tour du Chablais #5 Bex": {"race": "Tour du Chablais #5 Bex", "longitude": 6.931504599999999, "latitude": 46.3603257, "date": {"mer. 09.05.2012": {"weekday": "wednesday", "year": 2012, "categories": {"M-M40": {"pace": 277000000000, "rank": 69, "distance": 9, "time": 2461.6}}, "day": 9, "month": 5, "livingplace": "Aigle"}}, "location": "Roche VD"}, "Tour du Chablais #5 Morgins": {"race": "Tour du Chablais #5 Morgins", "longitude": 6.931504599999999, "latitude": 46.3603257, "date": {"mer. 01.05.2013": {"weekday": "wednesday", "year": 2013, "categories": {"M-M40": {"pace": 289000000000, "rank": 61, "distance": 8, "time": 2196.7}}, "day": 1, "month": 5, "livingplace": "Aigle"}}, "location": "Roche VD"}, "Tour du Pays de Vaud #2 - Mezi\u00e8res": {"race": "Tour du Pays de Vaud #2 - Mezi\u00e8res", "longitude": 6.7702883, "latitude": 46.5955273, "date": {"mer. 21.08.2013": {"weekday": "wednesday", "year": 2013, "categories": {"H-Sen2": {"pace": 314000000000, "rank": 90, "distance": 8, "time": 2546.9}}, "day": 21, "month": 8, "livingplace": "Aigle"}}, "location": "M\u00e9zi\u00e8res VD"}, "Tour du pays de Vaud #1 - Penthaz": {"race": "Tour du pays de Vaud #1 - Penthaz", "longitude": 6.539251200000001, "latitude": 46.5993131, "date": {"mer. 14.08.2013": {"weekday": "wednesday", "year": 2013, "categories": {"H-Sen2": {"pace": 291000000000, "rank": 88, "distance": 9, "time": 2483.9}}, "day": 14, "month": 8, "livingplace": "Aigle"}}, "location": "Penthaz"}, "Tour du Pays de Vaud #4 - La Sarraz": {"race": "Tour du Pays de Vaud #4 - La Sarraz", "longitude": 6.5707689, "latitude": 46.7088129, "date": {"mer. 04.09.2013": {"weekday": "wednesday", "year": 2013, "categories": {"H-Sen2": {"pace": 300000000000, "rank": 107, "distance": 9, "time": 2557.7}}, "day": 4, "month": 9, "livingplace": "Aigle"}}, "location": "Chavornay"}, "Tour du Chablais #3 Collombey-Muraz": {"race": "Tour du Chablais #3 Collombey-Muraz", "longitude": 7.0223787, "latitude": 46.1782231, "date": {"mer. 25.04.2012": {"weekday": "wednesday", "year": 2012, "categories": {"M-M40": {"pace": 288000000000, "rank": 96, "distance": 9, "time": 2589.8}}, "day": 25, "month": 4, "livingplace": "Aigle"}}, "location": "Evionnaz"}, "Tour du Chablais #4 St  Maurice": {"race": "Tour du Chablais #4 St  Maurice", "date": {"mer. 24.04.2013": {"weekday": "wednesday", "year": 2013, "categories": {"M-M40": {"pace": 276000000000, "rank": 67, "distance": 10, "time": 2764.1}}, "day": 24, "month": 4, "livingplace": "Aigle"}}, "location": "Les Mosses"}}, "name": "Lehni Christian", "birth": 1964}