{"sex": "F", "races": {"Corrida Bulloise, Bulle": {"race": "Corrida Bulloise, Bulle", "longitude": 7.057726799999999, "latitude": 46.6154512, "date": {"sam. 21.11.2009": {"weekday": "saturday", "year": 2009, "categories": {"F20": {"pace": 362000000000, "rank": 167, "distance": 6, "time": 2227.6}}, "day": 21, "month": 11, "livingplace": "Sierre"}}, "location": "Bulle"}, "Aletsch-Halbmarathon, Bettmeralp": {"race": "Aletsch-Halbmarathon, Bettmeralp", "date": {"dim. 26.06.2011": {"weekday": "sunday", "year": 2011, "categories": {"F30": {"pace": 678000000000, "rank": 171, "distance": 21, "time": 14249.5}}, "day": 26, "month": 6, "livingplace": "Sierre"}}, "location": "Bettmeralp"}, "Tour du Chablais #5 Les Mosses": {"race": "Tour du Chablais #5 Les Mosses", "longitude": 6.931504599999999, "latitude": 46.3603257, "date": {"mer. 25.05.2011": {"weekday": "wednesday", "year": 2011, "categories": {"F-F20": {"pace": 379000000000, "rank": 89, "distance": 8, "time": 3032.4}}, "day": 25, "month": 5, "livingplace": "Sierre"}}, "location": "Roche VD"}, "Tour du Chablais #1 Lavey": {"race": "Tour du Chablais #1 Lavey", "longitude": 6.9916269, "latitude": 46.2957462, "date": {"mer. 27.04.2011": {"weekday": "wednesday", "year": 2011, "categories": {"F-F20": {"pace": 339000000000, "rank": 71, "distance": 9, "time": 3053.3}}, "day": 27, "month": 4, "livingplace": "Sierre"}}, "location": "Ollon VD"}, "Tour du Chablais #3 Le Bouveret": {"race": "Tour du Chablais #3 Le Bouveret", "longitude": 7.0223787, "latitude": 46.1782231, "date": {"mer. 11.05.2011": {"weekday": "wednesday", "year": 2011, "categories": {"F-F20": {"pace": 360000000000, "rank": 109, "distance": 10, "time": 3606.2}}, "day": 11, "month": 5, "livingplace": "Sierre"}}, "location": "Evionnaz"}, "Tour du Chablais #4 Morgins": {"race": "Tour du Chablais #4 Morgins", "date": {"mer. 18.05.2011": {"weekday": "wednesday", "year": 2011, "categories": {"F-F20": {"pace": 372000000000, "rank": 91, "distance": 8, "time": 3106.5}}, "day": 18, "month": 5, "livingplace": "Sierre"}}, "location": "Les Mosses"}, "Tour du Chablais #2 Rennaz": {"race": "Tour du Chablais #2 Rennaz", "longitude": 6.854975199999999, "latitude": 46.3835529, "date": {"mer. 04.05.2011": {"weekday": "wednesday", "year": 2011, "categories": {"F-F20": {"pace": 358000000000, "rank": 106, "distance": 9, "time": 3350.3}}, "day": 4, "month": 5, "livingplace": "Sierre"}}, "location": "Bouveret"}}, "name": "Leins Francoise", "birth": 1976}