{"sex": "M", "races": {"Tour du pays de Vaud #6 - St  Prex": {"race": "Tour du pays de Vaud #6 - St  Prex", "longitude": 6.458343500000001, "latitude": 46.4829113, "date": {"mer. 14.09.2011": {"weekday": "wednesday", "year": 2011, "categories": {"H-Sen2": {"pace": 226000000000, "rank": 7, "distance": 9, "time": 1945.3}}, "day": 14, "month": 9, "livingplace": "Vallorbe"}}, "location": "St-Prex"}, "Tour du Pays de Vaud printanier #1 Chavornay": {"race": "Tour du Pays de Vaud printanier #1 Chavornay", "longitude": 6.2347852, "latitude": 46.3832683, "date": {"mer. 30.05.2012": {"weekday": "wednesday", "year": 2012, "categories": {"H-Sen2": {"pace": 235000000000, "rank": 1, "distance": 9, "time": 2109.8}}, "day": 30, "month": 5, "livingplace": "Vallorbe"}}, "location": "Nyon"}, "Course de l'Escalade, Gen\u00e8ve": {"race": "Course de l'Escalade, Gen\u00e8ve", "longitude": 6.1431577, "latitude": 46.2043907, "date": {"sam. 07.12.2002": {"weekday": "saturday", "year": 2002, "categories": {"HElite": {"pace": 235000000000, "rank": 240, "distance": 7, "time": 1709.0}}, "day": 7, "month": 12, "livingplace": "Pully"}}, "location": "Gen\u00e8ve"}, "Tour du pays de Vaud #1 - Penthaz": {"race": "Tour du pays de Vaud #1 - Penthaz", "longitude": 6.539251200000001, "latitude": 46.5993131, "date": {"mer. 08.08.2012": {"weekday": "wednesday", "year": 2012, "categories": {"H-Sen2": {"pace": 233000000000, "rank": 13, "distance": 9, "time": 1990.5}}, "day": 8, "month": 8, "livingplace": "Vallorbe"}}, "location": "Penthaz"}, "La Trotteuse-Tissot, La Chaux-de-Fonds": {"race": "La Trotteuse-Tissot, La Chaux-de-Fonds", "longitude": 6.832783800000001, "latitude": 47.1034892, "date": {"sam. 12.12.2015": {"weekday": "saturday", "year": 2015, "categories": {"GC-H40": {"pace": 337000000000, "rank": 232, "distance": 8, "time": 2699.4}}, "day": 12, "month": 12, "livingplace": "Dombresson"}, "sam. 13.12.2014": {"weekday": "saturday", "year": 2014, "categories": {"GC-H40": {"pace": 313000000000, "rank": 160, "distance": 8, "time": 2508.0}}, "day": 13, "month": 12, "livingplace": "Dombresson"}}, "location": "La Chaux-de-Fonds"}, "Tour du Pays de Vaud #4 - La Sarraz": {"race": "Tour du Pays de Vaud #4 - La Sarraz", "longitude": 6.5707689, "latitude": 46.7088129, "date": {"mer. 29.08.2012": {"weekday": "wednesday", "year": 2012, "categories": {"H-Sen2": {"pace": 230000000000, "rank": 12, "distance": 9, "time": 1958.2}}, "day": 29, "month": 8, "livingplace": "Vallorbe"}}, "location": "Chavornay"}, "Tour du Pays de Vaud #3 - Mezi\u00e8res": {"race": "Tour du Pays de Vaud #3 - Mezi\u00e8res", "longitude": 6.641183, "latitude": 46.7784736, "date": {"mer. 22.08.2012": {"weekday": "wednesday", "year": 2012, "categories": {"H-Sen2": {"pace": 248000000000, "rank": 13, "distance": 8, "time": 2083.2}}, "day": 22, "month": 8, "livingplace": "Vallorbe"}}, "location": "Yverdon-les-Bains"}, "Tour du pays de Vaud #1 - Mezi\u00e8res": {"race": "Tour du pays de Vaud #1 - Mezi\u00e8res", "longitude": 6.641183, "latitude": 46.7784736, "date": {"mer. 10.08.2011": {"weekday": "wednesday", "year": 2011, "categories": {"H-Sen2": {"pace": 230000000000, "rank": 10, "distance": 9, "time": 1958.3}}, "day": 10, "month": 8, "livingplace": "Vallorbe"}}, "location": "Yverdon-les-Bains"}, "Jungfrau-Marathon, Interlaken": {"race": "Jungfrau-Marathon, Interlaken", "date": {"sam. 01.09.2001": {"weekday": "saturday", "year": 2001, "categories": {"M20": {"pace": 364000000000, "rank": 325, "distance": 42, "time": 15390.4}}, "day": 1, "month": 9, "livingplace": "Vallorbe"}}, "location": "Interlaken"}, "Montreux - Les Rochers de Naye": {"race": "Montreux - Les Rochers de Naye", "longitude": 6.9106799, "latitude": 46.4312213, "date": {"dim. 30.06.2002": {"weekday": "sunday", "year": 2002, "categories": {"Se": {"pace": 368000000000, "rank": 19, "distance": 20, "time": 7473.6}}, "day": 30, "month": 6, "livingplace": "Pully"}}, "location": "Montreux"}}, "name": "Leuenberger Christophe", "birth": 1971}