{"sex": "M", "races": {"Eiger Ultra Trail, Grindelwald": {"race": "Eiger Ultra Trail, Grindelwald", "longitude": 8.0413962, "latitude": 46.624164, "date": {"sam. 18.07.2015": {"weekday": "saturday", "year": 2015, "categories": {"B-H": {"pace": 559000000000, "rank": 62, "distance": 51, "time": 28555.0}}, "day": 18, "month": 7, "livingplace": "Le Locle"}}, "location": "Grindelwald"}, "BCN Tour Le Locle": {"race": "BCN Tour Le Locle", "longitude": 6.733554799999999, "latitude": 46.999113, "date": {"mer. 05.05.2010": {"weekday": "wednesday", "year": 2010, "categories": {"HJ": {"pace": 298000000000, "rank": 34, "distance": 11, "time": 3255.9}}, "day": 5, "month": 5, "livingplace": "Le Locle"}}, "location": "Les Ponts-de-Martel"}, "BCN Tour Ponts-de-Martel": {"race": "BCN Tour Ponts-de-Martel", "longitude": 6.9175754, "latitude": 47.0624261, "date": {"mer. 28.04.2010": {"weekday": "wednesday", "year": 2010, "categories": {"HJ": {"pace": 338000000000, "rank": 56, "distance": 11, "time": 3789.1}}, "day": 28, "month": 4, "livingplace": "Le Locle"}}, "location": "Ch\u00e9zard-St-Martin"}, "Morat-Fribourg": {"race": "Morat-Fribourg", "longitude": 7.120184, "latitude": 46.92922110000001, "date": {"sam. 04.10.2014": {"weekday": "saturday", "year": 2014, "categories": {"17-M20": {"pace": 319000000000, "rank": 1354, "distance": 17, "time": 5488.7}}, "day": 4, "month": 10, "livingplace": "Le Locle"}}, "location": "Murten"}, "Aletsch-Halbmarathon, Bettmeralp": {"race": "Aletsch-Halbmarathon, Bettmeralp", "date": {"dim. 28.06.2015": {"weekday": "sunday", "year": 2015, "categories": {"M20": {"pace": 400000000000, "rank": 113, "distance": 21, "time": 8442.9}}, "day": 28, "month": 6, "livingplace": "Les oiseaux qui chantent"}}, "location": "Bettmeralp"}, "BCN Tour La Chaux-de-fonds": {"race": "BCN Tour La Chaux-de-fonds", "longitude": 6.832783800000001, "latitude": 47.1034892, "date": {"mer. 12.05.2010": {"weekday": "wednesday", "year": 2010, "categories": {"HJ": {"pace": 375000000000, "rank": 50, "distance": 11, "time": 4015.7}}, "day": 12, "month": 5, "livingplace": "Le Locle"}}, "location": "La Chaux-de-Fonds"}}, "name": "Liechti Lo\u00efc", "birth": 1991}