{"sex": "M", "races": {"BCN Tour M\u00f4tier": {"race": "BCN Tour M\u00f4tier", "longitude": 6.6324944, "latitude": 46.9262933, "date": {"mer. 19.05.2010": {"weekday": "wednesday", "year": 2010, "categories": {"HS2": {"pace": 306000000000, "rank": 173, "distance": 10, "time": 3038.2}}, "day": 19, "month": 5, "livingplace": "Lignieres"}}, "location": "Couvet"}, "La Trotteuse-Tissot, La Chaux-de-Fonds": {"race": "La Trotteuse-Tissot, La Chaux-de-Fonds", "longitude": 6.832783800000001, "latitude": 47.1034892, "date": {"sam. 12.12.2015": {"weekday": "saturday", "year": 2015, "categories": {"GC-H40": {"pace": 288000000000, "rank": 135, "distance": 8, "time": 2310.6}}, "day": 12, "month": 12, "livingplace": "Lignieres"}, "sam. 08.12.2012": {"weekday": "saturday", "year": 2012, "categories": {"GC-H40": {"pace": 323000000000, "rank": 89, "distance": 8, "time": 2591.0}}, "day": 8, "month": 12, "livingplace": "Lignieres"}, "sam. 13.12.2014": {"weekday": "saturday", "year": 2014, "categories": {"GC-H40": {"pace": 294000000000, "rank": 118, "distance": 8, "time": 2359.7}}, "day": 13, "month": 12, "livingplace": "Lignieres"}}, "location": "La Chaux-de-Fonds"}, "BCN Tour Ponts-de-Martel": {"race": "BCN Tour Ponts-de-Martel", "longitude": 6.9175754, "latitude": 47.0624261, "date": {"mer. 28.04.2010": {"weekday": "wednesday", "year": 2010, "categories": {"HS2": {"pace": 342000000000, "rank": 221, "distance": 11, "time": 3836.1}}, "day": 28, "month": 4, "livingplace": "Lignieres"}}, "location": "Ch\u00e9zard-St-Martin"}, "Kerzerslauf": {"race": "Kerzerslauf", "longitude": 7.1954365, "latitude": 46.97488999999999, "date": {"sam. 16.03.2013": {"weekday": "saturday", "year": 2013, "categories": {"15-M45": {"pace": 305000000000, "rank": 383, "distance": 15, "time": 4582.8}}, "day": 16, "month": 3, "livingplace": "Lignieres"}}, "location": "Kerzers"}, "20km de Lausanne": {"race": "20km de Lausanne", "longitude": 6.6322734, "latitude": 46.5196535, "date": {"sam. 25.04.2015": {"weekday": "saturday", "year": 2015, "categories": {"20-H45": {"pace": 292000000000, "rank": 193, "distance": 20, "time": 5842.3}}, "day": 25, "month": 4, "livingplace": "Lignieres"}}, "location": "Lausanne"}, "BCN Tour Neuch\u00e2tel": {"race": "BCN Tour Neuch\u00e2tel", "longitude": 6.9292732, "latitude": 46.9899874, "date": {"mer. 26.05.2010": {"weekday": "wednesday", "year": 2010, "categories": {"HS2": {"pace": 371000000000, "rank": 175, "distance": 10, "time": 3606.6}}, "day": 26, "month": 5, "livingplace": "Lignieres"}}, "location": "Neuch\u00e2tel"}, "BCN Tour Le Locle": {"race": "BCN Tour Le Locle", "longitude": 6.733554799999999, "latitude": 46.999113, "date": {"mer. 05.05.2010": {"weekday": "wednesday", "year": 2010, "categories": {"HS2": {"pace": 317000000000, "rank": 157, "distance": 11, "time": 3465.5}}, "day": 5, "month": 5, "livingplace": "Lignieres"}}, "location": "Les Ponts-de-Martel"}, "Int  Bieler Cross, Biel-Bienne": {"race": "Int  Bieler Cross, Biel-Bienne", "longitude": 7.2467909, "latitude": 47.1367785, "date": {"dim. 09.11.2014": {"weekday": "sunday", "year": 2014, "categories": {"M40": {"pace": 289000000000, "rank": 20, "distance": 6, "time": 1851.3}}, "day": 9, "month": 11, "livingplace": "Lignieres"}}, "location": "Biel/Bienne"}, "Lausanne Marathon": {"race": "Lausanne Marathon", "longitude": 6.6322734, "latitude": 46.5196535, "date": {"dim. 27.10.2013": {"weekday": "sunday", "year": 2013, "categories": {"21-H3": {"pace": 313000000000, "rank": 450, "distance": 21, "time": 6606.5}}, "day": 27, "month": 10, "livingplace": "Lignieres"}}, "location": "Lausanne"}, "BCN Tour Colombier": {"race": "BCN Tour Colombier", "longitude": 6.8589727, "latitude": 46.9668714, "date": {"mer. 21.04.2010": {"weekday": "wednesday", "year": 2010, "categories": {"HS2": {"pace": 359000000000, "rank": 212, "distance": 10, "time": 3592.1}}, "day": 21, "month": 4, "livingplace": "Lignieres"}}, "location": "Colombier NE"}, "Aletsch-Halbmarathon, Bettmeralp": {"race": "Aletsch-Halbmarathon, Bettmeralp", "date": {"dim. 29.06.2014": {"weekday": "sunday", "year": 2014, "categories": {"M45": {"pace": 395000000000, "rank": 133, "distance": 13, "time": 5264.2}}, "day": 29, "month": 6, "livingplace": "Lignieres"}, "dim. 28.06.2015": {"weekday": "sunday", "year": 2015, "categories": {"M45": {"pace": 496000000000, "rank": 153, "distance": 21, "time": 10467.1}}, "day": 28, "month": 6, "livingplace": "Lignieres"}}, "location": "Bettmeralp"}, "BCN Tour La Chaux-de-fonds": {"race": "BCN Tour La Chaux-de-fonds", "longitude": 6.832783800000001, "latitude": 47.1034892, "date": {"mer. 12.05.2010": {"weekday": "wednesday", "year": 2010, "categories": {"HS2": {"pace": 407000000000, "rank": 200, "distance": 11, "time": 4358.8}}, "day": 12, "month": 5, "livingplace": "Lignieres"}}, "location": "La Chaux-de-Fonds"}}, "name": "L\u00f6ffel Jean-Christophe", "birth": 1966}