{"sex": "M", "races": {"Int Greifenseelauf, Uster": {"race": "Int Greifenseelauf, Uster", "longitude": 8.717873899999999, "latitude": 47.3482747, "date": {"sam. 19.09.2009": {"weekday": "saturday", "year": 2009, "categories": {"H-M40": {"pace": 332000000000, "rank": 836, "distance": 21, "time": 7011.1}}, "day": 19, "month": 9, "livingplace": "Mont sur Rolle"}}, "location": "Uster"}, "Tour du Pays de Vaud etape 2 - Genolier": {"race": "Tour du Pays de Vaud etape 2 - Genolier", "longitude": 6.7702883, "latitude": 46.5955273, "date": {"mer. 20.08.2008": {"weekday": "wednesday", "year": 2008, "categories": {"HomSen2": {"pace": 280000000000, "rank": 66, "distance": 8, "time": 2330.9}}, "day": 20, "month": 8, "livingplace": "Begnins"}}, "location": "M\u00e9zi\u00e8res VD"}, "20km de Lausanne": {"race": "20km de Lausanne", "longitude": 6.6322734, "latitude": 46.5196535, "date": {"sam. 24.04.2010": {"weekday": "saturday", "year": 2010, "categories": {"10-H45": {"pace": 302000000000, "rank": 108, "distance": 10, "time": 3024.4}}, "day": 24, "month": 4, "livingplace": "Mont sur Rolle"}, "sam. 28.04.2007": {"weekday": "saturday", "year": 2007, "categories": {"20H40": {"pace": 313000000000, "rank": 226, "distance": 20, "time": 6264.3}}, "day": 28, "month": 4, "livingplace": "Begnins"}, "sam. 22.04.2006": {"weekday": "saturday", "year": 2006, "categories": {"10/H40": {"pace": 314000000000, "rank": 142, "distance": 10, "time": 3144.9}}, "day": 22, "month": 4, "livingplace": "Begnins"}}, "location": "Lausanne"}, "Gurtenclassic, Wabern": {"race": "Gurtenclassic, Wabern", "longitude": 7.448973199999999, "latitude": 46.92901639999999, "date": {"dim. 05.11.2006": {"weekday": "sunday", "year": 2006, "categories": {"M40": {"pace": 328000000000, "rank": 126, "distance": 15, "time": 4920.0}}, "day": 5, "month": 11, "livingplace": "Begnins"}}, "location": "Wabern"}, "Basler Stadtlauf": {"race": "Basler Stadtlauf", "longitude": 7.5885761, "latitude": 47.5595986, "date": {"sam. 25.11.2006": {"weekday": "saturday", "year": 2006, "categories": {"N": {"pace": 263000000000, "rank": 191, "distance": 6, "time": 1448.5}}, "day": 25, "month": 11, "livingplace": "Begnins"}, "sam. 26.11.2005": {"weekday": "saturday", "year": 2005, "categories": {"N": {"pace": 276000000000, "rank": 290, "distance": 6, "time": 1522.1}}, "day": 26, "month": 11, "livingplace": "Begnins"}}, "location": "Basel"}, "Bieler Lauftage, Biel Bienne": {"race": "Bieler Lauftage, Biel Bienne", "longitude": 7.2467909, "latitude": 47.1367785, "date": {"ven. 17.06.2005": {"weekday": "friday", "year": 2005, "categories": {"B/M40": {"pace": 378000000000, "rank": 10, "distance": 15, "time": 5488.8}}, "day": 17, "month": 6, "livingplace": "Begnins"}}, "location": "Biel/Bienne"}, "Tour du Pays de Vaud etape 3 - Aubonne": {"race": "Tour du Pays de Vaud etape 3 - Aubonne", "longitude": 6.5728678, "latitude": 46.7829756, "date": {"mer. 27.08.2008": {"weekday": "wednesday", "year": 2008, "categories": {"HomSen2": {"pace": 290000000000, "rank": 62, "distance": 8, "time": 2262.3}}, "day": 27, "month": 8, "livingplace": "Begnins"}}, "location": "Champvent"}, "Kerzerslauf": {"race": "Kerzerslauf", "longitude": 7.1954365, "latitude": 46.97488999999999, "date": {"sam. 17.03.2007": {"weekday": "saturday", "year": 2007, "categories": {"M40": {"pace": 305000000000, "rank": 453, "distance": 15, "time": 4581.3}}, "day": 17, "month": 3, "livingplace": "Begnins"}}, "location": "Kerzers"}, "Les Traine-Savates, Cheseaux-sur-Lausanne": {"race": "Les Traine-Savates, Cheseaux-sur-Lausanne", "longitude": 6.6047712, "latitude": 46.585452, "date": {"sam. 12.04.2008": {"weekday": "saturday", "year": 2008, "categories": {"MV1": {"pace": 283000000000, "rank": 112, "distance": 10, "time": 2944.5}}, "day": 12, "month": 4, "livingplace": "Begnins"}}, "location": "Cheseaux-sur-Lausanne"}, "Aletsch-Halbmarathon, Bettmeralp": {"race": "Aletsch-Halbmarathon, Bettmeralp", "date": {"dim. 24.06.2007": {"weekday": "sunday", "year": 2007, "categories": {"M40": {"pace": 508000000000, "rank": 149, "distance": 21, "time": 10673.4}}, "day": 24, "month": 6, "livingplace": "Begnins"}, "dim. 29.06.2008": {"weekday": "sunday", "year": 2008, "categories": {"M40": {"pace": 530000000000, "rank": 183, "distance": 21, "time": 11136.6}}, "day": 29, "month": 6, "livingplace": "Begnins"}}, "location": "Bettmeralp"}, "Tour du Pays de Vaud #2 - Genolier": {"race": "Tour du Pays de Vaud #2 - Genolier", "longitude": 6.7702883, "latitude": 46.5955273, "date": {"mer. 18.08.2010": {"weekday": "wednesday", "year": 2010, "categories": {"HSen2": {"pace": 309000000000, "rank": 108, "distance": 8, "time": 2508.4}}, "day": 18, "month": 8, "livingplace": "Begnins"}}, "location": "M\u00e9zi\u00e8res VD"}}, "name": "Lohri Marius", "birth": 1965}