{"sex": "M", "races": {"Groupe E Tour Fribourg #3, Kerzers": {"race": "Groupe E Tour Fribourg #3, Kerzers", "longitude": 7.1954365, "latitude": 46.97488999999999, "date": {"mer. 03.09.2014": {"weekday": "wednesday", "year": 2014, "categories": {"H-Sen2": {"pace": 264000000000, "rank": 24, "distance": 10, "time": 2692.1}}, "day": 3, "month": 9, "livingplace": "Neuchatel"}}, "location": "Kerzers"}, "BCN Tour Auvernier": {"race": "BCN Tour Auvernier", "longitude": 6.8589727, "latitude": 46.9668714, "date": {"mer. 20.04.2011": {"weekday": "wednesday", "year": 2011, "categories": {"HS2": {"pace": 289000000000, "rank": 84, "distance": 11, "time": 3125.7}}, "day": 20, "month": 4, "livingplace": "Neuchatel"}}, "location": "Colombier NE"}, "La Trotteuse-Tissot, La Chaux-de-Fonds": {"race": "La Trotteuse-Tissot, La Chaux-de-Fonds", "longitude": 6.832783800000001, "latitude": 47.1034892, "date": {"sam. 17.12.2011": {"weekday": "saturday", "year": 2011, "categories": {"GC-H40": {"pace": 298000000000, "rank": 65, "distance": 8, "time": 2388.6}}, "day": 17, "month": 12, "livingplace": "Neuchatel"}, "sam. 18.12.2010": {"weekday": "saturday", "year": 2010, "categories": {"GC-H40": {"pace": 282000000000, "rank": 36, "distance": 8, "time": 2258.5}}, "day": 18, "month": 12, "livingplace": "Neuchatel"}}, "location": "La Chaux-de-Fonds"}, "BCN Tour Colombier": {"race": "BCN Tour Colombier", "longitude": 6.8589727, "latitude": 46.9668714, "date": {"mer. 21.04.2010": {"weekday": "wednesday", "year": 2010, "categories": {"HS2": {"pace": 301000000000, "rank": 80, "distance": 10, "time": 3018.2}}, "day": 21, "month": 4, "livingplace": "Neuchatel"}, "mer. 16.05.2012": {"weekday": "wednesday", "year": 2012, "categories": {"HS2": {"pace": 284000000000, "rank": 105, "distance": 11, "time": 3072.5}}, "day": 16, "month": 5, "livingplace": "Neuchatel"}, "mer. 23.04.2008": {"weekday": "wednesday", "year": 2008, "categories": {"HS2": {"pace": 277000000000, "rank": 50, "distance": 10, "time": 2831.2}}, "day": 23, "month": 4, "livingplace": "Lauener"}}, "location": "Colombier NE"}, "Morat-Fribourg": {"race": "Morat-Fribourg", "longitude": 7.120184, "latitude": 46.92922110000001, "date": {"sam. 06.10.2007": {"weekday": "saturday", "year": 2007, "categories": {"C/M20": {"pace": 277000000000, "rank": 515, "distance": 17, "time": 4771.7}}, "day": 6, "month": 10, "livingplace": "Neuchatel"}}, "location": "Murten"}, "BCN Tour Fontaine Cernier": {"race": "BCN Tour Fontaine Cernier", "longitude": 6.9175754, "latitude": 47.0624261, "date": {"mer. 27.04.2011": {"weekday": "wednesday", "year": 2011, "categories": {"HS2": {"pace": 272000000000, "rank": 83, "distance": 10, "time": 2809.4}}, "day": 27, "month": 4, "livingplace": "Neuchatel"}}, "location": "Ch\u00e9zard-St-Martin"}, "20km de Lausanne": {"race": "20km de Lausanne", "longitude": 6.6322734, "latitude": 46.5196535, "date": {"sam. 28.04.2012": {"weekday": "saturday", "year": 2012, "categories": {"20-H40": {"pace": 289000000000, "rank": 135, "distance": 20, "time": 5780.8}}, "day": 28, "month": 4, "livingplace": "Neuchatel"}, "sam. 26.04.2014": {"weekday": "saturday", "year": 2014, "categories": {"20-H45": {"pace": 279000000000, "rank": 107, "distance": 20, "time": 5581.8}}, "day": 26, "month": 4, "livingplace": "Neuchatel"}}, "location": "Lausanne"}, "BCN Tour Neuch\u00e2tel": {"race": "BCN Tour Neuch\u00e2tel", "longitude": 6.9292732, "latitude": 46.9899874, "date": {"mer. 26.05.2010": {"weekday": "wednesday", "year": 2010, "categories": {"HS2": {"pace": 274000000000, "rank": 40, "distance": 10, "time": 2661.5}}, "day": 26, "month": 5, "livingplace": "Neuchatel"}}, "location": "Neuch\u00e2tel"}, "BCN Tour Les Ponts-de-Martel": {"race": "BCN Tour Les Ponts-de-Martel", "longitude": 6.733554799999999, "latitude": 46.999113, "date": {"mer. 09.05.2012": {"weekday": "wednesday", "year": 2012, "categories": {"HS2": {"pace": 314000000000, "rank": 158, "distance": 10, "time": 3239.1}}, "day": 9, "month": 5, "livingplace": "Neuchatel"}}, "location": "Les Ponts-de-Martel"}, "Jungfrau-Marathon, Interlaken": {"race": "Jungfrau-Marathon, Interlaken", "date": {"sam. 05.09.2009": {"weekday": "saturday", "year": 2009, "categories": {"M40": {"pace": 394000000000, "rank": 195, "distance": 42, "time": 16634.0}}, "day": 5, "month": 9, "livingplace": "Neuchatel"}, "sam. 06.09.2008": {"weekday": "saturday", "year": 2008, "categories": {"M40": {"pace": 410000000000, "rank": 234, "distance": 42, "time": 17326.7}}, "day": 6, "month": 9, "livingplace": "Neuchatel"}}, "location": "Interlaken"}, "BCN Tour Le Locle": {"race": "BCN Tour Le Locle", "longitude": 6.733554799999999, "latitude": 46.999113, "date": {"mer. 05.05.2010": {"weekday": "wednesday", "year": 2010, "categories": {"HS2": {"pace": 272000000000, "rank": 57, "distance": 11, "time": 2965.2}}, "day": 5, "month": 5, "livingplace": "Neuchatel"}}, "location": "Les Ponts-de-Martel"}, "BCN Tour Les Ponts de Martel": {"race": "BCN Tour Les Ponts de Martel", "longitude": 6.6324944, "latitude": 46.9262933, "date": {"mer. 18.05.2011": {"weekday": "wednesday", "year": 2011, "categories": {"HS2": {"pace": 282000000000, "rank": 67, "distance": 13, "time": 3618.9}}, "day": 18, "month": 5, "livingplace": "Neuchatel"}}, "location": "Couvet"}, "Groupe E Tour Fribourg #1 Siviriez": {"race": "Groupe E Tour Fribourg #1 Siviriez", "longitude": 6.977279999999999, "latitude": 46.81832, "date": {"mer. 21.08.2013": {"weekday": "wednesday", "year": 2013, "categories": {"HS2": {"pace": 286000000000, "rank": 27, "distance": 10, "time": 2804.8}}, "day": 21, "month": 8, "livingplace": "Neuchatel"}}, "location": "Cousset"}, "Groupe E Tour Fribourg #2 Kerzers": {"race": "Groupe E Tour Fribourg #2 Kerzers", "longitude": 7.1654493, "latitude": 46.6175845, "date": {"mer. 28.08.2013": {"weekday": "wednesday", "year": 2013, "categories": {"HS2": {"pace": 284000000000, "rank": 32, "distance": 12, "time": 3366.5}}, "day": 28, "month": 8, "livingplace": "Neuchatel"}}, "location": "Charmey (Gruy\u00e8re)"}, "BCN Tour Ponts-de-Martel": {"race": "BCN Tour Ponts-de-Martel", "longitude": 6.9175754, "latitude": 47.0624261, "date": {"mer. 28.04.2010": {"weekday": "wednesday", "year": 2010, "categories": {"HS2": {"pace": 287000000000, "rank": 85, "distance": 11, "time": 3223.2}}, "day": 28, "month": 4, "livingplace": "Neuchatel"}}, "location": "Ch\u00e9zard-St-Martin"}, "BCN Tour Couvet": {"race": "BCN Tour Couvet", "longitude": 6.9175754, "latitude": 47.0624261, "date": {"mer. 02.05.2012": {"weekday": "wednesday", "year": 2012, "categories": {"HS2": {"pace": 278000000000, "rank": 66, "distance": 11, "time": 3110.0}}, "day": 2, "month": 5, "livingplace": "Neuchatel"}}, "location": "Ch\u00e9zard-St-Martin"}, "BCN Tour Cornaux": {"race": "BCN Tour Cornaux", "longitude": 6.8589727, "latitude": 46.9668714, "date": {"mer. 25.04.2012": {"weekday": "wednesday", "year": 2012, "categories": {"HS2": {"pace": 302000000000, "rank": 68, "distance": 11, "time": 3323.8}}, "day": 25, "month": 4, "livingplace": "Neuchatel"}}, "location": "Colombier NE"}, "Groupe E Tour Fribourg #2, Charmey": {"race": "Groupe E Tour Fribourg #2, Charmey", "longitude": 7.1654493, "latitude": 46.6175845, "date": {"mer. 27.08.2014": {"weekday": "wednesday", "year": 2014, "categories": {"H-Sen2": {"pace": 297000000000, "rank": 18, "distance": 10, "time": 2867.3}}, "day": 27, "month": 8, "livingplace": "Neuchatel"}}, "location": "Charmey (Gruy\u00e8re)"}, "BCN Tour Le Landeron": {"race": "BCN Tour Le Landeron", "longitude": 6.8589727, "latitude": 46.9668714, "date": {"mer. 22.04.2009": {"weekday": "wednesday", "year": 2009, "categories": {"HS2": {"pace": 271000000000, "rank": 47, "distance": 11, "time": 3010.1}}, "day": 22, "month": 4, "livingplace": "Neuchatel"}}, "location": "Colombier NE"}, "Lausanne Marathon": {"race": "Lausanne Marathon", "longitude": 6.6322734, "latitude": 46.5196535, "date": {"dim. 31.10.2010": {"weekday": "sunday", "year": 2010, "categories": {"21-H3": {"pace": 285000000000, "rank": 270, "distance": 21, "time": 6027.8}}, "day": 31, "month": 10, "livingplace": "Neuchatel"}, "dim. 30.10.2011": {"weekday": "sunday", "year": 2011, "categories": {"21-H3": {"pace": 276000000000, "rank": 208, "distance": 21, "time": 5836.5}}, "day": 30, "month": 10, "livingplace": "Neuchatel"}}, "location": "Lausanne"}, "BCN Tour La Br\u00e9vine": {"race": "BCN Tour La Br\u00e9vine", "longitude": 6.733554799999999, "latitude": 46.999113, "date": {"mer. 04.05.2011": {"weekday": "wednesday", "year": 2011, "categories": {"HS2": {"pace": 285000000000, "rank": 84, "distance": 10, "time": 2851.4}}, "day": 4, "month": 5, "livingplace": "Neuchatel"}}, "location": "Les Ponts-de-Martel"}, "Aletsch-Halbmarathon, Bettmeralp": {"race": "Aletsch-Halbmarathon, Bettmeralp", "date": {"dim. 28.06.2015": {"weekday": "sunday", "year": 2015, "categories": {"M45": {"pace": 421000000000, "rank": 47, "distance": 21, "time": 8883.7}}, "day": 28, "month": 6, "livingplace": "Neuchatel"}, "dim. 24.06.2007": {"weekday": "sunday", "year": 2007, "categories": {"M30": {"pace": 439000000000, "rank": 129, "distance": 21, "time": 9229.0}}, "day": 24, "month": 6, "livingplace": "Neuchatel"}}, "location": "Bettmeralp"}, "BCN Tour La Chaux-de-fonds": {"race": "BCN Tour La Chaux-de-fonds", "longitude": 6.832783800000001, "latitude": 47.1034892, "date": {"mer. 12.05.2010": {"weekday": "wednesday", "year": 2010, "categories": {"HS2": {"pace": 334000000000, "rank": 58, "distance": 11, "time": 3574.7}}, "day": 12, "month": 5, "livingplace": "Neuchatel"}}, "location": "La Chaux-de-Fonds"}}, "name": "Lorimier St\u00e9phane", "birth": 1968}