{"sex": "M", "races": {"Herbstlauf Burgdorf": {"race": "Herbstlauf Burgdorf", "longitude": -115.9129022, "latitude": 45.277123, "date": {"sam. 22.10.2011": {"weekday": "saturday", "year": 2011, "categories": {"M50": {"pace": 284000000000, "rank": 20, "distance": 15, "time": 4325.1}}, "day": 22, "month": 10, "livingplace": "Koppigen"}}, "location": "Burgdorf"}, "Bl\u00fcemlisalp-Lauf, Reichenbach": {"race": "Bl\u00fcemlisalp-Lauf, Reichenbach", "longitude": 7.6940529, "latitude": 46.6254387, "date": {"dim. 25.05.2014": {"weekday": "sunday", "year": 2014, "categories": {"M50": {"pace": 368000000000, "rank": 38, "distance": 16, "time": 5932.1}}, "day": 25, "month": 5, "livingplace": "Ingold Ronners"}}, "location": "Reichenbach im Kandertal"}, "Hallwilerseelauf, Beinwil am See": {"race": "Hallwilerseelauf, Beinwil am See", "date": {"sam. 12.10.2013": {"weekday": "saturday", "year": 2013, "categories": {"21-M50": {"pace": 317000000000, "rank": 304, "distance": 21, "time": 6692.3}}, "day": 12, "month": 10, "livingplace": "Koppigen"}}, "location": "Beinwil am See"}, "Wiedlisbacher L\u00e4ufe, Wiedlisbach": {"race": "Wiedlisbacher L\u00e4ufe, Wiedlisbach", "longitude": 7.6453444, "latitude": 47.2512653, "date": {"dim. 29.04.2007": {"weekday": "sunday", "year": 2007, "categories": {"M-6.5": {"pace": 249000000000, "rank": 5, "distance": 7, "time": 1622.1}}, "day": 29, "month": 4, "livingplace": "Koppigen"}}, "location": "Wiedlisbach"}, "Kerzerslauf": {"race": "Kerzerslauf", "longitude": 7.1954365, "latitude": 46.97488999999999, "date": {"sam. 21.03.2015": {"weekday": "saturday", "year": 2015, "categories": {"15-M55": {"pace": 277000000000, "rank": 61, "distance": 15, "time": 4162.1}}, "day": 21, "month": 3, "livingplace": "Koppigen"}}, "location": "Kerzers"}, "Z\u00fcrcher Silvesterlauf, Z\u00fcrich": {"race": "Z\u00fcrcher Silvesterlauf, Z\u00fcrich", "longitude": 8.541694, "latitude": 47.3768866, "date": {"dim. 14.12.2014": {"weekday": "sunday", "year": 2014, "categories": {"10-M50": {"pace": 259000000000, "rank": 87, "distance": 10, "time": 2594.3}}, "day": 14, "month": 12, "livingplace": "Koppigen"}}, "location": "Z\u00fcrich"}, "SwissCityMarathon - Lucerne, Luzern": {"race": "SwissCityMarathon - Lucerne, Luzern", "longitude": 8.3093072, "latitude": 47.05016819999999, "date": {"dim. 27.10.2013": {"weekday": "sunday", "year": 2013, "categories": {"H-M50": {"pace": 299000000000, "rank": 215, "distance": 21, "time": 6312.2}}, "day": 27, "month": 10, "livingplace": "Koppigen"}}, "location": "Luzern"}, "Lausanne Marathon": {"race": "Lausanne Marathon", "longitude": 6.6322734, "latitude": 46.5196535, "date": {"dim. 30.10.2011": {"weekday": "sunday", "year": 2011, "categories": {"21-H4": {"pace": 286000000000, "rank": 90, "distance": 21, "time": 6036.6}}, "day": 30, "month": 10, "livingplace": "Koppigen"}}, "location": "Lausanne"}, "Derendinger Abendlauf, Derendingen": {"race": "Derendinger Abendlauf, Derendingen", "longitude": 7.585593099999999, "latitude": 47.1952433, "date": {"ven. 26.06.2009": {"weekday": "friday", "year": 2009, "categories": {"VLM": {"pace": 240000000000, "rank": 5, "distance": 5, "time": 1300.5}}, "day": 26, "month": 6, "livingplace": "Koppigen"}}, "location": "Derendingen"}, "Zermatt Marathon, Zermatt": {"race": "Zermatt Marathon, Zermatt", "date": {"sam. 04.07.2015": {"weekday": "saturday", "year": 2015, "categories": {"M-STM\u00e4": {"pace": 341000000000, "rank": 4, "distance": 42, "time": 14430.3}}, "day": 4, "month": 7, "livingplace": "Koppigen"}}, "location": "Zermatt"}, "Emmenlauf Utzenstorf": {"race": "Emmenlauf Utzenstorf", "longitude": 7.5588034, "latitude": 47.12816670000001, "date": {"mer. 21.08.2013": {"weekday": "wednesday", "year": 2013, "categories": {"Herren4": {"pace": 264000000000, "rank": 24, "distance": 11, "time": 2774.9}}, "day": 21, "month": 8, "livingplace": "Koppigen"}, "mer. 20.08.2014": {"weekday": "wednesday", "year": 2014, "categories": {"Herren4": {"pace": 259000000000, "rank": 26, "distance": 11, "time": 2729.4}}, "day": 20, "month": 8, "livingplace": "Koppigen"}}, "location": "Utzenstorf"}, "Steinh\u00f6lzlilauf, Liebefeld": {"race": "Steinh\u00f6lzlilauf, Liebefeld", "longitude": 7.416668, "latitude": 46.933331, "date": {"dim. 04.12.2011": {"weekday": "sunday", "year": 2011, "categories": {"L-S3M": {"pace": 280000000000, "rank": 13, "distance": 11, "time": 2940.1}}, "day": 4, "month": 12, "livingplace": "Koppigen"}}, "location": "Liebefeld"}, "Jungfrau-Marathon, Interlaken": {"race": "Jungfrau-Marathon, Interlaken", "date": {"sam. 08.09.2012": {"weekday": "saturday", "year": 2012, "categories": {"SA-M50": {"pace": 453000000000, "rank": 393, "distance": 42, "time": 19152.0}}, "day": 8, "month": 9, "livingplace": "Koppigen"}, "sam. 01.09.2001": {"weekday": "saturday", "year": 2001, "categories": {"M40": {"pace": 374000000000, "rank": 176, "distance": 42, "time": 15809.7}}, "day": 1, "month": 9, "livingplace": "Koppigen"}}, "location": "Interlaken"}, "Langenthaler Stadtlauf": {"race": "Langenthaler Stadtlauf", "longitude": 7.790562299999999, "latitude": 47.2120786, "date": {"sam. 22.11.2014": {"weekday": "saturday", "year": 2014, "categories": {"M50": {"pace": 252000000000, "rank": 25, "distance": 8, "time": 1892.4}}, "day": 22, "month": 11, "livingplace": "Koppigen"}}, "location": "Langenthal"}}, "name": "Luder Hans-Bigi", "birth": 1960}