{"sex": "M", "races": {"Int Greifenseelauf, Uster": {"race": "Int Greifenseelauf, Uster", "longitude": 8.717873899999999, "latitude": 47.3482747, "date": {"sam. 18.09.2004": {"weekday": "saturday", "year": 2004, "categories": {"H/M45": {"pace": 243000000000, "rank": 23, "distance": 21, "time": 5136.6}}, "day": 18, "month": 9, "livingplace": "Bern"}}, "location": "Uster"}, "Gurtenclassic, Wabern": {"race": "Gurtenclassic, Wabern", "longitude": 7.448973199999999, "latitude": 46.92901639999999, "date": {"dim. 05.11.2000": {"weekday": "sunday", "year": 2000, "categories": {"M40": {"pace": 296000000000, "rank": 46, "distance": 15, "time": 4470.1}}, "day": 5, "month": 11, "livingplace": "Bern"}}, "location": "Wabern"}, "Gempenlauf, Dornach": {"race": "Gempenlauf, Dornach", "longitude": 7.6170412, "latitude": 47.4790491, "date": {"mer. 08.06.2011": {"weekday": "wednesday", "year": 2011, "categories": {"M50": {"pace": 299000000000, "rank": 15, "distance": 8, "time": 2338.2}}, "day": 8, "month": 6, "livingplace": "Bern"}, "mer. 29.05.2013": {"weekday": "wednesday", "year": 2013, "categories": {"M55": {"pace": 305000000000, "rank": 6, "distance": 8, "time": 2386.1}}, "day": 29, "month": 5, "livingplace": "Bern"}}, "location": "Dornach"}, "Hallwilerseelauf, Beinwil am See": {"race": "Hallwilerseelauf, Beinwil am See", "date": {"sam. 12.10.2002": {"weekday": "saturday", "year": 2002, "categories": {"13": {"pace": 235000000000, "rank": 28, "distance": 21, "time": 4977.1}}, "day": 12, "month": 10, "livingplace": "Basel"}}, "location": "Beinwil am See"}, "Thuner Stadtlauf, Thun": {"race": "Thuner Stadtlauf, Thun", "longitude": 7.6279881, "latitude": 46.7579868, "date": {"dim. 01.09.2002": {"weekday": "sunday", "year": 2002, "categories": {"M40": {"pace": 223000000000, "rank": 16, "distance": 10, "time": 2236.6}}, "day": 1, "month": 9, "livingplace": "Basel"}}, "location": "Thun"}, "ASICS Bremgarter Reusslauf": {"race": "ASICS Bremgarter Reusslauf", "longitude": 8.3397905, "latitude": 47.34917739999999, "date": {"sam. 22.02.2003": {"weekday": "saturday", "year": 2003, "categories": {"13": {"pace": 212000000000, "rank": 33, "distance": 11, "time": 2338.2}}, "day": 22, "month": 2, "livingplace": "Basel"}}, "location": "Bremgarten AG"}, "Kerzerslauf": {"race": "Kerzerslauf", "longitude": 7.1954365, "latitude": 46.97488999999999, "date": {"sam. 20.03.2004": {"weekday": "saturday", "year": 2004, "categories": {"M45": {"pace": 235000000000, "rank": 20, "distance": 15, "time": 3534.8}}, "day": 20, "month": 3, "livingplace": "Basel"}, "sam. 15.03.2003": {"weekday": "saturday", "year": 2003, "categories": {"M45": {"pace": 231000000000, "rank": 20, "distance": 15, "time": 3468.5}}, "day": 15, "month": 3, "livingplace": "Basel"}}, "location": "Kerzers"}, "Basler Stadtlauf": {"race": "Basler Stadtlauf", "longitude": 7.5885761, "latitude": 47.5595986, "date": {"sam. 30.11.2002": {"weekday": "saturday", "year": 2002, "categories": {"N": {"pace": 214000000000, "rank": 15, "distance": 6, "time": 1178.5}}, "day": 30, "month": 11, "livingplace": "Basel"}}, "location": "Basel"}}, "name": "Luginb\u00fchl Markus", "birth": 1958}