{"sex": "M", "races": {"Tour du Chablais #1 Montreux": {"race": "Tour du Chablais #1 Montreux", "longitude": 6.9916269, "latitude": 46.2957462, "date": {"mer. 11.04.2012": {"weekday": "wednesday", "year": 2012, "categories": {"M-M50": {"pace": 245000000000, "rank": 7, "distance": 8, "time": 1867.5}}, "day": 11, "month": 4, "livingplace": "Remaufens"}}, "location": "Ollon VD"}, "Course p\u00e9destre Thyon-Dixence, Thyon": {"race": "Course p\u00e9destre Thyon-Dixence, Thyon", "date": {"dim. 04.08.2002": {"weekday": "sunday", "year": 2002, "categories": {"V1": {"pace": 358000000000, "rank": 17, "distance": 16, "time": 5867.5}}, "day": 4, "month": 8, "livingplace": "Remaufens"}}, "location": "Thyon-Les Collons"}, "Tour du Chablais #4 Yvorne": {"race": "Tour du Chablais #4 Yvorne", "date": {"mer. 28.04.2010": {"weekday": "wednesday", "year": 2010, "categories": {"M-M40": {"pace": 253000000000, "rank": 28, "distance": 8, "time": 2098.7}}, "day": 28, "month": 4, "livingplace": "Remaufens"}}, "location": "Les Mosses"}, "D\u00e9fi Val-de-Travers, Couvet": {"race": "D\u00e9fi Val-de-Travers, Couvet", "longitude": 6.6324944, "latitude": 46.9262933, "date": {"sam. 21.06.2008": {"weekday": "saturday", "year": 2008, "categories": {"DHS1": {"pace": 374000000000, "rank": 4, "distance": 75, "time": 28087.1}}, "day": 21, "month": 6, "livingplace": "Remaufens"}}, "location": "Couvet"}, "Tour du Chablais #1 Roche": {"race": "Tour du Chablais #1 Roche", "longitude": 6.9916269, "latitude": 46.2957462, "date": {"mer. 03.04.2013": {"weekday": "wednesday", "year": 2013, "categories": {"M-M50": {"pace": 232000000000, "rank": 7, "distance": 9, "time": 2063.8}}, "day": 3, "month": 4, "livingplace": "Remaufens"}}, "location": "Ollon VD"}, "Kerzerslauf": {"race": "Kerzerslauf", "longitude": 7.1954365, "latitude": 46.97488999999999, "date": {"sam. 15.03.2008": {"weekday": "saturday", "year": 2008, "categories": {"15/M45": {"pace": 242000000000, "rank": 52, "distance": 15, "time": 3640.4}}, "day": 15, "month": 3, "livingplace": "Remaufens"}, "sam. 19.03.2011": {"weekday": "saturday", "year": 2011, "categories": {"15-M50": {"pace": 246000000000, "rank": 29, "distance": 15, "time": 3694.8}}, "day": 19, "month": 3, "livingplace": "Remaufens"}, "sam. 21.03.2009": {"weekday": "saturday", "year": 2009, "categories": {"15-M45": {"pace": 240000000000, "rank": 48, "distance": 15, "time": 3602.1}}, "day": 21, "month": 3, "livingplace": "Remaufens"}, "sam. 21.03.2015": {"weekday": "saturday", "year": 2015, "categories": {"15-M50": {"pace": 245000000000, "rank": 30, "distance": 15, "time": 3685.2}}, "day": 21, "month": 3, "livingplace": "Remaufens"}}, "location": "Kerzers"}, "Tour du Chablais #2 Bex": {"race": "Tour du Chablais #2 Bex", "longitude": 6.854975199999999, "latitude": 46.3835529, "date": {"mer. 18.04.2012": {"weekday": "wednesday", "year": 2012, "categories": {"M-M50": {"pace": 241000000000, "rank": 5, "distance": 8, "time": 1929.6}}, "day": 18, "month": 4, "livingplace": "Remaufens"}}, "location": "Bouveret"}, "Morat-Fribourg": {"race": "Morat-Fribourg", "longitude": 7.120184, "latitude": 46.92922110000001, "date": {"sam. 04.10.2008": {"weekday": "saturday", "year": 2008, "categories": {"C-M45": {"pace": 256000000000, "rank": 62, "distance": 17, "time": 4405.4}}, "day": 4, "month": 10, "livingplace": "Remaufens"}}, "location": "Murten"}, "20km de Lausanne": {"race": "20km de Lausanne", "longitude": 6.6322734, "latitude": 46.5196535, "date": {"sam. 28.04.2012": {"weekday": "saturday", "year": 2012, "categories": {"20-H50": {"pace": 251000000000, "rank": 8, "distance": 20, "time": 5021.6}}, "day": 28, "month": 4, "livingplace": "Remaufens"}, "sam. 27.04.2013": {"weekday": "saturday", "year": 2013, "categories": {"20-H50": {"pace": 244000000000, "rank": 9, "distance": 20, "time": 4895.2}}, "day": 27, "month": 4, "livingplace": "Remaufens"}}, "location": "Lausanne"}, "Tour du Chablais #6 Mouthey": {"race": "Tour du Chablais #6 Mouthey", "longitude": 6.970566, "latitude": 46.3190253, "date": {"mer. 12.05.2010": {"weekday": "wednesday", "year": 2010, "categories": {"M-M40": {"pace": 234000000000, "rank": 28, "distance": 9, "time": 2152.5}}, "day": 12, "month": 5, "livingplace": "Remaufens"}}, "location": "Aigle"}, "Tour du Chablais #3 Bouveret": {"race": "Tour du Chablais #3 Bouveret", "longitude": 7.0223787, "latitude": 46.1782231, "date": {"mer. 17.04.2013": {"weekday": "wednesday", "year": 2013, "categories": {"M-M50": {"pace": 241000000000, "rank": 6, "distance": 10, "time": 2414.4}}, "day": 17, "month": 4, "livingplace": "Remaufens"}}, "location": "Evionnaz"}, "Tour du Chablais #5 Leysin": {"race": "Tour du Chablais #5 Leysin", "longitude": 6.931504599999999, "latitude": 46.3603257, "date": {"mer. 05.05.2010": {"weekday": "wednesday", "year": 2010, "categories": {"M-M40": {"pace": 259000000000, "rank": 15, "distance": 8, "time": 2190.8}}, "day": 5, "month": 5, "livingplace": "Remaufens"}}, "location": "Roche VD"}, "Zermatt Marathon, Zermatt": {"race": "Zermatt Marathon, Zermatt", "date": {"sam. 04.07.2015": {"weekday": "saturday", "year": 2015, "categories": {"U-M50": {"pace": 435000000000, "rank": 11, "distance": 46, "time": 19819.4}}, "day": 4, "month": 7, "livingplace": "Remaufens"}}, "location": "Zermatt"}, "Tour du Chablais #5 Bex": {"race": "Tour du Chablais #5 Bex", "longitude": 6.931504599999999, "latitude": 46.3603257, "date": {"mer. 09.05.2012": {"weekday": "wednesday", "year": 2012, "categories": {"M-M50": {"pace": 230000000000, "rank": 6, "distance": 9, "time": 2038.3}}, "day": 9, "month": 5, "livingplace": "Remaufens"}}, "location": "Roche VD"}, "Swiss IRONTRAIL, Davos": {"race": "Swiss IRONTRAIL, Davos", "longitude": 9.5319859, "latitude": 46.8507835, "date": {"jeu. 13.08.2015": {"weekday": "thursday", "year": 2015, "categories": {"T201-M50": {"pace": 968000000000, "rank": 6, "distance": 200, "time": 193655.2}}, "day": 13, "month": 8, "livingplace": "Remaufens"}}, "location": "Chur"}, "Les Traine-Savates, Cheseaux-sur-Lausanne": {"race": "Les Traine-Savates, Cheseaux-sur-Lausanne", "longitude": 6.6047712, "latitude": 46.585452, "date": {"sam. 09.04.2011": {"weekday": "saturday", "year": 2011, "categories": {"10-M50": {"pace": 241000000000, "rank": 9, "distance": 10, "time": 2510.0}}, "day": 9, "month": 4, "livingplace": "Remaufens"}}, "location": "Cheseaux-sur-Lausanne"}}, "name": "Maillard Pierre-Andr\u00e9", "birth": 1961}