{"sex": "M", "races": {"Tour du Chablais #4 Champ\u00e9ry": {"race": "Tour du Chablais #4 Champ\u00e9ry", "date": {"mer. 02.05.2012": {"weekday": "wednesday", "year": 2012, "categories": {"M-M20": {"pace": 312000000000, "rank": 172, "distance": 8, "time": 2591.2}}, "day": 2, "month": 5, "livingplace": "Ollon"}}, "location": "Les Mosses"}, "Tour du Chablais #4 Morgins": {"race": "Tour du Chablais #4 Morgins", "date": {"mer. 18.05.2011": {"weekday": "wednesday", "year": 2011, "categories": {"M-M20": {"pace": 278000000000, "rank": 97, "distance": 8, "time": 2324.2}}, "day": 18, "month": 5, "livingplace": "Ollon"}}, "location": "Les Mosses"}, "Tour du Chablais #4 Yvorne": {"race": "Tour du Chablais #4 Yvorne", "date": {"mer. 28.04.2010": {"weekday": "wednesday", "year": 2010, "categories": {"M-M20": {"pace": 271000000000, "rank": 73, "distance": 8, "time": 2247.8}}, "day": 28, "month": 4, "livingplace": "Ollon"}}, "location": "Les Mosses"}, "Tour du Chablais #1 Roche": {"race": "Tour du Chablais #1 Roche", "longitude": 6.9916269, "latitude": 46.2957462, "date": {"mer. 07.04.2010": {"weekday": "wednesday", "year": 2010, "categories": {"M-M20": {"pace": 249000000000, "rank": 76, "distance": 9, "time": 2233.8}}, "day": 7, "month": 4, "livingplace": "Ollon"}}, "location": "Ollon VD"}, "Tour du Chablais #6 Montreux": {"race": "Tour du Chablais #6 Montreux", "longitude": 6.970566, "latitude": 46.3190253, "date": {"mer. 16.05.2012": {"weekday": "wednesday", "year": 2012, "categories": {"M-M20": {"pace": 305000000000, "rank": 199, "distance": 9, "time": 2825.9}}, "day": 16, "month": 5, "livingplace": "Ollon"}}, "location": "Aigle"}, "Tour du Chablais #2 Bex": {"race": "Tour du Chablais #2 Bex", "longitude": 6.854975199999999, "latitude": 46.3835529, "date": {"mer. 18.04.2012": {"weekday": "wednesday", "year": 2012, "categories": {"M-M20": {"pace": 326000000000, "rank": 192, "distance": 8, "time": 2610.6}}, "day": 18, "month": 4, "livingplace": "Ollon"}}, "location": "Bouveret"}, "Morat-Fribourg": {"race": "Morat-Fribourg", "longitude": 7.120184, "latitude": 46.92922110000001, "date": {"sam. 03.10.2009": {"weekday": "saturday", "year": 2009, "categories": {"C-M20": {"pace": 286000000000, "rank": 648, "distance": 17, "time": 4915.2}}, "day": 3, "month": 10, "livingplace": "Ollon"}, "sam. 02.10.2010": {"weekday": "saturday", "year": 2010, "categories": {"17-M20": {"pace": 284000000000, "rank": 550, "distance": 17, "time": 4882.9}}, "day": 2, "month": 10, "livingplace": "Ollon"}, "sam. 04.10.2008": {"weekday": "saturday", "year": 2008, "categories": {"C-M20": {"pace": 308000000000, "rank": 1134, "distance": 17, "time": 5296.5}}, "day": 4, "month": 10, "livingplace": "Ollon"}}, "location": "Murten"}, "Tour du Chablais #6 Aigle": {"race": "Tour du Chablais #6 Aigle", "longitude": 6.970566, "latitude": 46.3190253, "date": {"mer. 01.06.2011": {"weekday": "wednesday", "year": 2011, "categories": {"M-M20": {"pace": 286000000000, "rank": 168, "distance": 10, "time": 2919.3}}, "day": 1, "month": 6, "livingplace": "Ollon"}}, "location": "Aigle"}, "20km de Lausanne": {"race": "20km de Lausanne", "longitude": 6.6322734, "latitude": 46.5196535, "date": {"sam. 24.04.2010": {"weekday": "saturday", "year": 2010, "categories": {"20-H30": {"pace": 278000000000, "rank": 209, "distance": 20, "time": 5579.6}}, "day": 24, "month": 4, "livingplace": "Ollon"}, "sam. 30.04.2011": {"weekday": "saturday", "year": 2011, "categories": {"20-H30": {"pace": 289000000000, "rank": 406, "distance": 20, "time": 5797.7}}, "day": 30, "month": 4, "livingplace": "Se bouger pour sa sante 1"}}, "location": "Lausanne"}, "Tour du Chablais #6 Mouthey": {"race": "Tour du Chablais #6 Mouthey", "longitude": 6.970566, "latitude": 46.3190253, "date": {"mer. 12.05.2010": {"weekday": "wednesday", "year": 2010, "categories": {"M-M20": {"pace": 253000000000, "rank": 87, "distance": 9, "time": 2329.0}}, "day": 12, "month": 5, "livingplace": "Ollon"}}, "location": "Aigle"}, "Tour du Chablais #5 Leysin": {"race": "Tour du Chablais #5 Leysin", "longitude": 6.931504599999999, "latitude": 46.3603257, "date": {"mer. 05.05.2010": {"weekday": "wednesday", "year": 2010, "categories": {"M-M20": {"pace": 279000000000, "rank": 62, "distance": 8, "time": 2362.0}}, "day": 5, "month": 5, "livingplace": "Ollon"}}, "location": "Roche VD"}, "Tour du Chablais #5 Les Mosses": {"race": "Tour du Chablais #5 Les Mosses", "longitude": 6.931504599999999, "latitude": 46.3603257, "date": {"mer. 25.05.2011": {"weekday": "wednesday", "year": 2011, "categories": {"M-M20": {"pace": 321000000000, "rank": 167, "distance": 8, "time": 2568.4}}, "day": 25, "month": 5, "livingplace": "Ollon"}}, "location": "Roche VD"}, "Tour du Chablais #1 Lavey": {"race": "Tour du Chablais #1 Lavey", "longitude": 6.9916269, "latitude": 46.2957462, "date": {"mer. 27.04.2011": {"weekday": "wednesday", "year": 2011, "categories": {"M-M20": {"pace": 252000000000, "rank": 75, "distance": 9, "time": 2276.6}}, "day": 27, "month": 4, "livingplace": "Ollon"}}, "location": "Ollon VD"}, "Tour du Chablais #5 Bex": {"race": "Tour du Chablais #5 Bex", "longitude": 6.931504599999999, "latitude": 46.3603257, "date": {"mer. 09.05.2012": {"weekday": "wednesday", "year": 2012, "categories": {"M-M20": {"pace": 300000000000, "rank": 142, "distance": 9, "time": 2663.4}}, "day": 9, "month": 5, "livingplace": "Ollon"}}, "location": "Roche VD"}, "Tour du Chablais #3 Bex": {"race": "Tour du Chablais #3 Bex", "longitude": 7.0223787, "latitude": 46.1782231, "date": {"mer. 21.04.2010": {"weekday": "wednesday", "year": 2010, "categories": {"M-M20": {"pace": 263000000000, "rank": 73, "distance": 10, "time": 2635.0}}, "day": 21, "month": 4, "livingplace": "Ollon"}}, "location": "Evionnaz"}, "Tour du Chablais #1 Montreux": {"race": "Tour du Chablais #1 Montreux", "longitude": 6.9916269, "latitude": 46.2957462, "date": {"mer. 11.04.2012": {"weekday": "wednesday", "year": 2012, "categories": {"M-M20": {"pace": 283000000000, "rank": 108, "distance": 8, "time": 2152.9}}, "day": 11, "month": 4, "livingplace": "Ollon"}}, "location": "Ollon VD"}, "Tour du Chablais #3 Le Bouveret": {"race": "Tour du Chablais #3 Le Bouveret", "longitude": 7.0223787, "latitude": 46.1782231, "date": {"mer. 11.05.2011": {"weekday": "wednesday", "year": 2011, "categories": {"M-M20": {"pace": 262000000000, "rank": 111, "distance": 10, "time": 2623.4}}, "day": 11, "month": 5, "livingplace": "Ollon"}}, "location": "Evionnaz"}, "Tour du Chablais #2 St-Gingolph": {"race": "Tour du Chablais #2 St-Gingolph", "longitude": 6.854975199999999, "latitude": 46.3835529, "date": {"mer. 14.04.2010": {"weekday": "wednesday", "year": 2010, "categories": {"M-M20": {"pace": 274000000000, "rank": 65, "distance": 8, "time": 2288.4}}, "day": 14, "month": 4, "livingplace": "Ollon"}}, "location": "Bouveret"}, "Tour du Chablais #2 Rennaz": {"race": "Tour du Chablais #2 Rennaz", "longitude": 6.854975199999999, "latitude": 46.3835529, "date": {"mer. 04.05.2011": {"weekday": "wednesday", "year": 2011, "categories": {"M-M20": {"pace": 255000000000, "rank": 84, "distance": 9, "time": 2386.0}}, "day": 4, "month": 5, "livingplace": "Ollon"}}, "location": "Bouveret"}}, "name": "Maillard S\u00e9bastien", "birth": 1977}