{"sex": "M", "races": {"Aletsch-Halbmarathon, Bettmeralp": {"race": "Aletsch-Halbmarathon, Bettmeralp", "date": {"dim. 29.06.2008": {"weekday": "sunday", "year": 2008, "categories": {"M30": {"pace": 309000000000, "rank": 6, "distance": 21, "time": 6489.0}}, "day": 29, "month": 6, "livingplace": "Francois sport"}}, "location": "Bettmeralp"}, "Tour du Pays de Vaud etape 3 - Aubonne": {"race": "Tour du Pays de Vaud etape 3 - Aubonne", "longitude": 6.5728678, "latitude": 46.7829756, "date": {"mer. 29.08.2007": {"weekday": "wednesday", "year": 2007, "categories": {"HS1": {"pace": 215000000000, "rank": 2, "distance": 8, "time": 1748.5}}, "day": 29, "month": 8, "livingplace": "Cham"}}, "location": "Champvent"}, "Z\u00fcrich Marathon, Teamrun und Cityrun": {"race": "Z\u00fcrich Marathon, Teamrun und Cityrun", "longitude": 8.541694, "latitude": 47.3768866, "date": {"dim. 17.04.2011": {"weekday": "sunday", "year": 2011, "categories": {"42-M40": {"pace": 235000000000, "rank": 15, "distance": 42, "time": 9944.7}}, "day": 17, "month": 4, "livingplace": "Noreaz"}}, "location": "Z\u00fcrich"}, "Zermatt Marathon, Zermatt": {"race": "Zermatt Marathon, Zermatt", "date": {"sam. 05.07.2014": {"weekday": "saturday", "year": 2014, "categories": {"M-M45": {"pace": 344000000000, "rank": 6, "distance": 42, "time": 14541.9}}, "day": 5, "month": 7, "livingplace": "Epalinges"}}, "location": "Zermatt"}, "A travers Carouge - Run to Run": {"race": "A travers Carouge - Run to Run", "longitude": 6.1378539, "latitude": 46.1829674, "date": {"sam. 29.09.2007": {"weekday": "saturday", "year": 2007, "categories": {"HI/10": {"pace": 207000000000, "rank": 13, "distance": 10, "time": 2078.9}}, "day": 29, "month": 9, "livingplace": "Cham"}}, "location": "Carouge GE"}, "D\u00e9fi Val-de-Travers, Couvet": {"race": "D\u00e9fi Val-de-Travers, Couvet", "longitude": 6.6324944, "latitude": 46.9262933, "date": {"sam. 21.06.2008": {"weekday": "saturday", "year": 2008, "categories": {"EHS1": {"pace": 257000000000, "rank": 1, "distance": 12, "time": 3144.6}}, "day": 21, "month": 6, "livingplace": "Cham"}}, "location": "Couvet"}, "Kerzerslauf": {"race": "Kerzerslauf", "longitude": 7.1954365, "latitude": 46.97488999999999, "date": {"sam. 19.03.2011": {"weekday": "saturday", "year": 2011, "categories": {"15-M40": {"pace": 219000000000, "rank": 7, "distance": 15, "time": 3287.3}}, "day": 19, "month": 3, "livingplace": "Cheseaux Noreaz"}}, "location": "Kerzers"}, "Course de l'Avent, Yverdon": {"race": "Course de l'Avent, Yverdon", "longitude": 7.161971899999999, "latitude": 46.8064773, "date": {"dim. 28.11.2010": {"weekday": "sunday", "year": 2010, "categories": {"E-H43": {"pace": 209000000000, "rank": 3, "distance": 8, "time": 1623.2}}, "day": 28, "month": 11, "livingplace": "Cham"}}, "location": "Fribourg"}, "Morat-Fribourg": {"race": "Morat-Fribourg", "longitude": 7.120184, "latitude": 46.92922110000001, "date": {"sam. 06.10.2007": {"weekday": "saturday", "year": 2007, "categories": {"C/M20": {"pace": 220000000000, "rank": 9, "distance": 17, "time": 3784.5}}, "day": 6, "month": 10, "livingplace": "Cham"}}, "location": "Murten"}, "20km de Lausanne": {"race": "20km de Lausanne", "longitude": 6.6322734, "latitude": 46.5196535, "date": {"sam. 25.04.2009": {"weekday": "saturday", "year": 2009, "categories": {"10-H40": {"pace": 212000000000, "rank": 2, "distance": 10, "time": 2122.4}}, "day": 25, "month": 4, "livingplace": "Francois Sport"}}, "location": "Lausanne"}}, "name": "Maillefer Jo\u00ebl", "birth": 1969}