{"sex": "F", "races": {"Tour du Chablais #1 Montreux": {"race": "Tour du Chablais #1 Montreux", "longitude": 6.9916269, "latitude": 46.2957462, "date": {"mer. 11.04.2012": {"weekday": "wednesday", "year": 2012, "categories": {"F-F20": {"pace": 358000000000, "rank": 100, "distance": 8, "time": 2727.1}}, "day": 11, "month": 4, "livingplace": "Chatel"}}, "location": "Ollon VD"}, "Tour du Chablais #2 Yvorne": {"race": "Tour du Chablais #2 Yvorne", "longitude": 6.854975199999999, "latitude": 46.3835529, "date": {"mer. 10.04.2013": {"weekday": "wednesday", "year": 2013, "categories": {"F-F20": {"pace": 363000000000, "rank": 87, "distance": 8, "time": 2904.1}}, "day": 10, "month": 4, "livingplace": "Chatel"}}, "location": "Bouveret"}, "Tour du Chablais #4 Champ\u00e9ry": {"race": "Tour du Chablais #4 Champ\u00e9ry", "date": {"mer. 02.05.2012": {"weekday": "wednesday", "year": 2012, "categories": {"F-F20": {"pace": 375000000000, "rank": 113, "distance": 8, "time": 3118.0}}, "day": 2, "month": 5, "livingplace": "Chatel"}}, "location": "Les Mosses"}, "Tour du Chablais #6 Montreux": {"race": "Tour du Chablais #6 Montreux", "longitude": 6.970566, "latitude": 46.3190253, "date": {"mer. 16.05.2012": {"weekday": "wednesday", "year": 2012, "categories": {"F-F20": {"pace": 314000000000, "rank": 69, "distance": 9, "time": 2912.5}}, "day": 16, "month": 5, "livingplace": "Chatel"}}, "location": "Aigle"}, "Tour du Chablais #2 Bex": {"race": "Tour du Chablais #2 Bex", "longitude": 6.854975199999999, "latitude": 46.3835529, "date": {"mer. 18.04.2012": {"weekday": "wednesday", "year": 2012, "categories": {"F-F20": {"pace": 343000000000, "rank": 101, "distance": 8, "time": 2746.2}}, "day": 18, "month": 4, "livingplace": "Chatel"}}, "location": "Bouveret"}, "Tour du Chablais #5 Bex": {"race": "Tour du Chablais #5 Bex", "longitude": 6.931504599999999, "latitude": 46.3603257, "date": {"mer. 09.05.2012": {"weekday": "wednesday", "year": 2012, "categories": {"F-F20": {"pace": 322000000000, "rank": 69, "distance": 9, "time": 2858.5}}, "day": 9, "month": 5, "livingplace": "Chatel"}}, "location": "Roche VD"}, "Morat-Fribourg": {"race": "Morat-Fribourg", "longitude": 7.120184, "latitude": 46.92922110000001, "date": {"sam. 06.10.2012": {"weekday": "saturday", "year": 2012, "categories": {"17-W20": {"pace": 380000000000, "rank": 447, "distance": 17, "time": 6647.6}}, "day": 6, "month": 10, "livingplace": "Chatel"}}, "location": "Murten"}, "Tour du Chablais #3 Collombey-Muraz": {"race": "Tour du Chablais #3 Collombey-Muraz", "longitude": 7.0223787, "latitude": 46.1782231, "date": {"mer. 25.04.2012": {"weekday": "wednesday", "year": 2012, "categories": {"F-F20": {"pace": 344000000000, "rank": 93, "distance": 9, "time": 3094.5}}, "day": 25, "month": 4, "livingplace": "Chatel"}}, "location": "Evionnaz"}}, "name": "Marchand Laura", "birth": 1987}