{"sex": "M", "races": {"Course de l'Escalade, Gen\u00e8ve": {"race": "Course de l'Escalade, Gen\u00e8ve", "longitude": 6.1431577, "latitude": 46.2043907, "date": {"sam. 06.12.2003": {"weekday": "saturday", "year": 2003, "categories": {"Hommes5": {"pace": 283000000000, "rank": 66, "distance": 7, "time": 2054.0}}, "day": 6, "month": 12, "livingplace": "Villeret"}}, "location": "Gen\u00e8ve"}, "BCN Tour Les Ponts de Martel": {"race": "BCN Tour Les Ponts de Martel", "longitude": 6.6324944, "latitude": 46.9262933, "date": {"mer. 18.05.2011": {"weekday": "wednesday", "year": 2011, "categories": {"HV2": {"pace": 363000000000, "rank": 20, "distance": 13, "time": 4652.1}}, "day": 18, "month": 5, "livingplace": "Villeret"}}, "location": "Couvet"}, "BCN Tour La Chaux-de-Fonds": {"race": "BCN Tour La Chaux-de-Fonds", "longitude": 6.832783800000001, "latitude": 47.1034892, "date": {"mer. 11.05.2011": {"weekday": "wednesday", "year": 2011, "categories": {"HV2": {"pace": 447000000000, "rank": 32, "distance": 11, "time": 4788.1}}, "day": 11, "month": 5, "livingplace": "Villeret"}}, "location": "La Chaux-de-Fonds"}, "BCN Tour Auvernier": {"race": "BCN Tour Auvernier", "longitude": 6.8589727, "latitude": 46.9668714, "date": {"mer. 20.04.2011": {"weekday": "wednesday", "year": 2011, "categories": {"HV2": {"pace": 377000000000, "rank": 25, "distance": 11, "time": 4072.4}}, "day": 20, "month": 4, "livingplace": "Villeret"}}, "location": "Colombier NE"}, "La Trotteuse-Tissot, La Chaux-de-Fonds": {"race": "La Trotteuse-Tissot, La Chaux-de-Fonds", "longitude": 6.832783800000001, "latitude": 47.1034892, "date": {"sam. 12.12.2015": {"weekday": "saturday", "year": 2015, "categories": {"GC-H60": {"pace": 423000000000, "rank": 32, "distance": 8, "time": 3389.8}}, "day": 12, "month": 12, "livingplace": "Villeret"}, "sam. 17.12.2011": {"weekday": "saturday", "year": 2011, "categories": {"GC-H60": {"pace": 351000000000, "rank": 28, "distance": 8, "time": 2809.5}}, "day": 17, "month": 12, "livingplace": "Villeret"}, "sam. 14.12.2013": {"weekday": "saturday", "year": 2013, "categories": {"GC-H60": {"pace": 371000000000, "rank": 22, "distance": 8, "time": 2975.2}}, "day": 14, "month": 12, "livingplace": "Villeret"}, "sam. 18.12.2010": {"weekday": "saturday", "year": 2010, "categories": {"GC-H60": {"pace": 348000000000, "rank": 23, "distance": 8, "time": 2790.3}}, "day": 18, "month": 12, "livingplace": "Villeret"}}, "location": "La Chaux-de-Fonds"}, "BCN Tour #3 Dombresson": {"race": "BCN Tour #3 Dombresson", "longitude": 6.733554799999999, "latitude": 46.999113, "date": {"mer. 08.05.2013": {"weekday": "wednesday", "year": 2013, "categories": {"HV2": {"pace": 363000000000, "rank": 35, "distance": 10, "time": 3598.5}}, "day": 8, "month": 5, "livingplace": "Villeret"}}, "location": "Les Ponts-de-Martel"}, "BCN Tour Ponts-de-Martel": {"race": "BCN Tour Ponts-de-Martel", "longitude": 6.9175754, "latitude": 47.0624261, "date": {"mer. 28.04.2010": {"weekday": "wednesday", "year": 2010, "categories": {"HV2": {"pace": 433000000000, "rank": 35, "distance": 11, "time": 4852.7}}, "day": 28, "month": 4, "livingplace": "Villeret"}}, "location": "Ch\u00e9zard-St-Martin"}, "BCN Tour Boudry": {"race": "BCN Tour Boudry", "longitude": 6.8589727, "latitude": 46.9668714, "date": {"mer. 26.04.2006": {"weekday": "wednesday", "year": 2006, "categories": {"HV2": {"pace": 322000000000, "rank": 14, "distance": 10, "time": 3292.2}}, "day": 26, "month": 4, "livingplace": "Villeret"}}, "location": "Colombier NE"}, "BCN Tour Fontaine Cernier": {"race": "BCN Tour Fontaine Cernier", "longitude": 6.9175754, "latitude": 47.0624261, "date": {"mer. 27.04.2011": {"weekday": "wednesday", "year": 2011, "categories": {"HV2": {"pace": 337000000000, "rank": 24, "distance": 10, "time": 3472.2}}, "day": 27, "month": 4, "livingplace": "Villeret"}}, "location": "Ch\u00e9zard-St-Martin"}, "Kerzerslauf": {"race": "Kerzerslauf", "longitude": 7.1954365, "latitude": 46.97488999999999, "date": {"sam. 15.03.2008": {"weekday": "saturday", "year": 2008, "categories": {"15/M65": {"pace": 311000000000, "rank": 26, "distance": 15, "time": 4673.0}}, "day": 15, "month": 3, "livingplace": "Villeret"}}, "location": "Kerzers"}, "BCN Tour #5 Colombier": {"race": "BCN Tour #5 Colombier", "longitude": 6.6324944, "latitude": 46.9262933, "date": {"mer. 22.05.2013": {"weekday": "wednesday", "year": 2013, "categories": {"HV2": {"pace": 338000000000, "rank": 31, "distance": 11, "time": 3555.5}}, "day": 22, "month": 5, "livingplace": "Villeret"}}, "location": "Couvet"}, "BCN Tour Neuch\u00e2tel": {"race": "BCN Tour Neuch\u00e2tel", "longitude": 6.9292732, "latitude": 46.9899874, "date": {"mer. 25.05.2011": {"weekday": "wednesday", "year": 2011, "categories": {"HV2": {"pace": 373000000000, "rank": 25, "distance": 11, "time": 4263.1}}, "day": 25, "month": 5, "livingplace": "Villeret"}, "mer. 26.05.2010": {"weekday": "wednesday", "year": 2010, "categories": {"HV2": {"pace": 462000000000, "rank": 34, "distance": 10, "time": 4483.8}}, "day": 26, "month": 5, "livingplace": "Villeret"}}, "location": "Neuch\u00e2tel"}, "BCN Tour Le Landeron": {"race": "BCN Tour Le Landeron", "longitude": 6.8589727, "latitude": 46.9668714, "date": {"mer. 22.04.2009": {"weekday": "wednesday", "year": 2009, "categories": {"HV2": {"pace": 354000000000, "rank": 29, "distance": 11, "time": 3935.8}}, "day": 22, "month": 4, "livingplace": "Villeret"}}, "location": "Colombier NE"}, "BCN Tour #6 Neuch\u00e2tel": {"race": "BCN Tour #6 Neuch\u00e2tel", "longitude": 6.9292732, "latitude": 46.9899874, "date": {"mer. 29.05.2013": {"weekday": "wednesday", "year": 2013, "categories": {"HV2": {"pace": 381000000000, "rank": 29, "distance": 11, "time": 4196.5}}, "day": 29, "month": 5, "livingplace": "Villeret"}}, "location": "Neuch\u00e2tel"}, "BCN Tour M\u00f4tier": {"race": "BCN Tour M\u00f4tier", "longitude": 6.6324944, "latitude": 46.9262933, "date": {"mer. 19.05.2010": {"weekday": "wednesday", "year": 2010, "categories": {"HV2": {"pace": 323000000000, "rank": 22, "distance": 10, "time": 3205.7}}, "day": 19, "month": 5, "livingplace": "Villeret"}}, "location": "Couvet"}, "BCN Tour Colombier": {"race": "BCN Tour Colombier", "longitude": 6.8589727, "latitude": 46.9668714, "date": {"mer. 21.04.2010": {"weekday": "wednesday", "year": 2010, "categories": {"HV2": {"pace": 395000000000, "rank": 32, "distance": 10, "time": 3957.8}}, "day": 21, "month": 4, "livingplace": "Villeret"}, "mer. 16.05.2012": {"weekday": "wednesday", "year": 2012, "categories": {"HV2": {"pace": 362000000000, "rank": 31, "distance": 11, "time": 3915.4}}, "day": 16, "month": 5, "livingplace": "Villeret"}, "mer. 23.04.2008": {"weekday": "wednesday", "year": 2008, "categories": {"HV2": {"pace": 329000000000, "rank": 14, "distance": 10, "time": 3360.8}}, "day": 23, "month": 4, "livingplace": "Villeret"}}, "location": "Colombier NE"}, "BCN Tour La Chaux-de-fonds": {"race": "BCN Tour La Chaux-de-fonds", "longitude": 6.832783800000001, "latitude": 47.1034892, "date": {"mer. 12.05.2010": {"weekday": "wednesday", "year": 2010, "categories": {"HV2": {"pace": 439000000000, "rank": 29, "distance": 11, "time": 4697.7}}, "day": 12, "month": 5, "livingplace": "Villeret"}}, "location": "La Chaux-de-Fonds"}, "BCN Tour La Br\u00e9vine": {"race": "BCN Tour La Br\u00e9vine", "longitude": 6.733554799999999, "latitude": 46.999113, "date": {"mer. 04.05.2011": {"weekday": "wednesday", "year": 2011, "categories": {"HV2": {"pace": 366000000000, "rank": 27, "distance": 10, "time": 3665.9}}, "day": 4, "month": 5, "livingplace": "Villeret"}}, "location": "Les Ponts-de-Martel"}, "BCN Tour Le Locle": {"race": "BCN Tour Le Locle", "longitude": 6.733554799999999, "latitude": 46.999113, "date": {"mer. 05.05.2010": {"weekday": "wednesday", "year": 2010, "categories": {"HV2": {"pace": 354000000000, "rank": 25, "distance": 11, "time": 3858.7}}, "day": 5, "month": 5, "livingplace": "Villeret"}}, "location": "Les Ponts-de-Martel"}, "Maratona Ticino, Tenero": {"race": "Maratona Ticino, Tenero", "date": {"dim. 08.11.2009": {"weekday": "sunday", "year": 2009, "categories": {"M-M60": {"pace": 367000000000, "rank": 8, "distance": 42, "time": 15497.7}}, "day": 8, "month": 11, "livingplace": "Villeret"}}, "location": "Tenero"}}, "name": "Marchand Jimmy", "birth": 1939}