{"sex": "M", "races": {"Tour du Chablais #1 Montreux": {"race": "Tour du Chablais #1 Montreux", "longitude": 6.9916269, "latitude": 46.2957462, "date": {"mer. 11.04.2012": {"weekday": "wednesday", "year": 2012, "categories": {"M-M40": {"pace": 315000000000, "rank": 128, "distance": 8, "time": 2398.7}}, "day": 11, "month": 4, "livingplace": "Troistorrents"}}, "location": "Ollon VD"}, "Tour du Chablais #2 Yvorne": {"race": "Tour du Chablais #2 Yvorne", "longitude": 6.854975199999999, "latitude": 46.3835529, "date": {"mer. 10.04.2013": {"weekday": "wednesday", "year": 2013, "categories": {"M-M40": {"pace": 332000000000, "rank": 104, "distance": 8, "time": 2660.4}}, "day": 10, "month": 4, "livingplace": "Troistorrents"}}, "location": "Bouveret"}, "Tour du Chablais #6 Monthey": {"race": "Tour du Chablais #6 Monthey", "longitude": 6.970566, "latitude": 46.3190253, "date": {"mer. 08.05.2013": {"weekday": "wednesday", "year": 2013, "categories": {"M-M40": {"pace": 303000000000, "rank": 114, "distance": 9, "time": 2830.3}}, "day": 8, "month": 5, "livingplace": "Troistorrents"}}, "location": "Aigle"}, "Tour du Chablais #2 Bex": {"race": "Tour du Chablais #2 Bex", "longitude": 6.854975199999999, "latitude": 46.3835529, "date": {"mer. 18.04.2012": {"weekday": "wednesday", "year": 2012, "categories": {"M-M40": {"pace": 297000000000, "rank": 112, "distance": 8, "time": 2382.8}}, "day": 18, "month": 4, "livingplace": "Troistorrents"}}, "location": "Bouveret"}, "Tour du Chablais #3 Bouveret": {"race": "Tour du Chablais #3 Bouveret", "longitude": 7.0223787, "latitude": 46.1782231, "date": {"mer. 17.04.2013": {"weekday": "wednesday", "year": 2013, "categories": {"M-M40": {"pace": 297000000000, "rank": 107, "distance": 10, "time": 2978.2}}, "day": 17, "month": 4, "livingplace": "Troistorrents"}}, "location": "Evionnaz"}, "Tour du Chablais #1 Roche": {"race": "Tour du Chablais #1 Roche", "longitude": 6.9916269, "latitude": 46.2957462, "date": {"mer. 03.04.2013": {"weekday": "wednesday", "year": 2013, "categories": {"M-M40": {"pace": 309000000000, "rank": 117, "distance": 9, "time": 2741.0}}, "day": 3, "month": 4, "livingplace": "Troistorrents"}}, "location": "Ollon VD"}, "Tour du Chablais #3 Collombey-Muraz": {"race": "Tour du Chablais #3 Collombey-Muraz", "longitude": 7.0223787, "latitude": 46.1782231, "date": {"mer. 25.04.2012": {"weekday": "wednesday", "year": 2012, "categories": {"M-M40": {"pace": 300000000000, "rank": 108, "distance": 9, "time": 2702.5}}, "day": 25, "month": 4, "livingplace": "Troistorrents"}}, "location": "Evionnaz"}, "Tour du Chablais #6 Montreux": {"race": "Tour du Chablais #6 Montreux", "longitude": 6.970566, "latitude": 46.3190253, "date": {"mer. 16.05.2012": {"weekday": "wednesday", "year": 2012, "categories": {"M-M40": {"pace": 276000000000, "rank": 97, "distance": 9, "time": 2561.2}}, "day": 16, "month": 5, "livingplace": "Troistorrents"}}, "location": "Aigle"}, "Tour du Chablais #6 Aigle": {"race": "Tour du Chablais #6 Aigle", "longitude": 6.970566, "latitude": 46.3190253, "date": {"mer. 01.06.2011": {"weekday": "wednesday", "year": 2011, "categories": {"M-M40": {"pace": 292000000000, "rank": 107, "distance": 10, "time": 2981.3}}, "day": 1, "month": 6, "livingplace": "Troistorrents"}}, "location": "Aigle"}, "Tour du Chablais #4 Morgins": {"race": "Tour du Chablais #4 Morgins", "date": {"mer. 18.05.2011": {"weekday": "wednesday", "year": 2011, "categories": {"M-M40": {"pace": 319000000000, "rank": 116, "distance": 8, "time": 2671.9}}, "day": 18, "month": 5, "livingplace": "Troistorrents"}}, "location": "Les Mosses"}, "Tour du Chablais #4 Champ\u00e9ry": {"race": "Tour du Chablais #4 Champ\u00e9ry", "date": {"mer. 02.05.2012": {"weekday": "wednesday", "year": 2012, "categories": {"M-M40": {"pace": 305000000000, "rank": 112, "distance": 8, "time": 2538.5}}, "day": 2, "month": 5, "livingplace": "Troistorrents"}}, "location": "Les Mosses"}, "Tour du Chablais #5 Les Mosses": {"race": "Tour du Chablais #5 Les Mosses", "longitude": 6.931504599999999, "latitude": 46.3603257, "date": {"mer. 25.05.2011": {"weekday": "wednesday", "year": 2011, "categories": {"M-M40": {"pace": 332000000000, "rank": 106, "distance": 8, "time": 2658.9}}, "day": 25, "month": 5, "livingplace": "Troistorrents"}}, "location": "Roche VD"}, "Tour du Chablais #1 Lavey": {"race": "Tour du Chablais #1 Lavey", "longitude": 6.9916269, "latitude": 46.2957462, "date": {"mer. 27.04.2011": {"weekday": "wednesday", "year": 2011, "categories": {"M-M40": {"pace": 312000000000, "rank": 131, "distance": 9, "time": 2812.1}}, "day": 27, "month": 4, "livingplace": "Troistorrents"}}, "location": "Ollon VD"}, "Tour du Chablais #5 Bex": {"race": "Tour du Chablais #5 Bex", "longitude": 6.931504599999999, "latitude": 46.3603257, "date": {"mer. 09.05.2012": {"weekday": "wednesday", "year": 2012, "categories": {"M-M40": {"pace": 285000000000, "rank": 86, "distance": 9, "time": 2529.3}}, "day": 9, "month": 5, "livingplace": "Troistorrents"}}, "location": "Roche VD"}, "Tour du Chablais #4 St  Maurice": {"race": "Tour du Chablais #4 St  Maurice", "date": {"mer. 24.04.2013": {"weekday": "wednesday", "year": 2013, "categories": {"M-M40": {"pace": 306000000000, "rank": 111, "distance": 10, "time": 3068.0}}, "day": 24, "month": 4, "livingplace": "Troistorrents"}}, "location": "Les Mosses"}, "Tour du Chablais #2 Rennaz": {"race": "Tour du Chablais #2 Rennaz", "longitude": 6.854975199999999, "latitude": 46.3835529, "date": {"mer. 04.05.2011": {"weekday": "wednesday", "year": 2011, "categories": {"M-M40": {"pace": 291000000000, "rank": 118, "distance": 9, "time": 2726.0}}, "day": 4, "month": 5, "livingplace": "Troistorrents"}}, "location": "Bouveret"}}, "name": "Marci\u00e9 Cyril", "birth": 1970}