{"sex": "F", "races": {"Tour du Chablais #5 Leysin": {"race": "Tour du Chablais #5 Leysin", "longitude": 6.931504599999999, "latitude": 46.3603257, "date": {"mer. 05.05.2010": {"weekday": "wednesday", "year": 2010, "categories": {"F-F50": {"pace": 436000000000, "rank": 28, "distance": 8, "time": 3689.1}}, "day": 5, "month": 5, "livingplace": "Monthey"}}, "location": "Roche VD"}, "Tour du Chablais #4 Yvorne": {"race": "Tour du Chablais #4 Yvorne", "date": {"mer. 28.04.2010": {"weekday": "wednesday", "year": 2010, "categories": {"F-F50": {"pace": 423000000000, "rank": 37, "distance": 8, "time": 3505.5}}, "day": 28, "month": 4, "livingplace": "Monthey"}}, "location": "Les Mosses"}, "Tour du Chablais #3 Bex": {"race": "Tour du Chablais #3 Bex", "longitude": 7.0223787, "latitude": 46.1782231, "date": {"mer. 21.04.2010": {"weekday": "wednesday", "year": 2010, "categories": {"F-F50": {"pace": 399000000000, "rank": 34, "distance": 10, "time": 3995.0}}, "day": 21, "month": 4, "livingplace": "Monthey"}}, "location": "Evionnaz"}, "Tour du Chablais #1 Roche": {"race": "Tour du Chablais #1 Roche", "longitude": 6.9916269, "latitude": 46.2957462, "date": {"mer. 07.04.2010": {"weekday": "wednesday", "year": 2010, "categories": {"F-F50": {"pace": 389000000000, "rank": 38, "distance": 9, "time": 3490.2}}, "day": 7, "month": 4, "livingplace": "Monthey"}}, "location": "Ollon VD"}, "Tour du Chablais #2 St-Gingolph": {"race": "Tour du Chablais #2 St-Gingolph", "longitude": 6.854975199999999, "latitude": 46.3835529, "date": {"mer. 14.04.2010": {"weekday": "wednesday", "year": 2010, "categories": {"F-F50": {"pace": 424000000000, "rank": 34, "distance": 8, "time": 3547.2}}, "day": 14, "month": 4, "livingplace": "Monthey"}}, "location": "Bouveret"}, "Morat-Fribourg": {"race": "Morat-Fribourg", "longitude": 7.120184, "latitude": 46.92922110000001, "date": {"dim. 07.10.2001": {"weekday": "sunday", "year": 2001, "categories": {"W40": {"pace": 404000000000, "rank": 171, "distance": 17, "time": 6940.6}}, "day": 7, "month": 10, "livingplace": "Bex"}, "sam. 03.10.2009": {"weekday": "saturday", "year": 2009, "categories": {"C-W50": {"pace": 417000000000, "rank": 132, "distance": 17, "time": 7161.1}}, "day": 3, "month": 10, "livingplace": "Monthey"}, "dim. 06.10.2002": {"weekday": "sunday", "year": 2002, "categories": {"W45": {"pace": 398000000000, "rank": 127, "distance": 17, "time": 6839.9}}, "day": 6, "month": 10, "livingplace": "Bex"}}, "location": "Murten"}, "Tour du Chablais #6 Mouthey": {"race": "Tour du Chablais #6 Mouthey", "longitude": 6.970566, "latitude": 46.3190253, "date": {"mer. 12.05.2010": {"weekday": "wednesday", "year": 2010, "categories": {"F-F50": {"pace": 381000000000, "rank": 34, "distance": 9, "time": 3512.4}}, "day": 12, "month": 5, "livingplace": "Monthey"}}, "location": "Aigle"}}, "name": "Maregrande Andrea", "birth": 1957}