{"sex": "F", "races": {"Tour du Chablais #6 Montreux": {"race": "Tour du Chablais #6 Montreux", "longitude": 6.970566, "latitude": 46.3190253, "date": {"mer. 16.05.2012": {"weekday": "wednesday", "year": 2012, "categories": {"F-F50": {"pace": 326000000000, "rank": 18, "distance": 9, "time": 3020.8}}, "day": 16, "month": 5, "livingplace": "Saxon"}}, "location": "Aigle"}, "Tour du Chablais #4 Champ\u00e9ry": {"race": "Tour du Chablais #4 Champ\u00e9ry", "date": {"mer. 02.05.2012": {"weekday": "wednesday", "year": 2012, "categories": {"F-F50": {"pace": 342000000000, "rank": 22, "distance": 8, "time": 2841.2}}, "day": 2, "month": 5, "livingplace": "Saxon"}}, "location": "Les Mosses"}, "Tour du Chablais #6 Monthey": {"race": "Tour du Chablais #6 Monthey", "longitude": 6.970566, "latitude": 46.3190253, "date": {"mer. 08.05.2013": {"weekday": "wednesday", "year": 2013, "categories": {"F-F50": {"pace": 336000000000, "rank": 24, "distance": 9, "time": 3139.2}}, "day": 8, "month": 5, "livingplace": "Saxon"}}, "location": "Aigle"}, "Tour du Chablais #2 Yvorne": {"race": "Tour du Chablais #2 Yvorne", "longitude": 6.854975199999999, "latitude": 46.3835529, "date": {"mer. 10.04.2013": {"weekday": "wednesday", "year": 2013, "categories": {"F-F50": {"pace": 385000000000, "rank": 24, "distance": 8, "time": 3086.8}}, "day": 10, "month": 4, "livingplace": "Saxon"}}, "location": "Bouveret"}, "Tour du Chablais #2 Bex": {"race": "Tour du Chablais #2 Bex", "longitude": 6.854975199999999, "latitude": 46.3835529, "date": {"mer. 18.04.2012": {"weekday": "wednesday", "year": 2012, "categories": {"F-F50": {"pace": 341000000000, "rank": 21, "distance": 8, "time": 2732.4}}, "day": 18, "month": 4, "livingplace": "Saxon"}}, "location": "Bouveret"}, "Tour du Chablais #3 Bouveret": {"race": "Tour du Chablais #3 Bouveret", "longitude": 7.0223787, "latitude": 46.1782231, "date": {"mer. 17.04.2013": {"weekday": "wednesday", "year": 2013, "categories": {"F-F50": {"pace": 346000000000, "rank": 22, "distance": 10, "time": 3463.1}}, "day": 17, "month": 4, "livingplace": "Saxon"}}, "location": "Evionnaz"}, "Tour du Chablais #1 Roche": {"race": "Tour du Chablais #1 Roche", "longitude": 6.9916269, "latitude": 46.2957462, "date": {"mer. 03.04.2013": {"weekday": "wednesday", "year": 2013, "categories": {"F-F50": {"pace": 341000000000, "rank": 22, "distance": 9, "time": 3022.9}}, "day": 3, "month": 4, "livingplace": "Saxon"}}, "location": "Ollon VD"}, "Kerzerslauf": {"race": "Kerzerslauf", "longitude": 7.1954365, "latitude": 46.97488999999999, "date": {"sam. 15.03.2014": {"weekday": "saturday", "year": 2014, "categories": {"15-F50": {"pace": 379000000000, "rank": 161, "distance": 15, "time": 5687.0}}, "day": 15, "month": 3, "livingplace": "Saxon"}}, "location": "Kerzers"}, "Morat-Fribourg": {"race": "Morat-Fribourg", "longitude": 7.120184, "latitude": 46.92922110000001, "date": {"dim. 05.10.2003": {"weekday": "sunday", "year": 2003, "categories": {"W40": {"pace": 333000000000, "rank": 95, "distance": 17, "time": 5730.4}}, "day": 5, "month": 10, "livingplace": "Saxon"}, "sam. 05.10.2013": {"weekday": "saturday", "year": 2013, "categories": {"17-W50": {"pace": 368000000000, "rank": 116, "distance": 17, "time": 6438.0}}, "day": 5, "month": 10, "livingplace": "Saxon"}, "sam. 04.10.2008": {"weekday": "saturday", "year": 2008, "categories": {"C-W45": {"pace": 347000000000, "rank": 127, "distance": 17, "time": 5961.4}}, "day": 4, "month": 10, "livingplace": "Saxon"}, "dim. 07.10.2001": {"weekday": "sunday", "year": 2001, "categories": {"W40": {"pace": 339000000000, "rank": 84, "distance": 17, "time": 5827.5}}, "day": 7, "month": 10, "livingplace": "Saxon"}, "dim. 06.10.2002": {"weekday": "sunday", "year": 2002, "categories": {"W40": {"pace": 337000000000, "rank": 92, "distance": 17, "time": 5791.8}}, "day": 6, "month": 10, "livingplace": "Saxon"}, "sam. 01.10.2011": {"weekday": "saturday", "year": 2011, "categories": {"17-W50": {"pace": 375000000000, "rank": 92, "distance": 17, "time": 6454.4}}, "day": 1, "month": 10, "livingplace": "Saxon"}}, "location": "Murten"}, "Schweizer Frauenlauf Bern": {"race": "Schweizer Frauenlauf Bern", "longitude": 7.4474468, "latitude": 46.9479739, "date": {"dim. 09.06.2013": {"weekday": "sunday", "year": 2013, "categories": {"10-W50": {"pace": 347000000000, "rank": 170, "distance": 10, "time": 3470.9}}, "day": 9, "month": 6, "livingplace": "Saxon"}}, "location": "Bern"}, "Tour du Chablais #1 Lavey": {"race": "Tour du Chablais #1 Lavey", "longitude": 6.9916269, "latitude": 46.2957462, "date": {"mer. 27.04.2011": {"weekday": "wednesday", "year": 2011, "categories": {"F-F50": {"pace": 327000000000, "rank": 11, "distance": 9, "time": 2946.6}}, "day": 27, "month": 4, "livingplace": "Saxon"}}, "location": "Ollon VD"}, "Tour du Chablais #5 Bex": {"race": "Tour du Chablais #5 Bex", "longitude": 6.931504599999999, "latitude": 46.3603257, "date": {"mer. 09.05.2012": {"weekday": "wednesday", "year": 2012, "categories": {"F-F50": {"pace": 329000000000, "rank": 17, "distance": 9, "time": 2915.2}}, "day": 9, "month": 5, "livingplace": "Saxon"}}, "location": "Roche VD"}, "Tour du Chablais #5 Morgins": {"race": "Tour du Chablais #5 Morgins", "longitude": 6.931504599999999, "latitude": 46.3603257, "date": {"mer. 01.05.2013": {"weekday": "wednesday", "year": 2013, "categories": {"F-F50": {"pace": 377000000000, "rank": 33, "distance": 8, "time": 2870.2}}, "day": 1, "month": 5, "livingplace": "Saxon"}}, "location": "Roche VD"}, "Tour du Chablais #1 Montreux": {"race": "Tour du Chablais #1 Montreux", "longitude": 6.9916269, "latitude": 46.2957462, "date": {"mer. 11.04.2012": {"weekday": "wednesday", "year": 2012, "categories": {"F-F50": {"pace": 352000000000, "rank": 18, "distance": 8, "time": 2676.8}}, "day": 11, "month": 4, "livingplace": "Saxon"}}, "location": "Ollon VD"}, "Tour du Chablais #3 Le Bouveret": {"race": "Tour du Chablais #3 Le Bouveret", "longitude": 7.0223787, "latitude": 46.1782231, "date": {"mer. 11.05.2011": {"weekday": "wednesday", "year": 2011, "categories": {"F-F50": {"pace": 330000000000, "rank": 11, "distance": 10, "time": 3309.9}}, "day": 11, "month": 5, "livingplace": "Saxon"}}, "location": "Evionnaz"}, "Tour du Chablais #3 Collombey-Muraz": {"race": "Tour du Chablais #3 Collombey-Muraz", "longitude": 7.0223787, "latitude": 46.1782231, "date": {"mer. 25.04.2012": {"weekday": "wednesday", "year": 2012, "categories": {"F-F50": {"pace": 321000000000, "rank": 12, "distance": 9, "time": 2884.7}}, "day": 25, "month": 4, "livingplace": "Saxon"}}, "location": "Evionnaz"}, "Tour du Chablais #1 Martigny": {"race": "Tour du Chablais #1 Martigny", "longitude": 6.9916269, "latitude": 46.2957462, "date": {"mer. 23.04.2014": {"weekday": "wednesday", "year": 2014, "categories": {"F-F50": {"pace": 364000000000, "rank": 35, "distance": 9, "time": 3098.1}}, "day": 23, "month": 4, "livingplace": "Saxon"}}, "location": "Ollon VD"}, "Tour du Chablais #4 St  Maurice": {"race": "Tour du Chablais #4 St  Maurice", "date": {"mer. 24.04.2013": {"weekday": "wednesday", "year": 2013, "categories": {"F-F50": {"pace": 345000000000, "rank": 21, "distance": 10, "time": 3459.8}}, "day": 24, "month": 4, "livingplace": "Saxon"}}, "location": "Les Mosses"}}, "name": "Mari\u00e9thod Chantal", "birth": 1960}