{"sex": "M", "races": {"Tour du Chablais #6 Montreux": {"race": "Tour du Chablais #6 Montreux", "longitude": 6.970566, "latitude": 46.3190253, "date": {"mer. 16.05.2012": {"weekday": "wednesday", "year": 2012, "categories": {"M-M40": {"pace": 296000000000, "rank": 132, "distance": 9, "time": 2742.2}}, "day": 16, "month": 5, "livingplace": "Massongex"}}, "location": "Aigle"}, "Tour du Chablais #1 Montreux": {"race": "Tour du Chablais #1 Montreux", "longitude": 6.9916269, "latitude": 46.2957462, "date": {"mer. 11.04.2012": {"weekday": "wednesday", "year": 2012, "categories": {"M-M40": {"pace": 305000000000, "rank": 117, "distance": 8, "time": 2323.1}}, "day": 11, "month": 4, "livingplace": "Massongex"}}, "location": "Ollon VD"}, "Tour du Chablais #6 Monthey": {"race": "Tour du Chablais #6 Monthey", "longitude": 6.970566, "latitude": 46.3190253, "date": {"mer. 08.05.2013": {"weekday": "wednesday", "year": 2013, "categories": {"M-M40": {"pace": 304000000000, "rank": 116, "distance": 9, "time": 2838.4}}, "day": 8, "month": 5, "livingplace": "Massongex"}}, "location": "Aigle"}, "Tour du Chablais #2 Bex": {"race": "Tour du Chablais #2 Bex", "longitude": 6.854975199999999, "latitude": 46.3835529, "date": {"mer. 18.04.2012": {"weekday": "wednesday", "year": 2012, "categories": {"M-M40": {"pace": 293000000000, "rank": 106, "distance": 8, "time": 2350.0}}, "day": 18, "month": 4, "livingplace": "Massongex"}}, "location": "Bouveret"}, "Tour du Chablais #1 Roche": {"race": "Tour du Chablais #1 Roche", "longitude": 6.9916269, "latitude": 46.2957462, "date": {"mer. 03.04.2013": {"weekday": "wednesday", "year": 2013, "categories": {"M-M40": {"pace": 301000000000, "rank": 106, "distance": 9, "time": 2673.5}}, "day": 3, "month": 4, "livingplace": "Massongex"}}, "location": "Ollon VD"}, "Tour du Chablais #1 Martigny": {"race": "Tour du Chablais #1 Martigny", "longitude": 6.9916269, "latitude": 46.2957462, "date": {"mer. 23.04.2014": {"weekday": "wednesday", "year": 2014, "categories": {"M-M40": {"pace": 300000000000, "rank": 99, "distance": 9, "time": 2556.7}}, "day": 23, "month": 4, "livingplace": "Massongex"}}, "location": "Ollon VD"}, "Morat-Fribourg": {"race": "Morat-Fribourg", "longitude": 7.120184, "latitude": 46.92922110000001, "date": {"sam. 06.10.2012": {"weekday": "saturday", "year": 2012, "categories": {"17-M40": {"pace": 341000000000, "rank": 622, "distance": 17, "time": 5960.1}}, "day": 6, "month": 10, "livingplace": "Massongex"}}, "location": "Murten"}, "Tour du Chablais #6 Aigle": {"race": "Tour du Chablais #6 Aigle", "longitude": 6.970566, "latitude": 46.3190253, "date": {"mer. 01.06.2011": {"weekday": "wednesday", "year": 2011, "categories": {"M-M40": {"pace": 306000000000, "rank": 126, "distance": 10, "time": 3129.0}}, "day": 1, "month": 6, "livingplace": "Massongex"}}, "location": "Aigle"}, "Tour du Chablais #4 Morgins": {"race": "Tour du Chablais #4 Morgins", "date": {"mer. 18.05.2011": {"weekday": "wednesday", "year": 2011, "categories": {"M-M40": {"pace": 318000000000, "rank": 112, "distance": 8, "time": 2656.7}}, "day": 18, "month": 5, "livingplace": "Massongex"}}, "location": "Les Mosses"}, "Tour du Chablais #4 Champ\u00e9ry": {"race": "Tour du Chablais #4 Champ\u00e9ry", "date": {"mer. 02.05.2012": {"weekday": "wednesday", "year": 2012, "categories": {"M-M40": {"pace": 300000000000, "rank": 105, "distance": 8, "time": 2495.6}}, "day": 2, "month": 5, "livingplace": "Massongex"}}, "location": "Les Mosses"}, "Tour du Chablais #5 Les Mosses": {"race": "Tour du Chablais #5 Les Mosses", "longitude": 6.931504599999999, "latitude": 46.3603257, "date": {"mer. 25.05.2011": {"weekday": "wednesday", "year": 2011, "categories": {"M-M40": {"pace": 318000000000, "rank": 84, "distance": 8, "time": 2547.9}}, "day": 25, "month": 5, "livingplace": "Massongex"}}, "location": "Roche VD"}, "Tour du Chablais #1 Lavey": {"race": "Tour du Chablais #1 Lavey", "longitude": 6.9916269, "latitude": 46.2957462, "date": {"mer. 27.04.2011": {"weekday": "wednesday", "year": 2011, "categories": {"M-M40": {"pace": 292000000000, "rank": 100, "distance": 9, "time": 2632.1}}, "day": 27, "month": 4, "livingplace": "Massongex"}}, "location": "Ollon VD"}, "Tour du Chablais #5 Bex": {"race": "Tour du Chablais #5 Bex", "longitude": 6.931504599999999, "latitude": 46.3603257, "date": {"mer. 09.05.2012": {"weekday": "wednesday", "year": 2012, "categories": {"M-M40": {"pace": 297000000000, "rank": 101, "distance": 9, "time": 2634.1}}, "day": 9, "month": 5, "livingplace": "Massongex"}}, "location": "Roche VD"}, "Tour du Chablais #3 Le Bouveret": {"race": "Tour du Chablais #3 Le Bouveret", "longitude": 7.0223787, "latitude": 46.1782231, "date": {"mer. 11.05.2011": {"weekday": "wednesday", "year": 2011, "categories": {"M-M40": {"pace": 306000000000, "rank": 133, "distance": 10, "time": 3063.7}}, "day": 11, "month": 5, "livingplace": "Massongex"}}, "location": "Evionnaz"}, "Tour du Chablais #3 Collombey-Muraz": {"race": "Tour du Chablais #3 Collombey-Muraz", "longitude": 7.0223787, "latitude": 46.1782231, "date": {"mer. 25.04.2012": {"weekday": "wednesday", "year": 2012, "categories": {"M-M40": {"pace": 311000000000, "rank": 125, "distance": 9, "time": 2800.5}}, "day": 25, "month": 4, "livingplace": "Massongex"}}, "location": "Evionnaz"}, "Tour du Chablais #4 St  Maurice": {"race": "Tour du Chablais #4 St  Maurice", "date": {"mer. 24.04.2013": {"weekday": "wednesday", "year": 2013, "categories": {"M-M40": {"pace": 305000000000, "rank": 109, "distance": 10, "time": 3057.2}}, "day": 24, "month": 4, "livingplace": "Massongex"}}, "location": "Les Mosses"}, "Tour du Chablais #2 Rennaz": {"race": "Tour du Chablais #2 Rennaz", "longitude": 6.854975199999999, "latitude": 46.3835529, "date": {"mer. 04.05.2011": {"weekday": "wednesday", "year": 2011, "categories": {"M-M40": {"pace": 286000000000, "rank": 111, "distance": 9, "time": 2681.0}}, "day": 4, "month": 5, "livingplace": "Massongex"}}, "location": "Bouveret"}}, "name": "Mariethoz Jacques", "birth": 1969}