{"sex": "M", "races": {"Course de l'Escalade, Gen\u00e8ve": {"race": "Course de l'Escalade, Gen\u00e8ve", "longitude": 6.1431577, "latitude": 46.2043907, "date": {"sam. 07.12.2013": {"weekday": "saturday", "year": 2013, "categories": {"Elite-M": {"pace": 247000000000, "rank": 355, "distance": 7, "time": 1793.4}}, "day": 7, "month": 12, "livingplace": "Muraz Collombey"}}, "location": "Gen\u00e8ve"}, "Corrida Bulloise, Bulle": {"race": "Corrida Bulloise, Bulle", "longitude": 7.057726799999999, "latitude": 46.6154512, "date": {"sam. 16.11.2013": {"weekday": "saturday", "year": 2013, "categories": {"M20": {"pace": 250000000000, "rank": 91, "distance": 8, "time": 2039.2}}, "day": 16, "month": 11, "livingplace": "Muraz Collombey"}}, "location": "Bulle"}, "Tour du Chablais #4 Champ\u00e9ry": {"race": "Tour du Chablais #4 Champ\u00e9ry", "date": {"mer. 02.05.2012": {"weekday": "wednesday", "year": 2012, "categories": {"M-M20": {"pace": 254000000000, "rank": 68, "distance": 8, "time": 2112.4}}, "day": 2, "month": 5, "livingplace": "Muraz Collombey"}}, "location": "Les Mosses"}, "Tour du Chablais #2 Yvorne": {"race": "Tour du Chablais #2 Yvorne", "longitude": 6.854975199999999, "latitude": 46.3835529, "date": {"mer. 10.04.2013": {"weekday": "wednesday", "year": 2013, "categories": {"M-M20": {"pace": 266000000000, "rank": 58, "distance": 8, "time": 2132.7}}, "day": 10, "month": 4, "livingplace": "Muraz Collombey"}}, "location": "Bouveret"}, "Tour du Chablais #4 Yvorne": {"race": "Tour du Chablais #4 Yvorne", "date": {"mer. 28.04.2010": {"weekday": "wednesday", "year": 2010, "categories": {"M-M20": {"pace": 250000000000, "rank": 35, "distance": 8, "time": 2070.5}}, "day": 28, "month": 4, "livingplace": "Muraz Collombey"}}, "location": "Les Mosses"}, "Tour du Chablais #3 Bouveret": {"race": "Tour du Chablais #3 Bouveret", "longitude": 7.0223787, "latitude": 46.1782231, "date": {"mer. 17.04.2013": {"weekday": "wednesday", "year": 2013, "categories": {"M-M20": {"pace": 248000000000, "rank": 57, "distance": 10, "time": 2487.6}}, "day": 17, "month": 4, "livingplace": "Muraz Collombey"}}, "location": "Evionnaz"}, "Tour du Chablais #1 Roche": {"race": "Tour du Chablais #1 Roche", "longitude": 6.9916269, "latitude": 46.2957462, "date": {"mer. 03.04.2013": {"weekday": "wednesday", "year": 2013, "categories": {"M-M20": {"pace": 240000000000, "rank": 48, "distance": 9, "time": 2133.3}}, "day": 3, "month": 4, "livingplace": "Muraz Collombey"}, "mer. 07.04.2010": {"weekday": "wednesday", "year": 2010, "categories": {"M-M20": {"pace": 233000000000, "rank": 37, "distance": 9, "time": 2092.7}}, "day": 7, "month": 4, "livingplace": "Muraz Collombey"}}, "location": "Ollon VD"}, "Tour du Chablais #6 Montreux": {"race": "Tour du Chablais #6 Montreux", "longitude": 6.970566, "latitude": 46.3190253, "date": {"mer. 16.05.2012": {"weekday": "wednesday", "year": 2012, "categories": {"M-M20": {"pace": 245000000000, "rank": 64, "distance": 9, "time": 2270.9}}, "day": 16, "month": 5, "livingplace": "Muraz Collombey"}}, "location": "Aigle"}, "Tour du Chablais #2 Bex": {"race": "Tour du Chablais #2 Bex", "longitude": 6.854975199999999, "latitude": 46.3835529, "date": {"mer. 18.04.2012": {"weekday": "wednesday", "year": 2012, "categories": {"M-M20": {"pace": 258000000000, "rank": 75, "distance": 8, "time": 2067.7}}, "day": 18, "month": 4, "livingplace": "Muraz Collombey"}}, "location": "Bouveret"}, "Morat-Fribourg": {"race": "Morat-Fribourg", "longitude": 7.120184, "latitude": 46.92922110000001, "date": {"dim. 07.10.2001": {"weekday": "sunday", "year": 2001, "categories": {"M20": {"pace": 247000000000, "rank": 241, "distance": 17, "time": 4255.8}}, "day": 7, "month": 10, "livingplace": "Muraz Collombey"}}, "location": "Murten"}, "Tour du Chablais #6 Aigle": {"race": "Tour du Chablais #6 Aigle", "longitude": 6.970566, "latitude": 46.3190253, "date": {"mer. 01.06.2011": {"weekday": "wednesday", "year": 2011, "categories": {"M-M20": {"pace": 238000000000, "rank": 60, "distance": 10, "time": 2428.3}}, "day": 1, "month": 6, "livingplace": "Muraz Collombey"}}, "location": "Aigle"}, "Tour du Chablais #4 Morgins": {"race": "Tour du Chablais #4 Morgins", "date": {"mer. 18.05.2011": {"weekday": "wednesday", "year": 2011, "categories": {"M-M20": {"pace": 265000000000, "rank": 68, "distance": 8, "time": 2217.2}}, "day": 18, "month": 5, "livingplace": "Muraz Collombey"}}, "location": "Les Mosses"}, "Tour du Chablais #2 St-Gingolph": {"race": "Tour du Chablais #2 St-Gingolph", "longitude": 6.854975199999999, "latitude": 46.3835529, "date": {"mer. 14.04.2010": {"weekday": "wednesday", "year": 2010, "categories": {"M-M20": {"pace": 252000000000, "rank": 32, "distance": 8, "time": 2109.3}}, "day": 14, "month": 4, "livingplace": "Muraz Collombey"}}, "location": "Bouveret"}, "Tour du Chablais #5 Les Mosses": {"race": "Tour du Chablais #5 Les Mosses", "longitude": 6.931504599999999, "latitude": 46.3603257, "date": {"mer. 25.05.2011": {"weekday": "wednesday", "year": 2011, "categories": {"M-M20": {"pace": 264000000000, "rank": 62, "distance": 8, "time": 2116.6}}, "day": 25, "month": 5, "livingplace": "Muraz Collombey"}}, "location": "Roche VD"}, "Tour du Chablais #1 Lavey": {"race": "Tour du Chablais #1 Lavey", "longitude": 6.9916269, "latitude": 46.2957462, "date": {"mer. 27.04.2011": {"weekday": "wednesday", "year": 2011, "categories": {"M-M20": {"pace": 248000000000, "rank": 57, "distance": 9, "time": 2236.1}}, "day": 27, "month": 4, "livingplace": "Muraz Collombey"}}, "location": "Ollon VD"}, "Tour du Chablais #5 Bex": {"race": "Tour du Chablais #5 Bex", "longitude": 6.931504599999999, "latitude": 46.3603257, "date": {"mer. 09.05.2012": {"weekday": "wednesday", "year": 2012, "categories": {"M-M20": {"pace": 253000000000, "rank": 67, "distance": 9, "time": 2244.1}}, "day": 9, "month": 5, "livingplace": "Muraz Collombey"}}, "location": "Roche VD"}, "Tour du Chablais #3 Bex": {"race": "Tour du Chablais #3 Bex", "longitude": 7.0223787, "latitude": 46.1782231, "date": {"mer. 21.04.2010": {"weekday": "wednesday", "year": 2010, "categories": {"M-M20": {"pace": 242000000000, "rank": 35, "distance": 10, "time": 2423.3}}, "day": 21, "month": 4, "livingplace": "Muraz Collombey"}}, "location": "Evionnaz"}, "Tour du Chablais #3 Le Bouveret": {"race": "Tour du Chablais #3 Le Bouveret", "longitude": 7.0223787, "latitude": 46.1782231, "date": {"mer. 11.05.2011": {"weekday": "wednesday", "year": 2011, "categories": {"M-M20": {"pace": 245000000000, "rank": 61, "distance": 10, "time": 2453.2}}, "day": 11, "month": 5, "livingplace": "Muraz Collombey"}}, "location": "Evionnaz"}, "Lausanne Marathon": {"race": "Lausanne Marathon", "longitude": 6.6322734, "latitude": 46.5196535, "date": {"sam. 24.10.2015": {"weekday": "saturday", "year": 2015, "categories": {"21-H30": {"pace": 250000000000, "rank": 62, "distance": 21, "time": 5275.0}}, "day": 24, "month": 10, "livingplace": "Muraz Collombey"}, "dim. 28.10.2012": {"weekday": "sunday", "year": 2012, "categories": {"21-H2": {"pace": 254000000000, "rank": 69, "distance": 21, "time": 5367.1}}, "day": 28, "month": 10, "livingplace": "Muraz Collombey"}, "dim. 27.10.2013": {"weekday": "sunday", "year": 2013, "categories": {"21-H2": {"pace": 262000000000, "rank": 95, "distance": 21, "time": 5539.0}}, "day": 27, "month": 10, "livingplace": "Muraz Collombey"}}, "location": "Lausanne"}, "Tour du Chablais #2 Rennaz": {"race": "Tour du Chablais #2 Rennaz", "longitude": 6.854975199999999, "latitude": 46.3835529, "date": {"mer. 04.05.2011": {"weekday": "wednesday", "year": 2011, "categories": {"M-M20": {"pace": 245000000000, "rank": 59, "distance": 9, "time": 2294.5}}, "day": 4, "month": 5, "livingplace": "Muraz Collombey"}}, "location": "Bouveret"}}, "name": "Mariaux Jo\u00ebl", "birth": 1976}