{"sex": "M", "races": {"Corrida Bulloise, Bulle": {"race": "Corrida Bulloise, Bulle", "longitude": 7.057726799999999, "latitude": 46.6154512, "date": {"sam. 16.11.2013": {"weekday": "saturday", "year": 2013, "categories": {"M20": {"pace": 260000000000, "rank": 116, "distance": 8, "time": 2119.6}}, "day": 16, "month": 11, "livingplace": "Posieux"}}, "location": "Bulle"}, "Gurtenclassic, Wabern": {"race": "Gurtenclassic, Wabern", "longitude": 7.448973199999999, "latitude": 46.92901639999999, "date": {"dim. 04.11.2012": {"weekday": "sunday", "year": 2012, "categories": {"15-M33": {"pace": 333000000000, "rank": 45, "distance": 15, "time": 5000.9}}, "day": 4, "month": 11, "livingplace": "Posieux"}, "dim. 06.11.2011": {"weekday": "sunday", "year": 2011, "categories": {"M33": {"pace": 352000000000, "rank": 59, "distance": 15, "time": 5282.9}}, "day": 6, "month": 11, "livingplace": "Posieux"}}, "location": "Wabern"}, "Tour du Chablais #4 Champ\u00e9ry": {"race": "Tour du Chablais #4 Champ\u00e9ry", "date": {"mer. 02.05.2012": {"weekday": "wednesday", "year": 2012, "categories": {"M-M20": {"pace": 263000000000, "rank": 91, "distance": 8, "time": 2189.7}}, "day": 2, "month": 5, "livingplace": "Posieux"}}, "location": "Les Mosses"}, "Tour du Chablais #2 Yvorne": {"race": "Tour du Chablais #2 Yvorne", "longitude": 6.854975199999999, "latitude": 46.3835529, "date": {"mer. 10.04.2013": {"weekday": "wednesday", "year": 2013, "categories": {"M-M20": {"pace": 275000000000, "rank": 75, "distance": 8, "time": 2201.4}}, "day": 10, "month": 4, "livingplace": "Posieux"}}, "location": "Bouveret"}, "Tour du Chablais #6 Monthey": {"race": "Tour du Chablais #6 Monthey", "longitude": 6.970566, "latitude": 46.3190253, "date": {"mer. 08.05.2013": {"weekday": "wednesday", "year": 2013, "categories": {"M-M20": {"pace": 249000000000, "rank": 61, "distance": 9, "time": 2326.6}}, "day": 8, "month": 5, "livingplace": "Posieux"}}, "location": "Aigle"}, "Tour du Chablais #3 Bouveret": {"race": "Tour du Chablais #3 Bouveret", "longitude": 7.0223787, "latitude": 46.1782231, "date": {"mer. 17.04.2013": {"weekday": "wednesday", "year": 2013, "categories": {"M-M20": {"pace": 257000000000, "rank": 77, "distance": 10, "time": 2570.9}}, "day": 17, "month": 4, "livingplace": "Posieux"}}, "location": "Evionnaz"}, "Tour du Chablais #1 Roche": {"race": "Tour du Chablais #1 Roche", "longitude": 6.9916269, "latitude": 46.2957462, "date": {"mer. 03.04.2013": {"weekday": "wednesday", "year": 2013, "categories": {"M-M20": {"pace": 248000000000, "rank": 60, "distance": 9, "time": 2200.6}}, "day": 3, "month": 4, "livingplace": "Posieux"}}, "location": "Ollon VD"}, "Kerzerslauf": {"race": "Kerzerslauf", "longitude": 7.1954365, "latitude": 46.97488999999999, "date": {"sam. 15.03.2014": {"weekday": "saturday", "year": 2014, "categories": {"15-M35": {"pace": 275000000000, "rank": 192, "distance": 15, "time": 4125.0}}, "day": 15, "month": 3, "livingplace": "Posieux"}, "sam. 16.03.2013": {"weekday": "saturday", "year": 2013, "categories": {"15-M35": {"pace": 269000000000, "rank": 136, "distance": 15, "time": 4044.8}}, "day": 16, "month": 3, "livingplace": "Posieux"}}, "location": "Kerzers"}, "Morat-Fribourg": {"race": "Morat-Fribourg", "longitude": 7.120184, "latitude": 46.92922110000001, "date": {"sam. 05.10.2013": {"weekday": "saturday", "year": 2013, "categories": {"17-M20": {"pace": 288000000000, "rank": 900, "distance": 17, "time": 5036.9}}, "day": 5, "month": 10, "livingplace": "Posieux"}, "sam. 04.10.2014": {"weekday": "saturday", "year": 2014, "categories": {"17-M20": {"pace": 327000000000, "rank": 1500, "distance": 17, "time": 5625.6}}, "day": 4, "month": 10, "livingplace": "Posieux"}, "sam. 03.10.2015": {"weekday": "saturday", "year": 2015, "categories": {"17-M20": {"pace": 299000000000, "rank": 933, "distance": 17, "time": 5135.2}}, "day": 3, "month": 10, "livingplace": "Posieux"}, "sam. 04.10.2008": {"weekday": "saturday", "year": 2008, "categories": {"C-M20": {"pace": 272000000000, "rank": 441, "distance": 17, "time": 4678.4}}, "day": 4, "month": 10, "livingplace": "Posieux"}, "sam. 06.10.2012": {"weekday": "saturday", "year": 2012, "categories": {"17-M20": {"pace": 293000000000, "rank": 838, "distance": 17, "time": 5127.0}}, "day": 6, "month": 10, "livingplace": "Posieux"}, "sam. 01.10.2011": {"weekday": "saturday", "year": 2011, "categories": {"17-M20": {"pace": 306000000000, "rank": 1048, "distance": 17, "time": 5270.3}}, "day": 1, "month": 10, "livingplace": "Posieux"}}, "location": "Murten"}, "Tour du Chablais #1 Montreux": {"race": "Tour du Chablais #1 Montreux", "longitude": 6.9916269, "latitude": 46.2957462, "date": {"mer. 11.04.2012": {"weekday": "wednesday", "year": 2012, "categories": {"M-M20": {"pace": 264000000000, "rank": 73, "distance": 8, "time": 2011.7}}, "day": 11, "month": 4, "livingplace": "Posieux"}}, "location": "Ollon VD"}, "Tour du Chablais #5 Les Mosses": {"race": "Tour du Chablais #5 Les Mosses", "longitude": 6.931504599999999, "latitude": 46.3603257, "date": {"mer. 25.05.2011": {"weekday": "wednesday", "year": 2011, "categories": {"M-M20": {"pace": 304000000000, "rank": 137, "distance": 8, "time": 2435.6}}, "day": 25, "month": 5, "livingplace": "Posieux"}}, "location": "Roche VD"}, "Tour du Chablais #1 Lavey": {"race": "Tour du Chablais #1 Lavey", "longitude": 6.9916269, "latitude": 46.2957462, "date": {"mer. 27.04.2011": {"weekday": "wednesday", "year": 2011, "categories": {"M-M20": {"pace": 270000000000, "rank": 115, "distance": 9, "time": 2437.6}}, "day": 27, "month": 4, "livingplace": "Posieux"}}, "location": "Ollon VD"}, "Tour du Chablais #5 Morgins": {"race": "Tour du Chablais #5 Morgins", "longitude": 6.931504599999999, "latitude": 46.3603257, "date": {"mer. 01.05.2013": {"weekday": "wednesday", "year": 2013, "categories": {"M-M20": {"pace": 273000000000, "rank": 80, "distance": 8, "time": 2080.0}}, "day": 1, "month": 5, "livingplace": "Posieux"}}, "location": "Roche VD"}, "Tour du Chablais #3 Le Bouveret": {"race": "Tour du Chablais #3 Le Bouveret", "longitude": 7.0223787, "latitude": 46.1782231, "date": {"mer. 11.05.2011": {"weekday": "wednesday", "year": 2011, "categories": {"M-M20": {"pace": 272000000000, "rank": 141, "distance": 10, "time": 2723.7}}, "day": 11, "month": 5, "livingplace": "Posieux"}}, "location": "Evionnaz"}, "Tour du Chablais #3 Collombey-Muraz": {"race": "Tour du Chablais #3 Collombey-Muraz", "longitude": 7.0223787, "latitude": 46.1782231, "date": {"mer. 25.04.2012": {"weekday": "wednesday", "year": 2012, "categories": {"M-M20": {"pace": 260000000000, "rank": 83, "distance": 9, "time": 2341.5}}, "day": 25, "month": 4, "livingplace": "Posieux"}}, "location": "Evionnaz"}, "Tour du Chablais #4 St  Maurice": {"race": "Tour du Chablais #4 St  Maurice", "date": {"mer. 24.04.2013": {"weekday": "wednesday", "year": 2013, "categories": {"M-M20": {"pace": 254000000000, "rank": 65, "distance": 10, "time": 2546.3}}, "day": 24, "month": 4, "livingplace": "Posieux"}}, "location": "Les Mosses"}, "Tour du Chablais #2 Rennaz": {"race": "Tour du Chablais #2 Rennaz", "longitude": 6.854975199999999, "latitude": 46.3835529, "date": {"mer. 04.05.2011": {"weekday": "wednesday", "year": 2011, "categories": {"M-M20": {"pace": 267000000000, "rank": 118, "distance": 9, "time": 2500.8}}, "day": 4, "month": 5, "livingplace": "Posieux"}}, "location": "Bouveret"}}, "name": "Marolleau Ludovic", "birth": 1976}