{"sex": "M", "races": {"Int Greifenseelauf, Uster": {"race": "Int Greifenseelauf, Uster", "longitude": 8.717873899999999, "latitude": 47.3482747, "date": {"sam. 22.09.2007": {"weekday": "saturday", "year": 2007, "categories": {"H/M30": {"pace": 277000000000, "rank": 127, "distance": 21, "time": 5858.3}}, "day": 22, "month": 9, "livingplace": "Untersiggenthal"}}, "location": "Uster"}, "Glacier 3000 Run, Gstaad": {"race": "Glacier 3000 Run, Gstaad", "longitude": 7.2865728, "latitude": 46.4717588, "date": {"sam. 06.08.2011": {"weekday": "saturday", "year": 2011, "categories": {"M30": {"pace": 560000000000, "rank": 78, "distance": 26, "time": 14562.2}}, "day": 6, "month": 8, "livingplace": "Ewz Power Team"}}, "location": "Gstaad"}, "Badener Limmat-Lauf, Baden": {"race": "Badener Limmat-Lauf, Baden", "longitude": 8.5303972, "latitude": 48.5699281, "date": {"sam. 26.03.2011": {"weekday": "saturday", "year": 2011, "categories": {"M30": {"pace": 263000000000, "rank": 45, "distance": 13, "time": 3476.5}}, "day": 26, "month": 3, "livingplace": "Wettingen"}, "sam. 28.03.2015": {"weekday": "saturday", "year": 2015, "categories": {"M40": {"pace": 255000000000, "rank": 36, "distance": 13, "time": 3367.2}}, "day": 28, "month": 3, "livingplace": "Untersiggenthal"}}, "location": "Baden"}, "IWB Basel Marathon": {"race": "IWB Basel Marathon", "longitude": 7.5885761, "latitude": 47.5595986, "date": {"dim. 22.09.2013": {"weekday": "sunday", "year": 2013, "categories": {"H-21-M30": {"pace": 292000000000, "rank": 98, "distance": 21, "time": 6161.6}}, "day": 22, "month": 9, "livingplace": "Untersiggenthal"}}, "location": "Basel"}, "Hallwilerseelauf, Beinwil am See": {"race": "Hallwilerseelauf, Beinwil am See", "date": {"sam. 11.10.2014": {"weekday": "saturday", "year": 2014, "categories": {"21-M30": {"pace": 305000000000, "rank": 369, "distance": 21, "time": 6439.1}}, "day": 11, "month": 10, "livingplace": "Untersiggenthal"}}, "location": "Beinwil am See"}, "Dietiker Neujahrslauf, Dietikon": {"race": "Dietiker Neujahrslauf, Dietikon", "longitude": 8.39977, "latitude": 47.4053885, "date": {"sam. 10.01.2015": {"weekday": "saturday", "year": 2015, "categories": {"C": {"pace": 278000000000, "rank": 98, "distance": 12, "time": 3365.3}}, "day": 10, "month": 1, "livingplace": "Untersiggenthal"}}, "location": "Dietikon"}, "ASICS Bremgarter Reusslauf": {"race": "ASICS Bremgarter Reusslauf", "longitude": 8.3397905, "latitude": 47.34917739999999, "date": {"sam. 28.02.2015": {"weekday": "saturday", "year": 2015, "categories": {"11-M40": {"pace": 257000000000, "rank": 183, "distance": 11, "time": 2836.9}}, "day": 28, "month": 2, "livingplace": "Baden"}, "sam. 26.02.2011": {"weekday": "saturday", "year": 2011, "categories": {"M30": {"pace": 254000000000, "rank": 160, "distance": 11, "time": 2794.0}}, "day": 26, "month": 2, "livingplace": "Baden"}}, "location": "Bremgarten AG"}, "Z\u00fcrich Marathon, Teamrun und Cityrun": {"race": "Z\u00fcrich Marathon, Teamrun und Cityrun", "longitude": 8.541694, "latitude": 47.3768866, "date": {"dim. 17.04.2011": {"weekday": "sunday", "year": 2011, "categories": {"42-M30": {"pace": 287000000000, "rank": 196, "distance": 42, "time": 12115.0}}, "day": 17, "month": 4, "livingplace": "Wettingen"}, "dim. 11.04.2010": {"weekday": "sunday", "year": 2010, "categories": {"M30": {"pace": 302000000000, "rank": 293, "distance": 42, "time": 12748.5}}, "day": 11, "month": 4, "livingplace": "Wettingen"}}, "location": "Z\u00fcrich"}, "Gippinger Stauseelauf": {"race": "Gippinger Stauseelauf", "longitude": 8.2152586, "latitude": 47.5810513, "date": {"jeu. 31.12.2015": {"weekday": "thursday", "year": 2015, "categories": {"7-M40": {"pace": 236000000000, "rank": 19, "distance": 8, "time": 1778.3}}, "day": 31, "month": 12, "livingplace": "Untersiggenthal"}}, "location": "Leuggern"}, "Z\u00fcrcher Silvesterlauf, Z\u00fcrich": {"race": "Z\u00fcrcher Silvesterlauf, Z\u00fcrich", "longitude": 8.541694, "latitude": 47.3768866, "date": {"dim. 16.12.2012": {"weekday": "sunday", "year": 2012, "categories": {"8-MM30": {"pace": 244000000000, "rank": 140, "distance": 9, "time": 2102.9}}, "day": 16, "month": 12, "livingplace": "Untersiggenthal"}}, "location": "Z\u00fcrich"}, "SwissCityMarathon - Lucerne, Luzern": {"race": "SwissCityMarathon - Lucerne, Luzern", "longitude": 8.3093072, "latitude": 47.05016819999999, "date": {"dim. 25.10.2015": {"weekday": "sunday", "year": 2015, "categories": {"H-M40": {"pace": 252000000000, "rank": 51, "distance": 21, "time": 5333.5}}, "day": 25, "month": 10, "livingplace": "Untersiggenthal"}}, "location": "Luzern"}}, "name": "Marrel David", "birth": 1975}