{"sex": "M", "races": {"Course Titz\u00e9 de no\u00ebl Sion": {"race": "Course Titz\u00e9 de no\u00ebl Sion", "longitude": 7.360625999999999, "latitude": 46.2331221, "date": {"sam. 08.12.2007": {"weekday": "saturday", "year": 2007, "categories": {"EMC": {"pace": 267000000000, "rank": 16, "distance": 1, "time": 267.4}}, "day": 8, "month": 12, "livingplace": "Collombey"}}, "location": "Sion"}, "Tour du Chablais #6 Monthey": {"race": "Tour du Chablais #6 Monthey", "longitude": 6.970566, "latitude": 46.3190253, "date": {"mer. 08.05.2013": {"weekday": "wednesday", "year": 2013, "categories": {"M-EC2": {"pace": 280000000000, "rank": 35, "distance": 3, "time": 882.1}}, "day": 8, "month": 5, "livingplace": "Collombey"}}, "location": "Aigle"}, "Sierre-Zinal, Sierre": {"race": "Sierre-Zinal, Sierre", "longitude": 7.533536199999999, "latitude": 46.29413110000001, "date": {"dim. 12.08.2012": {"weekday": "sunday", "year": 2012, "categories": {"Jun_Homm": {"pace": 425000000000, "rank": 49, "distance": 19, "time": 8082.7}}, "day": 12, "month": 8, "livingplace": "Les Neyres"}, "dim. 11.08.2013": {"weekday": "sunday", "year": 2013, "categories": {"Jun_Homm": {"pace": 486000000000, "rank": 75, "distance": 19, "time": 9245.4}}, "day": 11, "month": 8, "livingplace": "Collombey"}}, "location": "Sierre"}, "Tour du Chablais #1 Roche": {"race": "Tour du Chablais #1 Roche", "longitude": 6.9916269, "latitude": 46.2957462, "date": {"mer. 03.04.2013": {"weekday": "wednesday", "year": 2013, "categories": {"M-EC2": {"pace": 288000000000, "rank": 28, "distance": 3, "time": 895.5}}, "day": 3, "month": 4, "livingplace": "Collombey"}}, "location": "Ollon VD"}, "Tour du Chablais #4 St  Maurice": {"race": "Tour du Chablais #4 St  Maurice", "date": {"mer. 24.04.2013": {"weekday": "wednesday", "year": 2013, "categories": {"M-EC2": {"pace": 276000000000, "rank": 31, "distance": 3, "time": 880.4}}, "day": 24, "month": 4, "livingplace": "Collombey"}}, "location": "Les Mosses"}, "Tour du Chablais #2 Rennaz": {"race": "Tour du Chablais #2 Rennaz", "longitude": 6.854975199999999, "latitude": 46.3835529, "date": {"mer. 04.05.2011": {"weekday": "wednesday", "year": 2011, "categories": {"M-EC3": {"pace": 259000000000, "rank": 28, "distance": 3, "time": 830.4}}, "day": 4, "month": 5, "livingplace": "Les Neyres"}}, "location": "Bouveret"}, "Tour du Chablais #6 Montreux": {"race": "Tour du Chablais #6 Montreux", "longitude": 6.970566, "latitude": 46.3190253, "date": {"mer. 16.05.2012": {"weekday": "wednesday", "year": 2012, "categories": {"M-EC2": {"pace": 249000000000, "rank": 18, "distance": 3, "time": 787.0}}, "day": 16, "month": 5, "livingplace": "Les Neyres"}}, "location": "Aigle"}, "Tour du Chablais #6 Mouthey": {"race": "Tour du Chablais #6 Mouthey", "longitude": 6.970566, "latitude": 46.3190253, "date": {"mer. 12.05.2010": {"weekday": "wednesday", "year": 2010, "categories": {"M-EC3": {"pace": 275000000000, "rank": 36, "distance": 3, "time": 881.0}}, "day": 12, "month": 5, "livingplace": "Collombey"}}, "location": "Aigle"}}, "name": "Masserey Pierre", "birth": 1999}