{"sex": "F", "races": {"Tour du Chablais #6 Montreux": {"race": "Tour du Chablais #6 Montreux", "longitude": 6.970566, "latitude": 46.3190253, "date": {"mer. 16.05.2012": {"weekday": "wednesday", "year": 2012, "categories": {"F-F20": {"pace": 314000000000, "rank": 70, "distance": 9, "time": 2913.1}}, "day": 16, "month": 5, "livingplace": "Martigny"}}, "location": "Aigle"}, "Tour du Chablais #4 Champ\u00e9ry": {"race": "Tour du Chablais #4 Champ\u00e9ry", "date": {"mer. 02.05.2012": {"weekday": "wednesday", "year": 2012, "categories": {"F-F20": {"pace": 334000000000, "rank": 82, "distance": 8, "time": 2778.4}}, "day": 2, "month": 5, "livingplace": "Martigny"}}, "location": "Les Mosses"}, "Tour du Chablais #2 Yvorne": {"race": "Tour du Chablais #2 Yvorne", "longitude": 6.854975199999999, "latitude": 46.3835529, "date": {"mer. 10.04.2013": {"weekday": "wednesday", "year": 2013, "categories": {"F-F20": {"pace": 335000000000, "rank": 52, "distance": 8, "time": 2680.0}}, "day": 10, "month": 4, "livingplace": "Martigny"}}, "location": "Bouveret"}, "Tour du Chablais #6 Monthey": {"race": "Tour du Chablais #6 Monthey", "longitude": 6.970566, "latitude": 46.3190253, "date": {"mer. 08.05.2013": {"weekday": "wednesday", "year": 2013, "categories": {"F-F20": {"pace": 295000000000, "rank": 41, "distance": 9, "time": 2753.7}}, "day": 8, "month": 5, "livingplace": "Martigny"}}, "location": "Aigle"}, "Tour du Chablais #2 Bex": {"race": "Tour du Chablais #2 Bex", "longitude": 6.854975199999999, "latitude": 46.3835529, "date": {"mer. 18.04.2012": {"weekday": "wednesday", "year": 2012, "categories": {"F-F20": {"pace": 327000000000, "rank": 79, "distance": 8, "time": 2621.9}}, "day": 18, "month": 4, "livingplace": "Martigny"}}, "location": "Bouveret"}, "Tour du Chablais #3 Bouveret": {"race": "Tour du Chablais #3 Bouveret", "longitude": 7.0223787, "latitude": 46.1782231, "date": {"mer. 17.04.2013": {"weekday": "wednesday", "year": 2013, "categories": {"F-F20": {"pace": 304000000000, "rank": 45, "distance": 10, "time": 3048.2}}, "day": 17, "month": 4, "livingplace": "Martigny"}}, "location": "Evionnaz"}, "Tour du Chablais #1 Roche": {"race": "Tour du Chablais #1 Roche", "longitude": 6.9916269, "latitude": 46.2957462, "date": {"mer. 03.04.2013": {"weekday": "wednesday", "year": 2013, "categories": {"F-F20": {"pace": 296000000000, "rank": 43, "distance": 9, "time": 2627.5}}, "day": 3, "month": 4, "livingplace": "Martigny"}}, "location": "Ollon VD"}, "Tour du Chablais #1 Martigny": {"race": "Tour du Chablais #1 Martigny", "longitude": 6.9916269, "latitude": 46.2957462, "date": {"mer. 23.04.2014": {"weekday": "wednesday", "year": 2014, "categories": {"F-F20": {"pace": 297000000000, "rank": 45, "distance": 9, "time": 2530.1}}, "day": 23, "month": 4, "livingplace": "Martigny"}}, "location": "Ollon VD"}, "Morat-Fribourg": {"race": "Morat-Fribourg", "longitude": 7.120184, "latitude": 46.92922110000001, "date": {"sam. 04.10.2014": {"weekday": "saturday", "year": 2014, "categories": {"17-W35": {"pace": 336000000000, "rank": 98, "distance": 17, "time": 5785.0}}, "day": 4, "month": 10, "livingplace": "Martigny"}, "sam. 01.10.2011": {"weekday": "saturday", "year": 2011, "categories": {"17-W35": {"pace": 372000000000, "rank": 197, "distance": 17, "time": 6399.4}}, "day": 1, "month": 10, "livingplace": "Martigny"}, "sam. 05.10.2013": {"weekday": "saturday", "year": 2013, "categories": {"17-W35": {"pace": 340000000000, "rank": 170, "distance": 17, "time": 5945.5}}, "day": 5, "month": 10, "livingplace": "Martigny"}}, "location": "Murten"}, "Tour du Chablais #6 Aigle": {"race": "Tour du Chablais #6 Aigle", "longitude": 6.970566, "latitude": 46.3190253, "date": {"mer. 01.06.2011": {"weekday": "wednesday", "year": 2011, "categories": {"F-F20": {"pace": 314000000000, "rank": 70, "distance": 10, "time": 3206.8}}, "day": 1, "month": 6, "livingplace": "Martigny Gare CFF"}}, "location": "Aigle"}, "Tour du Chablais #4 Morgins": {"race": "Tour du Chablais #4 Morgins", "date": {"mer. 18.05.2011": {"weekday": "wednesday", "year": 2011, "categories": {"F-F20": {"pace": 343000000000, "rank": 61, "distance": 8, "time": 2866.4}}, "day": 18, "month": 5, "livingplace": "Martigny Gare CFF"}}, "location": "Les Mosses"}, "Tour du Chablais #1 Montreux": {"race": "Tour du Chablais #1 Montreux", "longitude": 6.9916269, "latitude": 46.2957462, "date": {"mer. 11.04.2012": {"weekday": "wednesday", "year": 2012, "categories": {"F-F20": {"pace": 338000000000, "rank": 77, "distance": 8, "time": 2570.6}}, "day": 11, "month": 4, "livingplace": "Martigny"}}, "location": "Ollon VD"}, "Tour du Chablais #5 Les Mosses": {"race": "Tour du Chablais #5 Les Mosses", "longitude": 6.931504599999999, "latitude": 46.3603257, "date": {"mer. 25.05.2011": {"weekday": "wednesday", "year": 2011, "categories": {"F-F20": {"pace": 353000000000, "rank": 60, "distance": 8, "time": 2824.6}}, "day": 25, "month": 5, "livingplace": "Martigny Gare CFF"}}, "location": "Roche VD"}, "Tour du Chablais #1 Lavey": {"race": "Tour du Chablais #1 Lavey", "longitude": 6.9916269, "latitude": 46.2957462, "date": {"mer. 27.04.2011": {"weekday": "wednesday", "year": 2011, "categories": {"F-F20": {"pace": 342000000000, "rank": 77, "distance": 9, "time": 3081.6}}, "day": 27, "month": 4, "livingplace": "Martigny Gare CFF"}}, "location": "Ollon VD"}, "Tour du Chablais #5 Bex": {"race": "Tour du Chablais #5 Bex", "longitude": 6.931504599999999, "latitude": 46.3603257, "date": {"mer. 09.05.2012": {"weekday": "wednesday", "year": 2012, "categories": {"F-F20": {"pace": 328000000000, "rank": 75, "distance": 9, "time": 2914.8}}, "day": 9, "month": 5, "livingplace": "Martigny"}}, "location": "Roche VD"}, "Tour du Chablais #5 Morgins": {"race": "Tour du Chablais #5 Morgins", "longitude": 6.931504599999999, "latitude": 46.3603257, "date": {"mer. 01.05.2013": {"weekday": "wednesday", "year": 2013, "categories": {"F-F20": {"pace": 317000000000, "rank": 38, "distance": 8, "time": 2415.6}}, "day": 1, "month": 5, "livingplace": "Martigny"}}, "location": "Roche VD"}, "Tour du Chablais #3 Le Bouveret": {"race": "Tour du Chablais #3 Le Bouveret", "longitude": 7.0223787, "latitude": 46.1782231, "date": {"mer. 11.05.2011": {"weekday": "wednesday", "year": 2011, "categories": {"F-F20": {"pace": 328000000000, "rank": 73, "distance": 10, "time": 3289.7}}, "day": 11, "month": 5, "livingplace": "Martigny Gare CFF"}}, "location": "Evionnaz"}, "Tour du Chablais #3 Collombey-Muraz": {"race": "Tour du Chablais #3 Collombey-Muraz", "longitude": 7.0223787, "latitude": 46.1782231, "date": {"mer. 25.04.2012": {"weekday": "wednesday", "year": 2012, "categories": {"F-F20": {"pace": 326000000000, "rank": 72, "distance": 9, "time": 2935.3}}, "day": 25, "month": 4, "livingplace": "Martigny"}}, "location": "Evionnaz"}, "Tour du Chablais #4 St  Maurice": {"race": "Tour du Chablais #4 St  Maurice", "date": {"mer. 24.04.2013": {"weekday": "wednesday", "year": 2013, "categories": {"F-F20": {"pace": 306000000000, "rank": 39, "distance": 10, "time": 3062.1}}, "day": 24, "month": 4, "livingplace": "Martigny"}}, "location": "Les Mosses"}, "Kerzerslauf": {"race": "Kerzerslauf", "longitude": 7.1954365, "latitude": 46.97488999999999, "date": {"sam. 17.03.2012": {"weekday": "saturday", "year": 2012, "categories": {"15-F35": {"pace": 353000000000, "rank": 146, "distance": 15, "time": 5301.0}}, "day": 17, "month": 3, "livingplace": "Martigny"}}, "location": "Kerzers"}, "Tour du Chablais #2 Rennaz": {"race": "Tour du Chablais #2 Rennaz", "longitude": 6.854975199999999, "latitude": 46.3835529, "date": {"mer. 04.05.2011": {"weekday": "wednesday", "year": 2011, "categories": {"F-F20": {"pace": 326000000000, "rank": 63, "distance": 9, "time": 3049.8}}, "day": 4, "month": 5, "livingplace": "Martigny Gare CFF"}}, "location": "Bouveret"}}, "name": "Mathey Sophie", "birth": 1975}