{"sex": "F", "races": {"Groupe E Tour Fribourg #1, Cousset": {"race": "Groupe E Tour Fribourg #1, Cousset", "longitude": 6.977279999999999, "latitude": 46.81832, "date": {"mer. 20.08.2014": {"weekday": "wednesday", "year": 2014, "categories": {"D-Dam1": {"pace": 248000000000, "rank": 2, "distance": 9, "time": 2339.2}}, "day": 20, "month": 8, "livingplace": "Maules"}}, "location": "Cousset"}, "Groupe E Tour Fribourg #3, Kerzers": {"race": "Groupe E Tour Fribourg #3, Kerzers", "longitude": 7.1954365, "latitude": 46.97488999999999, "date": {"mer. 03.09.2014": {"weekday": "wednesday", "year": 2014, "categories": {"D-Dam1": {"pace": 251000000000, "rank": 1, "distance": 10, "time": 2555.6}}, "day": 3, "month": 9, "livingplace": "Maules"}}, "location": "Kerzers"}, "Aletsch-Halbmarathon, Bettmeralp": {"race": "Aletsch-Halbmarathon, Bettmeralp", "date": {"dim. 28.06.2015": {"weekday": "sunday", "year": 2015, "categories": {"F20": {"pace": 418000000000, "rank": 20, "distance": 21, "time": 8831.7}}, "day": 28, "month": 6, "livingplace": "Suisse"}}, "location": "Bettmeralp"}, "Groupe E Tour Fribourg #4, Siviriez": {"race": "Groupe E Tour Fribourg #4, Siviriez", "longitude": 6.877722, "latitude": 46.6585092, "date": {"mer. 10.09.2014": {"weekday": "wednesday", "year": 2014, "categories": {"D-Dam1": {"pace": 287000000000, "rank": 2, "distance": 11, "time": 3104.2}}, "day": 10, "month": 9, "livingplace": "Maules"}}, "location": "Siviriez"}, "Groupe E Tour Fribourg #2, Charmey": {"race": "Groupe E Tour Fribourg #2, Charmey", "longitude": 7.1654493, "latitude": 46.6175845, "date": {"mer. 27.08.2014": {"weekday": "wednesday", "year": 2014, "categories": {"D-Dam1": {"pace": 277000000000, "rank": 2, "distance": 10, "time": 2681.3}}, "day": 27, "month": 8, "livingplace": "Maules"}}, "location": "Charmey (Gruy\u00e8re)"}, "Groupe E Tour Fribourg #5, Givisiez": {"race": "Groupe E Tour Fribourg #5, Givisiez", "longitude": 7.131657799999999, "latitude": 46.8128615, "date": {"mer. 17.09.2014": {"weekday": "wednesday", "year": 2014, "categories": {"D-Dam1": {"pace": 266000000000, "rank": 2, "distance": 10, "time": 2735.2}}, "day": 17, "month": 9, "livingplace": "Maules"}}, "location": "Givisiez"}, "Montreux - Les Rochers de Naye": {"race": "Montreux - Les Rochers de Naye", "longitude": 6.9106799, "latitude": 46.4312213, "date": {"dim. 06.07.2014": {"weekday": "sunday", "year": 2014, "categories": {"M-EliteF": {"pace": 423000000000, "rank": 9, "distance": 19, "time": 7956.5}}, "day": 6, "month": 7, "livingplace": "Sales Gruyere"}}, "location": "Montreux"}, "20km de Lausanne": {"race": "20km de Lausanne", "longitude": 6.6322734, "latitude": 46.5196535, "date": {"sam. 25.04.2015": {"weekday": "saturday", "year": 2015, "categories": {"20-F20": {"pace": 273000000000, "rank": 15, "distance": 20, "time": 5470.9}}, "day": 25, "month": 4, "livingplace": "Suisse"}, "sam. 26.04.2014": {"weekday": "saturday", "year": 2014, "categories": {"20-F20": {"pace": 257000000000, "rank": 5, "distance": 20, "time": 5159.3}}, "day": 26, "month": 4, "livingplace": "Sales Gruyere"}}, "location": "Lausanne"}}, "name": "Matthey Nad\u00e8ge", "birth": 1989}