{"sex": "M", "races": {"Tour du Pays de Vaud #3 - Chavornay": {"race": "Tour du Pays de Vaud #3 - Chavornay", "longitude": 6.641183, "latitude": 46.7784736, "date": {"mer. 28.08.2013": {"weekday": "wednesday", "year": 2013, "categories": {"H-Sen1": {"pace": 289000000000, "rank": 90, "distance": 9, "time": 2573.5}}, "day": 28, "month": 8, "livingplace": "Lausanne"}}, "location": "Yverdon-les-Bains"}, "Tour du pays de Vaud #1 - Penthaz": {"race": "Tour du pays de Vaud #1 - Penthaz", "longitude": 6.539251200000001, "latitude": 46.5993131, "date": {"mer. 14.08.2013": {"weekday": "wednesday", "year": 2013, "categories": {"H-Sen1": {"pace": 278000000000, "rank": 64, "distance": 9, "time": 2376.4}}, "day": 14, "month": 8, "livingplace": "Lausanne"}, "mer. 08.08.2012": {"weekday": "wednesday", "year": 2012, "categories": {"H-Sen1": {"pace": 315000000000, "rank": 133, "distance": 9, "time": 2693.2}}, "day": 8, "month": 8, "livingplace": "Lausanne"}}, "location": "Penthaz"}, "Tour du Pays de Vaud #2 - Genolier": {"race": "Tour du Pays de Vaud #2 - Genolier", "longitude": 6.7702883, "latitude": 46.5955273, "date": {"mer. 15.08.2012": {"weekday": "wednesday", "year": 2012, "categories": {"H-Sen1": {"pace": 281000000000, "rank": 73, "distance": 9, "time": 2388.8}}, "day": 15, "month": 8, "livingplace": "Lausanne"}}, "location": "M\u00e9zi\u00e8res VD"}, "Tour du Pays de Vaud #4 - La Sarraz": {"race": "Tour du Pays de Vaud #4 - La Sarraz", "longitude": 6.5707689, "latitude": 46.7088129, "date": {"mer. 29.08.2012": {"weekday": "wednesday", "year": 2012, "categories": {"H-Sen1": {"pace": 298000000000, "rank": 126, "distance": 9, "time": 2539.8}}, "day": 29, "month": 8, "livingplace": "Lausanne"}, "mer. 04.09.2013": {"weekday": "wednesday", "year": 2013, "categories": {"H-Sen1": {"pace": 287000000000, "rank": 75, "distance": 9, "time": 2441.0}}, "day": 4, "month": 9, "livingplace": "Lausanne"}}, "location": "Chavornay"}, "Tour du Pays de Vaud #3 - Mezi\u00e8res": {"race": "Tour du Pays de Vaud #3 - Mezi\u00e8res", "longitude": 6.641183, "latitude": 46.7784736, "date": {"mer. 22.08.2012": {"weekday": "wednesday", "year": 2012, "categories": {"H-Sen1": {"pace": 305000000000, "rank": 71, "distance": 8, "time": 2566.2}}, "day": 22, "month": 8, "livingplace": "Lausanne"}}, "location": "Yverdon-les-Bains"}, "Tour du Pays de Vaud #3, Chavornay": {"race": "Tour du Pays de Vaud #3, Chavornay", "longitude": 6.641183, "latitude": 46.7784736, "date": {"mer. 27.08.2014": {"weekday": "wednesday", "year": 2014, "categories": {"H-Sen1": {"pace": 287000000000, "rank": 69, "distance": 9, "time": 2468.3}}, "day": 27, "month": 8, "livingplace": "Lausanne"}}, "location": "Yverdon-les-Bains"}, "Lausanne Marathon": {"race": "Lausanne Marathon", "longitude": 6.6322734, "latitude": 46.5196535, "date": {"dim. 28.10.2012": {"weekday": "sunday", "year": 2012, "categories": {"21-H2": {"pace": 298000000000, "rank": 399, "distance": 21, "time": 6300.3}}, "day": 28, "month": 10, "livingplace": "Lausanne"}}, "location": "Lausanne"}, "Tour du Pays de Vaud #2, Mezi\u00e8res": {"race": "Tour du Pays de Vaud #2, Mezi\u00e8res", "longitude": 6.7702883, "latitude": 46.5955273, "date": {"mer. 20.08.2014": {"weekday": "wednesday", "year": 2014, "categories": {"H-Sen1": {"pace": 319000000000, "rank": 82, "distance": 8, "time": 2589.9}}, "day": 20, "month": 8, "livingplace": "Lausanne"}}, "location": "M\u00e9zi\u00e8res VD"}, "Morat-Fribourg": {"race": "Morat-Fribourg", "longitude": 7.120184, "latitude": 46.92922110000001, "date": {"sam. 06.10.2012": {"weekday": "saturday", "year": 2012, "categories": {"17-M20": {"pace": 300000000000, "rank": 979, "distance": 17, "time": 5246.4}}, "day": 6, "month": 10, "livingplace": "Lausanne"}}, "location": "Murten"}, "Tour du Chablais #4 St  Maurice": {"race": "Tour du Chablais #4 St  Maurice", "date": {"mer. 24.04.2013": {"weekday": "wednesday", "year": 2013, "categories": {"M-M20": {"pace": 275000000000, "rank": 114, "distance": 10, "time": 2756.2}}, "day": 24, "month": 4, "livingplace": "Lausanne"}}, "location": "Les Mosses"}, "20km de Lausanne": {"race": "20km de Lausanne", "longitude": 6.6322734, "latitude": 46.5196535, "date": {"sam. 25.04.2015": {"weekday": "saturday", "year": 2015, "categories": {"20-H30": {"pace": 282000000000, "rank": 409, "distance": 20, "time": 5644.0}}, "day": 25, "month": 4, "livingplace": "EP Sciences de la Vie 6"}, "sam. 27.04.2013": {"weekday": "saturday", "year": 2013, "categories": {"20-H30": {"pace": 284000000000, "rank": 378, "distance": 20, "time": 5690.8}}, "day": 27, "month": 4, "livingplace": "EP   Sciences de la Vie"}}, "location": "Lausanne"}}, "name": "Mclaren Paul", "birth": 1977}