{"sex": "M", "races": {"Tour du Chablais #5 Leysin": {"race": "Tour du Chablais #5 Leysin", "longitude": 6.931504599999999, "latitude": 46.3603257, "date": {"mer. 05.05.2010": {"weekday": "wednesday", "year": 2010, "categories": {"M-M40": {"pace": 328000000000, "rank": 88, "distance": 8, "time": 2772.2}}, "day": 5, "month": 5, "livingplace": "Les Evouettes"}}, "location": "Roche VD"}, "Tour du Chablais #4 Yvorne": {"race": "Tour du Chablais #4 Yvorne", "date": {"mer. 28.04.2010": {"weekday": "wednesday", "year": 2010, "categories": {"M-M40": {"pace": 320000000000, "rank": 131, "distance": 8, "time": 2651.2}}, "day": 28, "month": 4, "livingplace": "Les Evouettes"}}, "location": "Les Mosses"}, "Tour du Chablais #1 Roche": {"race": "Tour du Chablais #1 Roche", "longitude": 6.9916269, "latitude": 46.2957462, "date": {"mer. 07.04.2010": {"weekday": "wednesday", "year": 2010, "categories": {"M-M40": {"pace": 293000000000, "rank": 120, "distance": 9, "time": 2623.7}}, "day": 7, "month": 4, "livingplace": "Les Evouettes"}}, "location": "Ollon VD"}, "Tour du Chablais #1 Martigny": {"race": "Tour du Chablais #1 Martigny", "longitude": 6.9916269, "latitude": 46.2957462, "date": {"mer. 23.04.2014": {"weekday": "wednesday", "year": 2014, "categories": {"M-M50": {"pace": 304000000000, "rank": 72, "distance": 9, "time": 2589.4}}, "day": 23, "month": 4, "livingplace": "Les Evouettes"}}, "location": "Ollon VD"}, "Tour du Chablais #4 Morgins": {"race": "Tour du Chablais #4 Morgins", "date": {"mer. 18.05.2011": {"weekday": "wednesday", "year": 2011, "categories": {"M-M40": {"pace": 322000000000, "rank": 123, "distance": 8, "time": 2694.4}}, "day": 18, "month": 5, "livingplace": "Les Evouettes"}}, "location": "Les Mosses"}, "Tour du Chablais #2 St-Gingolph": {"race": "Tour du Chablais #2 St-Gingolph", "longitude": 6.854975199999999, "latitude": 46.3835529, "date": {"mer. 14.04.2010": {"weekday": "wednesday", "year": 2010, "categories": {"M-M40": {"pace": 319000000000, "rank": 119, "distance": 8, "time": 2670.5}}, "day": 14, "month": 4, "livingplace": "Les Evouettes"}}, "location": "Bouveret"}, "Tour du Chablais #5 Les Mosses": {"race": "Tour du Chablais #5 Les Mosses", "longitude": 6.931504599999999, "latitude": 46.3603257, "date": {"mer. 25.05.2011": {"weekday": "wednesday", "year": 2011, "categories": {"M-M40": {"pace": 330000000000, "rank": 103, "distance": 8, "time": 2646.3}}, "day": 25, "month": 5, "livingplace": "Les Evouettes"}}, "location": "Roche VD"}, "Tour du Chablais #1 Lavey": {"race": "Tour du Chablais #1 Lavey", "longitude": 6.9916269, "latitude": 46.2957462, "date": {"mer. 27.04.2011": {"weekday": "wednesday", "year": 2011, "categories": {"M-M40": {"pace": 304000000000, "rank": 119, "distance": 9, "time": 2743.6}}, "day": 27, "month": 4, "livingplace": "Les Evouettes"}}, "location": "Ollon VD"}, "Tour du Chablais #3 Bex": {"race": "Tour du Chablais #3 Bex", "longitude": 7.0223787, "latitude": 46.1782231, "date": {"mer. 21.04.2010": {"weekday": "wednesday", "year": 2010, "categories": {"M-M40": {"pace": 302000000000, "rank": 122, "distance": 10, "time": 3026.0}}, "day": 21, "month": 4, "livingplace": "Les Evouettes"}}, "location": "Evionnaz"}, "Lausanne Marathon": {"race": "Lausanne Marathon", "longitude": 6.6322734, "latitude": 46.5196535, "date": {"dim. 28.10.2012": {"weekday": "sunday", "year": 2012, "categories": {"10-H3": {"pace": 308000000000, "rank": 294, "distance": 10, "time": 3087.9}}, "day": 28, "month": 10, "livingplace": "Les Evouettes"}}, "location": "Lausanne"}, "Tour du Chablais #3 Le Bouveret": {"race": "Tour du Chablais #3 Le Bouveret", "longitude": 7.0223787, "latitude": 46.1782231, "date": {"mer. 11.05.2011": {"weekday": "wednesday", "year": 2011, "categories": {"M-M40": {"pace": 299000000000, "rank": 121, "distance": 10, "time": 2996.7}}, "day": 11, "month": 5, "livingplace": "Les Evouettes"}}, "location": "Evionnaz"}, "Tour du Chablais #2 Rennaz": {"race": "Tour du Chablais #2 Rennaz", "longitude": 6.854975199999999, "latitude": 46.3835529, "date": {"mer. 04.05.2011": {"weekday": "wednesday", "year": 2011, "categories": {"M-M40": {"pace": 299000000000, "rank": 128, "distance": 9, "time": 2799.0}}, "day": 4, "month": 5, "livingplace": "Les Evouettes"}}, "location": "Bouveret"}}, "name": "M\u00e9dina L\u00e9andre", "birth": 1964}