{"sex": "M", "races": {"Tour du Pays de Vaud #2, Mezi\u00e8res": {"race": "Tour du Pays de Vaud #2, Mezi\u00e8res", "longitude": 6.7702883, "latitude": 46.5955273, "date": {"mer. 20.08.2014": {"weekday": "wednesday", "year": 2014, "categories": {"H-Sen1": {"pace": 254000000000, "rank": 14, "distance": 8, "time": 2061.3}}, "day": 20, "month": 8, "livingplace": "Renens"}}, "location": "M\u00e9zi\u00e8res VD"}, "Tour du Pays de Vaud #1, Penthaz": {"race": "Tour du Pays de Vaud #1, Penthaz", "longitude": 6.539251200000001, "latitude": 46.5993131, "date": {"mer. 13.08.2014": {"weekday": "wednesday", "year": 2014, "categories": {"H-Sen1": {"pace": 235000000000, "rank": 15, "distance": 9, "time": 2006.3}}, "day": 13, "month": 8, "livingplace": "Renens"}}, "location": "Penthaz"}, "Tour du Pays de Vaud printanier #1 Moudon": {"race": "Tour du Pays de Vaud printanier #1 Moudon", "longitude": 6.2347852, "latitude": 46.3832683, "date": {"mer. 04.06.2014": {"weekday": "wednesday", "year": 2014, "categories": {"H-Sen1": {"pace": 246000000000, "rank": 17, "distance": 8, "time": 2070.8}}, "day": 4, "month": 6, "livingplace": "Renens"}}, "location": "Nyon"}, "Aletsch-Halbmarathon, Bettmeralp": {"race": "Aletsch-Halbmarathon, Bettmeralp", "date": {"dim. 29.06.2014": {"weekday": "sunday", "year": 2014, "categories": {"M20": {"pace": 306000000000, "rank": 43, "distance": 13, "time": 4082.1}}, "day": 29, "month": 6, "livingplace": "Renens"}}, "location": "Bettmeralp"}, "Sierre-Zinal, Sierre": {"race": "Sierre-Zinal, Sierre", "longitude": 7.533536199999999, "latitude": 46.29413110000001, "date": {"dim. 10.08.2014": {"weekday": "sunday", "year": 2014, "categories": {"ElitesHo": {"pace": 446000000000, "rank": 204, "distance": 31, "time": 13837.1}}, "day": 10, "month": 8, "livingplace": "Renens"}, "dim. 11.08.2013": {"weekday": "sunday", "year": 2013, "categories": {"Elites": {"pace": 486000000000, "rank": 227, "distance": 31, "time": 15076.9}}, "day": 11, "month": 8, "livingplace": "Renens"}}, "location": "Sierre"}, "Lausanne Marathon": {"race": "Lausanne Marathon", "longitude": 6.6322734, "latitude": 46.5196535, "date": {"sam. 24.10.2015": {"weekday": "saturday", "year": 2015, "categories": {"42-H30": {"pace": 279000000000, "rank": 53, "distance": 42, "time": 11803.9}}, "day": 24, "month": 10, "livingplace": "Renens"}}, "location": "Lausanne"}, "Tour du Pays de Vaud printanier #3 - Yens": {"race": "Tour du Pays de Vaud printanier #3 - Yens", "longitude": 6.5728678, "latitude": 46.7829756, "date": {"mer. 18.06.2014": {"weekday": "wednesday", "year": 2014, "categories": {"H-Sen1": {"pace": 250000000000, "rank": 24, "distance": 9, "time": 2277.1}}, "day": 18, "month": 6, "livingplace": "Renens"}}, "location": "Champvent"}, "Tour du Pays de Vaud printanier #2 Yverdon-les-Bains": {"race": "Tour du Pays de Vaud printanier #2 Yverdon-les-Bains", "longitude": 6.7975224, "latitude": 46.6698891, "date": {"mer. 11.06.2014": {"weekday": "wednesday", "year": 2014, "categories": {"H-Sen1": {"pace": 278000000000, "rank": 27, "distance": 9, "time": 2532.2}}, "day": 11, "month": 6, "livingplace": "Renens"}}, "location": "Moudon"}, "Montreux - Les Rochers de Naye": {"race": "Montreux - Les Rochers de Naye", "longitude": 6.9106799, "latitude": 46.4312213, "date": {"dim. 07.07.2013": {"weekday": "sunday", "year": 2013, "categories": {"M-HElite": {"pace": 472000000000, "rank": 93, "distance": 19, "time": 8877.2}}, "day": 7, "month": 7, "livingplace": "Renens"}}, "location": "Montreux"}, "Tour du Pays de Vaud #3, Chavornay": {"race": "Tour du Pays de Vaud #3, Chavornay", "longitude": 6.641183, "latitude": 46.7784736, "date": {"mer. 27.08.2014": {"weekday": "wednesday", "year": 2014, "categories": {"H-Sen1": {"pace": 251000000000, "rank": 15, "distance": 9, "time": 2164.3}}, "day": 27, "month": 8, "livingplace": "Renens"}}, "location": "Yverdon-les-Bains"}, "Course p\u00e9destre Thyon-Dixence, Thyon": {"race": "Course p\u00e9destre Thyon-Dixence, Thyon", "date": {"dim. 04.08.2013": {"weekday": "sunday", "year": 2013, "categories": {"HomElite": {"pace": 390000000000, "rank": 48, "distance": 16, "time": 6389.0}}, "day": 4, "month": 8, "livingplace": "Renens"}}, "location": "Thyon-Les Collons"}}, "name": "Meens Merlijn", "birth": 1982}