{"sex": "M", "races": {"Herbstlauf Burgdorf": {"race": "Herbstlauf Burgdorf", "longitude": -115.9129022, "latitude": 45.277123, "date": {"sam. 22.10.2011": {"weekday": "saturday", "year": 2011, "categories": {"MegaK": {"pace": 180000000000, "rank": 1, "distance": 2, "time": 361.7}}, "day": 22, "month": 10, "livingplace": "Ipsach"}}, "location": "Burgdorf"}, "BCN Tour La Chaux-de-Fonds": {"race": "BCN Tour La Chaux-de-Fonds", "longitude": 6.832783800000001, "latitude": 47.1034892, "date": {"mer. 11.05.2011": {"weekday": "wednesday", "year": 2011, "categories": {"KG3": {"pace": 174000000000, "rank": 2, "distance": 4, "time": 682.2}}, "day": 11, "month": 5, "livingplace": "Ipsach"}}, "location": "La Chaux-de-Fonds"}, "BCN Tour Auvernier": {"race": "BCN Tour Auvernier", "longitude": 6.8589727, "latitude": 46.9668714, "date": {"mer. 20.04.2011": {"weekday": "wednesday", "year": 2011, "categories": {"KG3": {"pace": 203000000000, "rank": 2, "distance": 2, "time": 477.7}}, "day": 20, "month": 4, "livingplace": "Ipsach"}}, "location": "Colombier NE"}, "BCN Tour Couvet": {"race": "BCN Tour Couvet", "longitude": 6.9175754, "latitude": 47.0624261, "date": {"mer. 02.05.2012": {"weekday": "wednesday", "year": 2012, "categories": {"KG4": {"pace": 221000000000, "rank": 4, "distance": 4, "time": 818.2}}, "day": 2, "month": 5, "livingplace": "Ipsach"}}, "location": "Ch\u00e9zard-St-Martin"}, "Kerzerslauf": {"race": "Kerzerslauf", "longitude": 7.1954365, "latitude": 46.97488999999999, "date": {"sam. 19.03.2011": {"weekday": "saturday", "year": 2011, "categories": {"2-M13": {"pace": 188000000000, "rank": 2, "distance": 1, "time": 263.3}}, "day": 19, "month": 3, "livingplace": "Ipsach"}, "sam. 16.03.2013": {"weekday": "saturday", "year": 2013, "categories": {"15-U16M": {"pace": 251000000000, "rank": 1, "distance": 15, "time": 3767.9}}, "day": 16, "month": 3, "livingplace": "Ipsach"}, "sam. 17.03.2012": {"weekday": "saturday", "year": 2012, "categories": {"15-M15": {"pace": 270000000000, "rank": 1, "distance": 15, "time": 4057.2}}, "day": 17, "month": 3, "livingplace": "Ipsach"}}, "location": "Kerzers"}, "Z\u00fcrcher Silvesterlauf, Z\u00fcrich": {"race": "Z\u00fcrcher Silvesterlauf, Z\u00fcrich", "longitude": 8.541694, "latitude": 47.3768866, "date": {"dim. 16.12.2012": {"weekday": "sunday", "year": 2012, "categories": {"Knaben B": {"pace": 202000000000, "rank": 4, "distance": 3, "time": 526.1}}, "day": 16, "month": 12, "livingplace": "Ipsach"}, "dim. 14.12.2014": {"weekday": "sunday", "year": 2014, "categories": {"U18M": {"pace": 199000000000, "rank": 5, "distance": 3, "time": 558.2}}, "day": 14, "month": 12, "livingplace": "Ipsach"}}, "location": "Z\u00fcrich"}, "20km de Lausanne": {"race": "20km de Lausanne", "longitude": 6.6322734, "latitude": 46.5196535, "date": {"sam. 27.04.2013": {"weekday": "saturday", "year": 2013, "categories": {"4-CadM": {"pace": 210000000000, "rank": 3, "distance": 4, "time": 843.5}}, "day": 27, "month": 4, "livingplace": "Ipsach"}, "sam. 26.04.2014": {"weekday": "saturday", "year": 2014, "categories": {"4-CadM": {"pace": 204000000000, "rank": 3, "distance": 4, "time": 816.4}}, "day": 26, "month": 4, "livingplace": "Ipsach"}}, "location": "Lausanne"}, "BCN Tour La Br\u00e9vine": {"race": "BCN Tour La Br\u00e9vine", "longitude": 6.733554799999999, "latitude": 46.999113, "date": {"mer. 04.05.2011": {"weekday": "wednesday", "year": 2011, "categories": {"KG3": {"pace": 231000000000, "rank": 2, "distance": 4, "time": 881.3}}, "day": 4, "month": 5, "livingplace": "Ipsach"}}, "location": "Les Ponts-de-Martel"}, "Derendinger Abendlauf, Derendingen": {"race": "Derendinger Abendlauf, Derendingen", "longitude": 7.585593099999999, "latitude": 47.1952433, "date": {"ven. 24.06.2011": {"weekday": "friday", "year": 2011, "categories": {"MK": {"pace": 198000000000, "rank": 1, "distance": 2, "time": 475.3}}, "day": 24, "month": 6, "livingplace": "Ipsach"}}, "location": "Derendingen"}, "BCN Tour Neuch\u00e2tel": {"race": "BCN Tour Neuch\u00e2tel", "longitude": 6.9292732, "latitude": 46.9899874, "date": {"mer. 25.05.2011": {"weekday": "wednesday", "year": 2011, "categories": {"KG3": {"pace": 216000000000, "rank": 2, "distance": 4, "time": 784.3}}, "day": 25, "month": 5, "livingplace": "Ipsach"}}, "location": "Neuch\u00e2tel"}, "Basler Stadtlauf": {"race": "Basler Stadtlauf", "longitude": 7.5885761, "latitude": 47.5595986, "date": {"sam. 30.11.2013": {"weekday": "saturday", "year": 2013, "categories": {"U16m": {"pace": 198000000000, "rank": 5, "distance": 3, "time": 645.8}}, "day": 30, "month": 11, "livingplace": "Ipsach"}}, "location": "Basel"}, "Bieler Lauftage, Biel Bienne": {"race": "Bieler Lauftage, Biel Bienne", "longitude": 7.2467909, "latitude": 47.1367785, "date": {"ven. 13.06.2008": {"weekday": "friday", "year": 2008, "categories": {"K/M3": {"pace": 226000000000, "rank": 2, "distance": 1, "time": 226.9}}, "day": 13, "month": 6, "livingplace": "Ipsach"}, "ven. 12.06.2009": {"weekday": "friday", "year": 2009, "categories": {"K/M4": {"pace": 235000000000, "rank": 5, "distance": 2, "time": 353.9}}, "day": 12, "month": 6, "livingplace": "Ipsach"}}, "location": "Biel/Bienne"}, "Thuner Stadtlauf, Thun": {"race": "Thuner Stadtlauf, Thun", "longitude": 7.6279881, "latitude": 46.7579868, "date": {"dim. 26.08.2012": {"weekday": "sunday", "year": 2012, "categories": {"SchM": {"pace": 203000000000, "rank": 4, "distance": 3, "time": 508.9}}, "day": 26, "month": 8, "livingplace": "Ipsach"}}, "location": "Thun"}, "Steinh\u00f6lzlilauf, Liebefeld": {"race": "Steinh\u00f6lzlilauf, Liebefeld", "longitude": 7.416668, "latitude": 46.933331, "date": {"dim. 04.12.2011": {"weekday": "sunday", "year": 2011, "categories": {"S-SM2": {"pace": 220000000000, "rank": 3, "distance": 3, "time": 660.7}}, "day": 4, "month": 12, "livingplace": "Ipsach"}}, "location": "Liebefeld"}, "Jungfrau Minirun + Minimarathon, Interlaken": {"race": "Jungfrau Minirun + Minimarathon, Interlaken", "date": {"ven. 09.09.2011": {"weekday": "friday", "year": 2011, "categories": {"U14 M": {"pace": 200000000000, "rank": 2, "distance": 2, "time": 321.84}}, "day": 9, "month": 9, "livingplace": "Ipsach"}}, "location": "Interlaken"}, "Baldeggerseelauf, Hitzkirch": {"race": "Baldeggerseelauf, Hitzkirch", "date": {"sam. 04.06.2011": {"weekday": "saturday", "year": 2011, "categories": {"U14-M": {"pace": 215000000000, "rank": 2, "distance": 2, "time": 329.3}}, "day": 4, "month": 6, "livingplace": "Ipsach"}}, "location": "Hitzkirch"}, "Corrida Bulloise, Bulle": {"race": "Corrida Bulloise, Bulle", "longitude": 7.057726799999999, "latitude": 46.6154512, "date": {"sam. 19.11.2011": {"weekday": "saturday", "year": 2011, "categories": {"GA": {"pace": 228000000000, "rank": 4, "distance": 3, "time": 720.8}}, "day": 19, "month": 11, "livingplace": "Ipsach"}}, "location": "Bulle"}, "BCN Tour Les Ponts de Martel": {"race": "BCN Tour Les Ponts de Martel", "longitude": 6.6324944, "latitude": 46.9262933, "date": {"mer. 18.05.2011": {"weekday": "wednesday", "year": 2011, "categories": {"KG3": {"pace": 218000000000, "rank": 2, "distance": 4, "time": 853.0}}, "day": 18, "month": 5, "livingplace": "Ipsach"}}, "location": "Couvet"}, "BCN Tour #1 Corcelles": {"race": "BCN Tour #1 Corcelles", "longitude": 6.8589727, "latitude": 46.9668714, "date": {"mer. 24.04.2013": {"weekday": "wednesday", "year": 2013, "categories": {"KG4": {"pace": 224000000000, "rank": 1, "distance": 3, "time": 628.3}}, "day": 24, "month": 4, "livingplace": "Ipsach"}}, "location": "Colombier NE"}, "BCN Tour Fontaine Cernier": {"race": "BCN Tour Fontaine Cernier", "longitude": 6.9175754, "latitude": 47.0624261, "date": {"mer. 27.04.2011": {"weekday": "wednesday", "year": 2011, "categories": {"KG3": {"pace": 251000000000, "rank": 2, "distance": 3, "time": 754.4}}, "day": 27, "month": 4, "livingplace": "Ipsach"}}, "location": "Ch\u00e9zard-St-Martin"}, "Les Traine-Savates, Cheseaux-sur-Lausanne": {"race": "Les Traine-Savates, Cheseaux-sur-Lausanne", "longitude": 6.6047712, "latitude": 46.585452, "date": {"sam. 09.04.2011": {"weekday": "saturday", "year": 2011, "categories": {"U14M": {"pace": 221000000000, "rank": 3, "distance": 3, "time": 754.2}}, "day": 9, "month": 4, "livingplace": "Ipsach"}}, "location": "Cheseaux-sur-Lausanne"}, "ASICS Bremgarter Reusslauf": {"race": "ASICS Bremgarter Reusslauf", "longitude": 8.3397905, "latitude": 47.34917739999999, "date": {"sam. 25.02.2012": {"weekday": "saturday", "year": 2012, "categories": {"MU14": {"pace": 204000000000, "rank": 1, "distance": 2, "time": 489.9}}, "day": 25, "month": 2, "livingplace": "Biel Bienne"}, "sam. 27.02.2010": {"weekday": "saturday", "year": 2010, "categories": {"53": {"pace": 220000000000, "rank": 3, "distance": 1, "time": 330.4}}, "day": 27, "month": 2, "livingplace": "Ipsach"}}, "location": "Bremgarten AG"}, "Morat-Fribourg": {"race": "Morat-Fribourg", "longitude": 7.120184, "latitude": 46.92922110000001, "date": {"sam. 05.10.2013": {"weekday": "saturday", "year": 2013, "categories": {"CadMB": {"pace": 204000000000, "rank": 7, "distance": 3, "time": 715.7}}, "day": 5, "month": 10, "livingplace": "Ipsach"}}, "location": "Murten"}, "BCN Tour Cornaux": {"race": "BCN Tour Cornaux", "longitude": 6.8589727, "latitude": 46.9668714, "date": {"mer. 25.04.2012": {"weekday": "wednesday", "year": 2012, "categories": {"KG4": {"pace": 207000000000, "rank": 3, "distance": 3, "time": 580.9}}, "day": 25, "month": 4, "livingplace": "Ipsach"}}, "location": "Colombier NE"}, "Hellebardenlauf Sempach": {"race": "Hellebardenlauf Sempach", "date": {"sam. 26.06.2010": {"weekday": "saturday", "year": 2010, "categories": {"1-KJC": {"pace": 218000000000, "rank": 4, "distance": 1, "time": 218.9}}, "day": 26, "month": 6, "livingplace": "Ipsach"}}, "location": "Sempach Stadt"}, "10km Schweizer Meisterschaften Lyss": {"race": "10km Schweizer Meisterschaften Lyss", "longitude": 7.3077022, "latitude": 47.0746504, "date": {"sam. 31.03.2012": {"weekday": "saturday", "year": 2012, "categories": {"F-U18m": {"pace": 244000000000, "rank": 3, "distance": 5, "time": 1224.9}}, "day": 31, "month": 3, "livingplace": "Ipsach"}}, "location": "Lyss"}, "BCN Tour #2 La Chaux-de-Fonds": {"race": "BCN Tour #2 La Chaux-de-Fonds", "longitude": 6.9175754, "latitude": 47.0624261, "date": {"mer. 01.05.2013": {"weekday": "wednesday", "year": 2013, "categories": {"KG4": {"pace": 191000000000, "rank": 1, "distance": 2, "time": 459.9}}, "day": 1, "month": 5, "livingplace": "Ipsach"}}, "location": "Ch\u00e9zard-St-Martin"}, "Badener Limmat-Lauf, Baden": {"race": "Badener Limmat-Lauf, Baden", "longitude": 8.5303972, "latitude": 48.5699281, "date": {"sam. 24.03.2012": {"weekday": "saturday", "year": 2012, "categories": {"MU16": {"pace": 200000000000, "rank": 2, "distance": 2, "time": 434.0}}, "day": 24, "month": 3, "livingplace": "Ipsach"}, "sam. 26.03.2011": {"weekday": "saturday", "year": 2011, "categories": {"MU14": {"pace": 223000000000, "rank": 2, "distance": 2, "time": 489.3}}, "day": 26, "month": 3, "livingplace": "Ipsach"}}, "location": "Baden"}, "Int  Bieler Cross, Biel-Bienne": {"race": "Int  Bieler Cross, Biel-Bienne", "longitude": 7.2467909, "latitude": 47.1367785, "date": {"dim. 30.11.2008": {"weekday": "sunday", "year": 2008, "categories": {"M12": {"pace": 243000000000, "rank": 2, "distance": 2, "time": 364.9}}, "day": 30, "month": 11, "livingplace": "Biel"}, "dim. 29.11.2009": {"weekday": "sunday", "year": 2009, "categories": {"M12": {"pace": 218000000000, "rank": 2, "distance": 2, "time": 328.3}}, "day": 29, "month": 11, "livingplace": "Biel"}, "dim. 14.11.2010": {"weekday": "sunday", "year": 2010, "categories": {"MU14": {"pace": 203000000000, "rank": 4, "distance": 2, "time": 305.6}}, "day": 14, "month": 11, "livingplace": "Biel"}, "dim. 11.11.2012": {"weekday": "sunday", "year": 2012, "categories": {"MU16": {"pace": 228000000000, "rank": 8, "distance": 4, "time": 847.2}}, "day": 11, "month": 11, "livingplace": "Biel/Bienne"}}, "location": "Biel/Bienne"}, "Pfingstlauf Wohlen AG": {"race": "Pfingstlauf Wohlen AG", "longitude": 8.2768762, "latitude": 47.3493653, "date": {"sam. 26.05.2012": {"weekday": "saturday", "year": 2012, "categories": {"MJB": {"pace": 183000000000, "rank": 1, "distance": 2, "time": 292.9}}, "day": 26, "month": 5, "livingplace": "Ipsach"}, "sam. 11.06.2011": {"weekday": "saturday", "year": 2011, "categories": {"SchA": {"pace": 196000000000, "rank": 2, "distance": 2, "time": 313.9}}, "day": 11, "month": 6, "livingplace": "Ipsach"}}, "location": "Wohlen AG"}, "Emmenlauf Utzenstorf": {"race": "Emmenlauf Utzenstorf", "longitude": 7.5588034, "latitude": 47.12816670000001, "date": {"mer. 15.08.2012": {"weekday": "wednesday", "year": 2012, "categories": {"Hard_K": {"pace": 207000000000, "rank": 1, "distance": 3, "time": 621.4}}, "day": 15, "month": 8, "livingplace": "Ipsach"}, "mer. 17.08.2011": {"weekday": "wednesday", "year": 2011, "categories": {"Mega_K": {"pace": 212000000000, "rank": 1, "distance": 3, "time": 638.6}}, "day": 17, "month": 8, "livingplace": "Ipsach"}}, "location": "Utzenstorf"}, "Lausanne Marathon": {"race": "Lausanne Marathon", "longitude": 6.6322734, "latitude": 46.5196535, "date": {"dim. 31.10.2010": {"weekday": "sunday", "year": 2010, "categories": {"4-K3": {"pace": 233000000000, "rank": 10, "distance": 4, "time": 982.3}}, "day": 31, "month": 10, "livingplace": "Ipsach"}}, "location": "Lausanne"}, "Langenthaler Stadtlauf": {"race": "Langenthaler Stadtlauf", "longitude": 7.790562299999999, "latitude": 47.2120786, "date": {"sam. 20.11.2010": {"weekday": "saturday", "year": 2010, "categories": {"TeenM": {"pace": 206000000000, "rank": 7, "distance": 1, "time": 258.4}}, "day": 20, "month": 11, "livingplace": "Ipsach"}}, "location": "Langenthal"}}, "name": "Meichtry Tim", "birth": 1998}