{"sex": "M", "races": {"Glacier 3000 Run, Gstaad": {"race": "Glacier 3000 Run, Gstaad", "longitude": 7.2865728, "latitude": 46.4717588, "date": {"sam. 08.08.2015": {"weekday": "saturday", "year": 2015, "categories": {"M40": {"pace": 544000000000, "rank": 97, "distance": 26, "time": 14168.9}}, "day": 8, "month": 8, "livingplace": "Busserach"}}, "location": "Gstaad"}, "Birslauf Basel": {"race": "Birslauf Basel", "longitude": 7.5885761, "latitude": 47.5595986, "date": {"sam. 05.04.2014": {"weekday": "saturday", "year": 2014, "categories": {"M\u00e4nner": {"pace": 267000000000, "rank": 197, "distance": 10, "time": 2670.2}}, "day": 5, "month": 4, "livingplace": "Busserach"}, "sam. 06.04.2013": {"weekday": "saturday", "year": 2013, "categories": {"M\u00e4nner": {"pace": 272000000000, "rank": 236, "distance": 10, "time": 2723.6}}, "day": 6, "month": 4, "livingplace": "Busserach"}}, "location": "Basel"}, "ASICS Bremgarter Reusslauf": {"race": "ASICS Bremgarter Reusslauf", "longitude": 8.3397905, "latitude": 47.34917739999999, "date": {"sam. 28.02.2015": {"weekday": "saturday", "year": 2015, "categories": {"11-M40": {"pace": 261000000000, "rank": 202, "distance": 11, "time": 2874.8}}, "day": 28, "month": 2, "livingplace": "Busserach"}}, "location": "Bremgarten AG"}, "Kerzerslauf": {"race": "Kerzerslauf", "longitude": 7.1954365, "latitude": 46.97488999999999, "date": {"sam. 21.03.2015": {"weekday": "saturday", "year": 2015, "categories": {"15-M45": {"pace": 270000000000, "rank": 155, "distance": 15, "time": 4058.0}}, "day": 21, "month": 3, "livingplace": "Busserach"}}, "location": "Kerzers"}, "crossrun, Therwil": {"race": "crossrun, Therwil", "longitude": 7.5532808, "latitude": 47.4990611, "date": {"dim. 31.08.2014": {"weekday": "sunday", "year": 2014, "categories": {"M40": {"pace": 266000000000, "rank": 8, "distance": 10, "time": 2665.8}}, "day": 31, "month": 8, "livingplace": "Busserach"}}, "location": "Therwil"}, "Aletsch-Halbmarathon, Bettmeralp": {"race": "Aletsch-Halbmarathon, Bettmeralp", "date": {"dim. 29.06.2014": {"weekday": "sunday", "year": 2014, "categories": {"M45": {"pace": 358000000000, "rank": 69, "distance": 13, "time": 4762.3}}, "day": 29, "month": 6, "livingplace": "Busserach"}, "dim. 28.06.2015": {"weekday": "sunday", "year": 2015, "categories": {"M45": {"pace": 427000000000, "rank": 54, "distance": 21, "time": 9018.8}}, "day": 28, "month": 6, "livingplace": "Busserach"}}, "location": "Bettmeralp"}}, "name": "Meier Patrik", "birth": 1969}