{"sex": "M", "races": {"Laufsporttag Winterthur": {"race": "Laufsporttag Winterthur", "longitude": -75.6037351, "latitude": 39.8088766, "date": {"sam. 01.03.2008": {"weekday": "saturday", "year": 2008, "categories": {"A": {"pace": 237000000000, "rank": 20, "distance": 11, "time": 2617.7}}, "day": 1, "month": 3, "livingplace": "Winterthur"}, "sam. 05.03.2005": {"weekday": "saturday", "year": 2005, "categories": {"A": {"pace": 296000000000, "rank": 27, "distance": 11, "time": 3260.0}}, "day": 5, "month": 3, "livingplace": "Brutten"}}, "location": "Winterthur"}, "Lucerne Marathon, Luzern": {"race": "Lucerne Marathon, Luzern", "longitude": 8.3093072, "latitude": 47.05016819999999, "date": {"dim. 25.10.2009": {"weekday": "sunday", "year": 2009, "categories": {"H-M20": {"pace": 245000000000, "rank": 38, "distance": 21, "time": 5188.1}}, "day": 25, "month": 10, "livingplace": "Winterthur"}}, "location": "Luzern"}, "Int Greifenseelauf, Uster": {"race": "Int Greifenseelauf, Uster", "longitude": 8.717873899999999, "latitude": 47.3482747, "date": {"sam. 16.09.2006": {"weekday": "saturday", "year": 2006, "categories": {"H/M20": {"pace": 249000000000, "rank": 48, "distance": 21, "time": 5264.2}}, "day": 16, "month": 9, "livingplace": "Brutten"}, "sam. 17.09.2005": {"weekday": "saturday", "year": 2005, "categories": {"K/M20": {"pace": 232000000000, "rank": 9, "distance": 6, "time": 1439.5}}, "day": 17, "month": 9, "livingplace": "Brutten"}, "sam. 20.09.2008": {"weekday": "saturday", "year": 2008, "categories": {"K-M20": {"pace": 238000000000, "rank": 11, "distance": 10, "time": 2386.0}}, "day": 20, "month": 9, "livingplace": "Winterthur"}}, "location": "Uster"}, "ASICS Bremgarter Reusslauf": {"race": "ASICS Bremgarter Reusslauf", "longitude": 8.3397905, "latitude": 47.34917739999999, "date": {"sam. 25.02.2006": {"weekday": "saturday", "year": 2006, "categories": {"31": {"pace": 227000000000, "rank": 6, "distance": 6, "time": 1272.5}}, "day": 25, "month": 2, "livingplace": "Brutten"}}, "location": "Bremgarten AG"}, "Winterthur Marathon": {"race": "Winterthur Marathon", "longitude": -75.6037351, "latitude": 39.8088766, "date": {"dim. 18.05.2008": {"weekday": "sunday", "year": 2008, "categories": {"10M": {"pace": 226000000000, "rank": 5, "distance": 10, "time": 2266.5}}, "day": 18, "month": 5, "livingplace": "Winterthur"}}, "location": "Winterthur"}, "Walliseller Lauf, Wallisellen": {"race": "Walliseller Lauf, Wallisellen", "date": {"dim. 07.11.2010": {"weekday": "sunday", "year": 2010, "categories": {"M1": {"pace": 242000000000, "rank": 4, "distance": 10, "time": 2304.1}}, "day": 7, "month": 11, "livingplace": "Winterthur"}}, "location": "Wallisellen"}, "20km de Lausanne": {"race": "20km de Lausanne", "longitude": 6.6322734, "latitude": 46.5196535, "date": {"sam. 28.04.2007": {"weekday": "saturday", "year": 2007, "categories": {"10H20": {"pace": 238000000000, "rank": 32, "distance": 10, "time": 2383.4}}, "day": 28, "month": 4, "livingplace": "Bruetten"}, "sam. 22.04.2006": {"weekday": "saturday", "year": 2006, "categories": {"10/H20": {"pace": 236000000000, "rank": 29, "distance": 10, "time": 2368.0}}, "day": 22, "month": 4, "livingplace": "Bruetten"}}, "location": "Lausanne"}, "Wylandlauf, Andelfingen": {"race": "Wylandlauf, Andelfingen", "date": {"sam. 14.06.2008": {"weekday": "saturday", "year": 2008, "categories": {"A": {"pace": 233000000000, "rank": 13, "distance": 15, "time": 3472.6}}, "day": 14, "month": 6, "livingplace": "Winterthur"}}, "location": "Andelfingen"}, "Basler Stadtlauf": {"race": "Basler Stadtlauf", "longitude": 7.5885761, "latitude": 47.5595986, "date": {"sam. 27.11.2010": {"weekday": "saturday", "year": 2010, "categories": {"M": {"pace": 224000000000, "rank": 63, "distance": 6, "time": 1233.3}}, "day": 27, "month": 11, "livingplace": "Winterthur"}}, "location": "Basel"}, "Dietiker Neujahrslauf, Dietikon": {"race": "Dietiker Neujahrslauf, Dietikon", "longitude": 8.39977, "latitude": 47.4053885, "date": {"sam. 12.01.2008": {"weekday": "saturday", "year": 2008, "categories": {"A": {"pace": 245000000000, "rank": 21, "distance": 12, "time": 2973.4}}, "day": 12, "month": 1, "livingplace": "Winterthur"}}, "location": "Dietikon"}, "Gippinger Stauseelauf": {"race": "Gippinger Stauseelauf", "longitude": 8.2152586, "latitude": 47.5810513, "date": {"sam. 31.12.2005": {"weekday": "saturday", "year": 2005, "categories": {"M20": {"pace": 231000000000, "rank": 32, "distance": 8, "time": 1739.3}}, "day": 31, "month": 12, "livingplace": "Brutten"}}, "location": "Leuggern"}, "Basler Marathon-Tage": {"race": "Basler Marathon-Tage", "longitude": 7.5885761, "latitude": 47.5595986, "date": {"sam. 30.10.2004": {"weekday": "saturday", "year": 2004, "categories": {"L-HM/MHK": {"pace": 300000000000, "rank": 34, "distance": 21, "time": 6339.0}}, "day": 30, "month": 10, "livingplace": "Brutten"}}, "location": "Basel"}}, "name": "Meienberg Michael", "birth": 1985}