{"sex": "M", "races": {"Badener Limmat-Lauf, Baden": {"race": "Badener Limmat-Lauf, Baden", "longitude": 8.5303972, "latitude": 48.5699281, "date": {"sam. 27.03.2004": {"weekday": "saturday", "year": 2004, "categories": {"13": {"pace": 322000000000, "rank": 144, "distance": 13, "time": 4236.8}}, "day": 27, "month": 3, "livingplace": "Neuenhof"}, "sam. 22.03.2003": {"weekday": "saturday", "year": 2003, "categories": {"13": {"pace": 403000000000, "rank": 219, "distance": 13, "time": 5299.6}}, "day": 22, "month": 3, "livingplace": "Neuenhof"}}, "location": "Baden"}, "GP Fricktal, Eiken": {"race": "GP Fricktal, Eiken", "date": {"sam. 10.04.2004": {"weekday": "saturday", "year": 2004, "categories": {"13": {"pace": 323000000000, "rank": 208, "distance": 16, "time": 5209.7}}, "day": 10, "month": 4, "livingplace": "Neuenhof"}}, "location": "Eiken"}, "Luzerner Stadtlauf": {"race": "Luzerner Stadtlauf", "longitude": 8.3093072, "latitude": 47.05016819999999, "date": {"sam. 24.04.2004": {"weekday": "saturday", "year": 2004, "categories": {"K/29": {"pace": 307000000000, "rank": 325, "distance": 6, "time": 1691.1}}, "day": 24, "month": 4, "livingplace": "Neuenhof"}}, "location": "Luzern"}, "Z\u00fcrich Marathon, Teamrun und Cityrun": {"race": "Z\u00fcrich Marathon, Teamrun und Cityrun", "longitude": 8.541694, "latitude": 47.3768866, "date": {"dim. 11.04.2010": {"weekday": "sunday", "year": 2010, "categories": {"M45": {"pace": 405000000000, "rank": 501, "distance": 42, "time": 17108.8}}, "day": 11, "month": 4, "livingplace": "Baden"}}, "location": "Z\u00fcrich"}, "ASICS Bremgarter Reusslauf": {"race": "ASICS Bremgarter Reusslauf", "longitude": 8.3397905, "latitude": 47.34917739999999, "date": {"sam. 21.02.2004": {"weekday": "saturday", "year": 2004, "categories": {"13": {"pace": 321000000000, "rank": 451, "distance": 11, "time": 3376.0}}, "day": 21, "month": 2, "livingplace": "Neuenhof"}}, "location": "Bremgarten AG"}, "Basler Stadtlauf": {"race": "Basler Stadtlauf", "longitude": 7.5885761, "latitude": 47.5595986, "date": {"sam. 29.11.2003": {"weekday": "saturday", "year": 2003, "categories": {"N": {"pace": 308000000000, "rank": 389, "distance": 6, "time": 1698.2}}, "day": 29, "month": 11, "livingplace": "Neuenhof"}}, "location": "Basel"}}, "name": "Meier Markus", "birth": 1963}