{"sex": "M", "races": {"Aletsch-Halbmarathon, Bettmeralp": {"race": "Aletsch-Halbmarathon, Bettmeralp", "date": {"dim. 28.06.2015": {"weekday": "sunday", "year": 2015, "categories": {"M20": {"pace": 400000000000, "rank": 117, "distance": 21, "time": 8458.0}}, "day": 28, "month": 6, "livingplace": "Gempen"}}, "location": "Bettmeralp"}, "Bl\u00fcemlisalp-Lauf, Reichenbach": {"race": "Bl\u00fcemlisalp-Lauf, Reichenbach", "longitude": 7.6940529, "latitude": 46.6254387, "date": {"dim. 26.05.2013": {"weekday": "sunday", "year": 2013, "categories": {"M30": {"pace": 354000000000, "rank": 49, "distance": 14, "time": 4964.9}}, "day": 26, "month": 5, "livingplace": "Gempen"}}, "location": "Reichenbach im Kandertal"}, "Gempenlauf, Dornach": {"race": "Gempenlauf, Dornach", "longitude": 7.6170412, "latitude": 47.4790491, "date": {"mer. 06.06.2012": {"weekday": "wednesday", "year": 2012, "categories": {"M20": {"pace": 355000000000, "rank": 82, "distance": 8, "time": 2772.3}}, "day": 6, "month": 6, "livingplace": "Gempen"}}, "location": "Dornach"}, "Swiss IRONTRAIL, Davos": {"race": "Swiss IRONTRAIL, Davos", "longitude": 9.5319859, "latitude": 46.8507835, "date": {"jeu. 13.08.2015": {"weekday": "thursday", "year": 2015, "categories": {"T201-M30": {"pace": 900000000000, "rank": 10, "distance": 200, "time": 180090.8}}, "day": 13, "month": 8, "livingplace": "Gempen"}}, "location": "Chur"}, "Sierre-Zinal, Sierre": {"race": "Sierre-Zinal, Sierre", "longitude": 7.533536199999999, "latitude": 46.29413110000001, "date": {"dim. 10.08.2014": {"weekday": "sunday", "year": 2014, "categories": {"ElitesHo": {"pace": 491000000000, "rank": 320, "distance": 31, "time": 15228.7}}, "day": 10, "month": 8, "livingplace": "Gempen"}}, "location": "Sierre"}, "SwissCityMarathon - Lucerne, Luzern": {"race": "SwissCityMarathon - Lucerne, Luzern", "longitude": 8.3093072, "latitude": 47.05016819999999, "date": {"dim. 27.10.2013": {"weekday": "sunday", "year": 2013, "categories": {"M-M30": {"pace": 314000000000, "rank": 173, "distance": 42, "time": 13255.9}}, "day": 27, "month": 10, "livingplace": "Gempen"}}, "location": "Luzern"}}, "name": "Melicharek Dominik", "birth": 1981}