{"sex": "M", "races": {"Course de l'Escalade, Gen\u00e8ve": {"race": "Course de l'Escalade, Gen\u00e8ve", "longitude": 6.1431577, "latitude": 46.2043907, "date": {"sam. 02.12.2006": {"weekday": "saturday", "year": 2006, "categories": {"Hommes1": {"pace": 242000000000, "rank": 109, "distance": 7, "time": 1759.4}}, "day": 2, "month": 12, "livingplace": "Lutry"}, "sam. 01.12.2007": {"weekday": "saturday", "year": 2007, "categories": {"Elite H": {"pace": 246000000000, "rank": 253, "distance": 7, "time": 1789.9}}, "day": 1, "month": 12, "livingplace": "Lutry"}}, "location": "Gen\u00e8ve"}, "Tour du Chablais #5 Les Mosses": {"race": "Tour du Chablais #5 Les Mosses", "longitude": 6.931504599999999, "latitude": 46.3603257, "date": {"mer. 25.05.2011": {"weekday": "wednesday", "year": 2011, "categories": {"M-M20": {"pace": 296000000000, "rank": 122, "distance": 8, "time": 2370.3}}, "day": 25, "month": 5, "livingplace": "Brent"}}, "location": "Roche VD"}, "20km de Lausanne": {"race": "20km de Lausanne", "longitude": 6.6322734, "latitude": 46.5196535, "date": {"sam. 28.04.2007": {"weekday": "saturday", "year": 2007, "categories": {"20H20": {"pace": 270000000000, "rank": 61, "distance": 20, "time": 5400.6}}, "day": 28, "month": 4, "livingplace": "Lutry"}, "sam. 22.04.2006": {"weekday": "saturday", "year": 2006, "categories": {"20/H20": {"pace": 268000000000, "rank": 55, "distance": 20, "time": 5365.0}}, "day": 22, "month": 4, "livingplace": "Lutry"}}, "location": "Lausanne"}, "Tour du Chablais #3 Le Bouveret": {"race": "Tour du Chablais #3 Le Bouveret", "longitude": 7.0223787, "latitude": 46.1782231, "date": {"mer. 11.05.2011": {"weekday": "wednesday", "year": 2011, "categories": {"M-M20": {"pace": 275000000000, "rank": 146, "distance": 10, "time": 2750.7}}, "day": 11, "month": 5, "livingplace": "Brent"}}, "location": "Evionnaz"}, "Tour du Chablais #1 Lavey": {"race": "Tour du Chablais #1 Lavey", "longitude": 6.9916269, "latitude": 46.2957462, "date": {"mer. 27.04.2011": {"weekday": "wednesday", "year": 2011, "categories": {"M-M20": {"pace": 284000000000, "rank": 141, "distance": 9, "time": 2556.8}}, "day": 27, "month": 4, "livingplace": "Brent"}}, "location": "Ollon VD"}, "Morat-Fribourg": {"race": "Morat-Fribourg", "longitude": 7.120184, "latitude": 46.92922110000001, "date": {"sam. 04.10.2008": {"weekday": "saturday", "year": 2008, "categories": {"C-M20": {"pace": 277000000000, "rank": 513, "distance": 17, "time": 4761.1}}, "day": 4, "month": 10, "livingplace": "Lutry"}}, "location": "Murten"}, "Tour du Chablais #6 Aigle": {"race": "Tour du Chablais #6 Aigle", "longitude": 6.970566, "latitude": 46.3190253, "date": {"mer. 01.06.2011": {"weekday": "wednesday", "year": 2011, "categories": {"M-M20": {"pace": 256000000000, "rank": 101, "distance": 10, "time": 2619.5}}, "day": 1, "month": 6, "livingplace": "Brent"}}, "location": "Aigle"}, "Tour du Chablais #4 Morgins": {"race": "Tour du Chablais #4 Morgins", "date": {"mer. 18.05.2011": {"weekday": "wednesday", "year": 2011, "categories": {"M-M20": {"pace": 283000000000, "rank": 107, "distance": 8, "time": 2366.9}}, "day": 18, "month": 5, "livingplace": "Brent"}}, "location": "Les Mosses"}, "Tour du Chablais #2 Rennaz": {"race": "Tour du Chablais #2 Rennaz", "longitude": 6.854975199999999, "latitude": 46.3835529, "date": {"mer. 04.05.2011": {"weekday": "wednesday", "year": 2011, "categories": {"M-M20": {"pace": 272000000000, "rank": 126, "distance": 9, "time": 2544.3}}, "day": 4, "month": 5, "livingplace": "Brent"}}, "location": "Bouveret"}}, "name": "Menzel Jacques", "birth": 1982}