{"sex": "F", "races": {"Tour du Chablais #5 Leysin": {"race": "Tour du Chablais #5 Leysin", "longitude": 6.931504599999999, "latitude": 46.3603257, "date": {"mer. 05.05.2010": {"weekday": "wednesday", "year": 2010, "categories": {"F-F20": {"pace": 332000000000, "rank": 33, "distance": 8, "time": 2808.9}}, "day": 5, "month": 5, "livingplace": "Leysin"}}, "location": "Roche VD"}, "Course p\u00e9destre Thyon-Dixence, Thyon": {"race": "Course p\u00e9destre Thyon-Dixence, Thyon", "date": {"dim. 03.08.2014": {"weekday": "sunday", "year": 2014, "categories": {"FemElite": {"pace": 510000000000, "rank": 33, "distance": 16, "time": 8346.0}}, "day": 3, "month": 8, "livingplace": "Leysin"}}, "location": "Thyon-Les Collons"}, "Humani'Trail, Les Diablerets": {"race": "Humani'Trail, Les Diablerets", "longitude": 7.158055999999999, "latitude": 46.351389, "date": {"sam. 21.09.2013": {"weekday": "saturday", "year": 2013, "categories": {"25-FS": {"pace": 775000000000, "rank": 38, "distance": 25, "time": 19394.8}}, "day": 21, "month": 9, "livingplace": "Leysin"}}, "location": "Les Diablerets"}, "Tour du Chablais #4 Morgins": {"race": "Tour du Chablais #4 Morgins", "date": {"mer. 18.05.2011": {"weekday": "wednesday", "year": 2011, "categories": {"F-F20": {"pace": 320000000000, "rank": 41, "distance": 8, "time": 2676.6}}, "day": 18, "month": 5, "livingplace": "Leysin"}}, "location": "Les Mosses"}, "Tour du Chablais #2 St-Gingolph": {"race": "Tour du Chablais #2 St-Gingolph", "longitude": 6.854975199999999, "latitude": 46.3835529, "date": {"mer. 14.04.2010": {"weekday": "wednesday", "year": 2010, "categories": {"F-F20": {"pace": 340000000000, "rank": 40, "distance": 8, "time": 2840.4}}, "day": 14, "month": 4, "livingplace": "Leysin"}}, "location": "Bouveret"}, "Tour du Chablais #3 Bex": {"race": "Tour du Chablais #3 Bex", "longitude": 7.0223787, "latitude": 46.1782231, "date": {"mer. 21.04.2010": {"weekday": "wednesday", "year": 2010, "categories": {"F-F20": {"pace": 316000000000, "rank": 50, "distance": 10, "time": 3168.5}}, "day": 21, "month": 4, "livingplace": "Leysin"}}, "location": "Evionnaz"}, "Tour du Chablais #4 St  Maurice": {"race": "Tour du Chablais #4 St  Maurice", "date": {"mer. 24.04.2013": {"weekday": "wednesday", "year": 2013, "categories": {"F-F20": {"pace": 304000000000, "rank": 37, "distance": 10, "time": 3044.9}}, "day": 24, "month": 4, "livingplace": "Leysin"}}, "location": "Les Mosses"}, "Les Traine-Savates, Cheseaux-sur-Lausanne": {"race": "Les Traine-Savates, Cheseaux-sur-Lausanne", "longitude": 6.6047712, "latitude": 46.585452, "date": {"sam. 13.04.2013": {"weekday": "saturday", "year": 2013, "categories": {"10-W20": {"pace": 305000000000, "rank": 42, "distance": 10, "time": 3147.2}}, "day": 13, "month": 4, "livingplace": "Leysin"}}, "location": "Cheseaux-sur-Lausanne"}, "Tour du Chablais #2 Rennaz": {"race": "Tour du Chablais #2 Rennaz", "longitude": 6.854975199999999, "latitude": 46.3835529, "date": {"mer. 04.05.2011": {"weekday": "wednesday", "year": 2011, "categories": {"F-F20": {"pace": 306000000000, "rank": 36, "distance": 9, "time": 2868.0}}, "day": 4, "month": 5, "livingplace": "Leysin"}}, "location": "Bouveret"}, "Tour du Chablais #6 Monthey": {"race": "Tour du Chablais #6 Monthey", "longitude": 6.970566, "latitude": 46.3190253, "date": {"mer. 08.05.2013": {"weekday": "wednesday", "year": 2013, "categories": {"F-F20": {"pace": 282000000000, "rank": 27, "distance": 9, "time": 2631.7}}, "day": 8, "month": 5, "livingplace": "Leysin"}}, "location": "Aigle"}, "Tour du Chablais #2 Yvorne": {"race": "Tour du Chablais #2 Yvorne", "longitude": 6.854975199999999, "latitude": 46.3835529, "date": {"mer. 10.04.2013": {"weekday": "wednesday", "year": 2013, "categories": {"F-F20": {"pace": 315000000000, "rank": 28, "distance": 8, "time": 2522.6}}, "day": 10, "month": 4, "livingplace": "Leysin"}}, "location": "Bouveret"}, "Tour du Chablais #4 Yvorne": {"race": "Tour du Chablais #4 Yvorne", "date": {"mer. 28.04.2010": {"weekday": "wednesday", "year": 2010, "categories": {"F-F20": {"pace": 335000000000, "rank": 45, "distance": 8, "time": 2775.5}}, "day": 28, "month": 4, "livingplace": "Leysin"}}, "location": "Les Mosses"}, "Tour du Chablais #3 Bouveret": {"race": "Tour du Chablais #3 Bouveret", "longitude": 7.0223787, "latitude": 46.1782231, "date": {"mer. 17.04.2013": {"weekday": "wednesday", "year": 2013, "categories": {"F-F20": {"pace": 294000000000, "rank": 29, "distance": 10, "time": 2944.9}}, "day": 17, "month": 4, "livingplace": "Leysin"}}, "location": "Evionnaz"}, "Tour du Chablais #1 Roche": {"race": "Tour du Chablais #1 Roche", "longitude": 6.9916269, "latitude": 46.2957462, "date": {"mer. 03.04.2013": {"weekday": "wednesday", "year": 2013, "categories": {"F-F20": {"pace": 290000000000, "rank": 32, "distance": 9, "time": 2577.1}}, "day": 3, "month": 4, "livingplace": "Leysin"}, "mer. 07.04.2010": {"weekday": "wednesday", "year": 2010, "categories": {"F-F20": {"pace": 323000000000, "rank": 74, "distance": 9, "time": 2895.4}}, "day": 7, "month": 4, "livingplace": "Leysin"}}, "location": "Ollon VD"}, "Tour du Chablais #1 Martigny": {"race": "Tour du Chablais #1 Martigny", "longitude": 6.9916269, "latitude": 46.2957462, "date": {"mer. 23.04.2014": {"weekday": "wednesday", "year": 2014, "categories": {"F-F20": {"pace": 283000000000, "rank": 32, "distance": 9, "time": 2412.7}}, "day": 23, "month": 4, "livingplace": "Leysin"}}, "location": "Ollon VD"}, "Morat-Fribourg": {"race": "Morat-Fribourg", "longitude": 7.120184, "latitude": 46.92922110000001, "date": {"sam. 01.10.2011": {"weekday": "saturday", "year": 2011, "categories": {"17-W20": {"pace": 397000000000, "rank": 407, "distance": 17, "time": 6822.1}}, "day": 1, "month": 10, "livingplace": "Leysin"}}, "location": "Murten"}, "Tour du Chablais #6 Aigle": {"race": "Tour du Chablais #6 Aigle", "longitude": 6.970566, "latitude": 46.3190253, "date": {"mer. 01.06.2011": {"weekday": "wednesday", "year": 2011, "categories": {"F-F20": {"pace": 292000000000, "rank": 42, "distance": 10, "time": 2984.0}}, "day": 1, "month": 6, "livingplace": "Leysin"}}, "location": "Aigle"}, "Tour du Chablais #6 Mouthey": {"race": "Tour du Chablais #6 Mouthey", "longitude": 6.970566, "latitude": 46.3190253, "date": {"mer. 12.05.2010": {"weekday": "wednesday", "year": 2010, "categories": {"F-F20": {"pace": 302000000000, "rank": 44, "distance": 9, "time": 2782.2}}, "day": 12, "month": 5, "livingplace": "Leysin"}}, "location": "Aigle"}, "Tour du Chablais #5 Les Mosses": {"race": "Tour du Chablais #5 Les Mosses", "longitude": 6.931504599999999, "latitude": 46.3603257, "date": {"mer. 25.05.2011": {"weekday": "wednesday", "year": 2011, "categories": {"F-F20": {"pace": 327000000000, "rank": 39, "distance": 8, "time": 2619.4}}, "day": 25, "month": 5, "livingplace": "Leysin"}}, "location": "Roche VD"}, "Semi-Marathon de la C\u00f4te, Allaman-Nyon": {"race": "Semi-Marathon de la C\u00f4te, Allaman-Nyon", "longitude": 6.2347852, "latitude": 46.3832683, "date": {"dim. 14.09.2014": {"weekday": "sunday", "year": 2014, "categories": {"21-F30": {"pace": 320000000000, "rank": 33, "distance": 21, "time": 6762.7}}, "day": 14, "month": 9, "livingplace": "Leysin"}}, "location": "Nyon"}, "Tour du Chablais #5 Morgins": {"race": "Tour du Chablais #5 Morgins", "longitude": 6.931504599999999, "latitude": 46.3603257, "date": {"mer. 01.05.2013": {"weekday": "wednesday", "year": 2013, "categories": {"F-F20": {"pace": 299000000000, "rank": 20, "distance": 8, "time": 2272.6}}, "day": 1, "month": 5, "livingplace": "Leysin"}}, "location": "Roche VD"}, "Tour du Chablais #3 Le Bouveret": {"race": "Tour du Chablais #3 Le Bouveret", "longitude": 7.0223787, "latitude": 46.1782231, "date": {"mer. 11.05.2011": {"weekday": "wednesday", "year": 2011, "categories": {"F-F20": {"pace": 313000000000, "rank": 48, "distance": 10, "time": 3130.4}}, "day": 11, "month": 5, "livingplace": "Leysin"}}, "location": "Evionnaz"}, "Tour du Chablais #1 Lavey": {"race": "Tour du Chablais #1 Lavey", "longitude": 6.9916269, "latitude": 46.2957462, "date": {"mer. 27.04.2011": {"weekday": "wednesday", "year": 2011, "categories": {"F-F20": {"pace": 322000000000, "rank": 49, "distance": 9, "time": 2905.8}}, "day": 27, "month": 4, "livingplace": "Leysin"}}, "location": "Ollon VD"}}, "name": "M\u00e9traux Val\u00e9rie", "birth": 1978}