{"sex": "M", "races": {"BCN Tour Neuch\u00e2tel": {"race": "BCN Tour Neuch\u00e2tel", "longitude": 6.9292732, "latitude": 46.9899874, "date": {"mer. 26.05.2010": {"weekday": "wednesday", "year": 2010, "categories": {"HE": {"pace": 445000000000, "rank": 197, "distance": 10, "time": 4324.7}}, "day": 26, "month": 5, "livingplace": "Neuchatel"}}, "location": "Neuch\u00e2tel"}, "BCN Tour Auvernier": {"race": "BCN Tour Auvernier", "longitude": 6.8589727, "latitude": 46.9668714, "date": {"mer. 20.04.2011": {"weekday": "wednesday", "year": 2011, "categories": {"HE": {"pace": 396000000000, "rank": 193, "distance": 11, "time": 4277.2}}, "day": 20, "month": 4, "livingplace": "Neuchatel"}}, "location": "Colombier NE"}, "Int  Bieler Cross, Biel-Bienne": {"race": "Int  Bieler Cross, Biel-Bienne", "longitude": 7.2467909, "latitude": 47.1367785, "date": {"dim. 10.11.2013": {"weekday": "sunday", "year": 2013, "categories": {"M30": {"pace": 381000000000, "rank": 19, "distance": 8, "time": 3054.8}}, "day": 10, "month": 11, "livingplace": "Bern"}}, "location": "Biel/Bienne"}, "D\u00e9fi Val-de-Travers, Couvet": {"race": "D\u00e9fi Val-de-Travers, Couvet", "longitude": 6.6324944, "latitude": 46.9262933, "date": {"sam. 19.06.2010": {"weekday": "saturday", "year": 2010, "categories": {"21-Hom": {"pace": 383000000000, "rank": 22, "distance": 20, "time": 7547.4}}, "day": 19, "month": 6, "livingplace": "Neuchatel"}}, "location": "Couvet"}, "Sierre-Zinal, Sierre": {"race": "Sierre-Zinal, Sierre", "longitude": 7.533536199999999, "latitude": 46.29413110000001, "date": {"dim. 12.08.2012": {"weekday": "sunday", "year": 2012, "categories": {"Elites": {"pace": 772000000000, "rank": 483, "distance": 31, "time": 23932.9}}, "day": 12, "month": 8, "livingplace": "Neuchatel"}}, "location": "Sierre"}, "BCN Tour Fontaine Cernier": {"race": "BCN Tour Fontaine Cernier", "longitude": 6.9175754, "latitude": 47.0624261, "date": {"mer. 27.04.2011": {"weekday": "wednesday", "year": 2011, "categories": {"HE": {"pace": 323000000000, "rank": 195, "distance": 10, "time": 3336.0}}, "day": 27, "month": 4, "livingplace": "Neuchatel"}}, "location": "Ch\u00e9zard-St-Martin"}, "Rotseelauf, Ebikon": {"race": "Rotseelauf, Ebikon", "date": {"sam. 12.04.2014": {"weekday": "saturday", "year": 2014, "categories": {"10-M30": {"pace": 365000000000, "rank": 161, "distance": 10, "time": 3657.9}}, "day": 12, "month": 4, "livingplace": "Bern"}}, "location": "Ebikon"}, "Kerzerslauf": {"race": "Kerzerslauf", "longitude": 7.1954365, "latitude": 46.97488999999999, "date": {"sam. 15.03.2014": {"weekday": "saturday", "year": 2014, "categories": {"15-M20": {"pace": 380000000000, "rank": 616, "distance": 15, "time": 5702.0}}, "day": 15, "month": 3, "livingplace": "Bern"}, "sam. 21.03.2015": {"weekday": "saturday", "year": 2015, "categories": {"15-M20": {"pace": 343000000000, "rank": 574, "distance": 15, "time": 5156.1}}, "day": 21, "month": 3, "livingplace": "Bern"}}, "location": "Kerzers"}}, "name": "Meuli Dominic", "birth": 1983}