{"sex": "F", "races": {"Liestaler Stadtlauf": {"race": "Liestaler Stadtlauf", "longitude": 7.7334272, "latitude": 47.4866143, "date": {"mer. 29.08.2007": {"weekday": "wednesday", "year": 2007, "categories": {"W40": {"pace": 311000000000, "rank": 4, "distance": 12, "time": 3738.5}}, "day": 29, "month": 8, "livingplace": "Lausen"}, "mer. 26.08.2009": {"weekday": "wednesday", "year": 2009, "categories": {"W40": {"pace": 291000000000, "rank": 4, "distance": 12, "time": 3502.1}}, "day": 26, "month": 8, "livingplace": "Lausen"}}, "location": "Liestal"}, "Basel City Marathon": {"race": "Basel City Marathon", "longitude": 7.5885761, "latitude": 47.5595986, "date": {"dim. 28.08.2005": {"weekday": "sunday", "year": 2005, "categories": {"F40": {"pace": 317000000000, "rank": 13, "distance": 42, "time": 13411.1}}, "day": 28, "month": 8, "livingplace": "Lausen"}, "dim. 03.09.2006": {"weekday": "sunday", "year": 2006, "categories": {"H-F40": {"pace": 283000000000, "rank": 4, "distance": 21, "time": 5970.5}}, "day": 3, "month": 9, "livingplace": "Lausen"}}, "location": "Basel"}, "A travers Carouge - Run to Run": {"race": "A travers Carouge - Run to Run", "longitude": 6.1378539, "latitude": 46.1829674, "date": {"sam. 20.09.2008": {"weekday": "saturday", "year": 2008, "categories": {"W40/10": {"pace": 261000000000, "rank": 6, "distance": 10, "time": 2616.5}}, "day": 20, "month": 9, "livingplace": "Lausen"}}, "location": "Carouge GE"}, "Hallwilerseelauf, Beinwil am See": {"race": "Hallwilerseelauf, Beinwil am See", "date": {"sam. 15.10.2005": {"weekday": "saturday", "year": 2005, "categories": {"F40": {"pace": 284000000000, "rank": 23, "distance": 21, "time": 6005.4}}, "day": 15, "month": 10, "livingplace": "Lausen"}, "sam. 10.10.2009": {"weekday": "saturday", "year": 2009, "categories": {"10-Frau": {"pace": 264000000000, "rank": 17, "distance": 10, "time": 2647.2}}, "day": 10, "month": 10, "livingplace": "Lausen"}}, "location": "Beinwil am See"}, "Zofinger Stadtlauf, Zofingen": {"race": "Zofinger Stadtlauf, Zofingen", "date": {"sam. 16.05.2009": {"weekday": "saturday", "year": 2009, "categories": {"W35": {"pace": 264000000000, "rank": 3, "distance": 7, "time": 1719.2}}, "day": 16, "month": 5, "livingplace": "Lausen"}}, "location": "Zofingen"}, "Gempenlauf, Dornach": {"race": "Gempenlauf, Dornach", "longitude": 7.6170412, "latitude": 47.4790491, "date": {"mer. 03.06.2009": {"weekday": "wednesday", "year": 2009, "categories": {"F40": {"pace": 352000000000, "rank": 6, "distance": 8, "time": 2749.0}}, "day": 3, "month": 6, "livingplace": "Lausen"}}, "location": "Dornach"}, "Int Greifenseelauf, Uster": {"race": "Int Greifenseelauf, Uster", "longitude": 8.717873899999999, "latitude": 47.3482747, "date": {"sam. 22.09.2007": {"weekday": "saturday", "year": 2007, "categories": {"K/W40": {"pace": 316000000000, "rank": 90, "distance": 21, "time": 6674.5}}, "day": 22, "month": 9, "livingplace": "Zurich"}}, "location": "Uster"}, "St  Galler Altstadtlauf": {"race": "St  Galler Altstadtlauf", "longitude": 9.3767173, "latitude": 47.4244818, "date": {"sam. 27.09.2008": {"weekday": "saturday", "year": 2008, "categories": {"Sen2 F": {"pace": 313000000000, "rank": 4, "distance": 6, "time": 1974.7}}, "day": 27, "month": 9, "livingplace": "Lausen"}}, "location": "St. Gallen"}, "10km de Payerne": {"race": "10km de Payerne", "longitude": 6.9405663, "latitude": 46.8220266, "date": {"sam. 28.03.2009": {"weekday": "saturday", "year": 2009, "categories": {"W40": {"pace": 257000000000, "rank": 5, "distance": 10, "time": 2571.8}}, "day": 28, "month": 3, "livingplace": "Lausen"}}, "location": "Payerne"}, "Sihltaler Fr\u00fchlingslauf, Gattikon": {"race": "Sihltaler Fr\u00fchlingslauf, Gattikon", "longitude": 8.5644799, "latitude": 47.2949282, "date": {"ven. 01.05.2009": {"weekday": "friday", "year": 2009, "categories": {"F40": {"pace": 277000000000, "rank": 6, "distance": 10, "time": 2775.2}}, "day": 1, "month": 5, "livingplace": "Lausen"}}, "location": "Gattikon"}, "Pfingstlauf Wohlen AG": {"race": "Pfingstlauf Wohlen AG", "longitude": 8.2768762, "latitude": 47.3493653, "date": {"sam. 30.05.2009": {"weekday": "saturday", "year": 2009, "categories": {"8-F40": {"pace": 269000000000, "rank": 12, "distance": 8, "time": 2212.6}}, "day": 30, "month": 5, "livingplace": "Lausen"}}, "location": "Wohlen AG"}, "Gippinger Stauseelauf": {"race": "Gippinger Stauseelauf", "longitude": 8.2152586, "latitude": 47.5810513, "date": {"dim. 31.12.2006": {"weekday": "sunday", "year": 2006, "categories": {"F40": {"pace": 278000000000, "rank": 22, "distance": 8, "time": 2085.6}}, "day": 31, "month": 12, "livingplace": "Lausen"}}, "location": "Leuggern"}, "Langenthaler Stadtlauf": {"race": "Langenthaler Stadtlauf", "longitude": 7.790562299999999, "latitude": 47.2120786, "date": {"sam. 19.11.2011": {"weekday": "saturday", "year": 2011, "categories": {"W45": {"pace": 256000000000, "rank": 3, "distance": 6, "time": 1601.8}}, "day": 19, "month": 11, "livingplace": "Lausen"}, "sam. 22.11.2008": {"weekday": "saturday", "year": 2008, "categories": {"W40": {"pace": 247000000000, "rank": 3, "distance": 6, "time": 1549.9}}, "day": 22, "month": 11, "livingplace": "Lausen"}}, "location": "Langenthal"}, "Kerzerslauf": {"race": "Kerzerslauf", "longitude": 7.1954365, "latitude": 46.97488999999999, "date": {"sam. 15.03.2008": {"weekday": "saturday", "year": 2008, "categories": {"15/F40": {"pace": 290000000000, "rank": 44, "distance": 15, "time": 4363.1}}, "day": 15, "month": 3, "livingplace": "Lausen"}}, "location": "Kerzers"}}, "name": "Meyer-Wenger Anita", "birth": 1965}