{"sex": "F", "races": {"20km de Lausanne": {"race": "20km de Lausanne", "longitude": 6.6322734, "latitude": 46.5196535, "date": {"sam. 25.04.2015": {"weekday": "saturday", "year": 2015, "categories": {"10-F20": {"pace": 292000000000, "rank": 68, "distance": 10, "time": 2921.7}}, "day": 25, "month": 4, "livingplace": "ProCycles Scott running"}, "sam. 27.04.2013": {"weekday": "saturday", "year": 2013, "categories": {"10-F20": {"pace": 294000000000, "rank": 59, "distance": 10, "time": 2941.2}}, "day": 27, "month": 4, "livingplace": "Belp"}}, "location": "Lausanne"}, "Schweizer Frauenlauf Bern": {"race": "Schweizer Frauenlauf Bern", "longitude": 7.4474468, "latitude": 46.9479739, "date": {"dim. 10.06.2012": {"weekday": "sunday", "year": 2012, "categories": {"5-W20": {"pace": 286000000000, "rank": 75, "distance": 5, "time": 1432.8}}, "day": 10, "month": 6, "livingplace": "Belp"}}, "location": "Bern"}, "Aletsch-Halbmarathon, Bettmeralp": {"race": "Aletsch-Halbmarathon, Bettmeralp", "date": {"dim. 29.06.2014": {"weekday": "sunday", "year": 2014, "categories": {"F20": {"pace": 413000000000, "rank": 86, "distance": 13, "time": 5499.9}}, "day": 29, "month": 6, "livingplace": "Sugiez"}, "dim. 28.06.2015": {"weekday": "sunday", "year": 2015, "categories": {"F20": {"pace": 479000000000, "rank": 71, "distance": 21, "time": 10107.2}}, "day": 28, "month": 6, "livingplace": "ProCycles Scott running"}}, "location": "Bettmeralp"}, "Tour du Pays de Vaud #4 - La Sarraz": {"race": "Tour du Pays de Vaud #4 - La Sarraz", "longitude": 6.5707689, "latitude": 46.7088129, "date": {"mer. 29.08.2012": {"weekday": "wednesday", "year": 2012, "categories": {"D-Dam": {"pace": 294000000000, "rank": 17, "distance": 9, "time": 2507.2}}, "day": 29, "month": 8, "livingplace": "Belp"}}, "location": "Chavornay"}, "Tour du Pays de Vaud #3 - Mezi\u00e8res": {"race": "Tour du Pays de Vaud #3 - Mezi\u00e8res", "longitude": 6.641183, "latitude": 46.7784736, "date": {"mer. 22.08.2012": {"weekday": "wednesday", "year": 2012, "categories": {"D-Dam": {"pace": 328000000000, "rank": 24, "distance": 8, "time": 2755.6}}, "day": 22, "month": 8, "livingplace": "Belp"}}, "location": "Yverdon-les-Bains"}, "Kerzerslauf": {"race": "Kerzerslauf", "longitude": 7.1954365, "latitude": 46.97488999999999, "date": {"sam. 15.03.2014": {"weekday": "saturday", "year": 2014, "categories": {"15-F20": {"pace": 296000000000, "rank": 97, "distance": 15, "time": 4444.4}}, "day": 15, "month": 3, "livingplace": "Sugiez"}, "sam. 21.03.2015": {"weekday": "saturday", "year": 2015, "categories": {"15-F20": {"pace": 296000000000, "rank": 93, "distance": 15, "time": 4446.2}}, "day": 21, "month": 3, "livingplace": "Sugiez"}}, "location": "Kerzers"}, "Tour du pays de Vaud #1 - Penthaz": {"race": "Tour du pays de Vaud #1 - Penthaz", "longitude": 6.539251200000001, "latitude": 46.5993131, "date": {"mer. 08.08.2012": {"weekday": "wednesday", "year": 2012, "categories": {"D-Dam": {"pace": 325000000000, "rank": 31, "distance": 9, "time": 2773.2}}, "day": 8, "month": 8, "livingplace": "Belp"}}, "location": "Penthaz"}, "Morat-Fribourg": {"race": "Morat-Fribourg", "longitude": 7.120184, "latitude": 46.92922110000001, "date": {"sam. 03.10.2015": {"weekday": "saturday", "year": 2015, "categories": {"17-W20": {"pace": 306000000000, "rank": 84, "distance": 17, "time": 5256.5}}, "day": 3, "month": 10, "livingplace": "Sugiez"}, "sam. 06.10.2012": {"weekday": "saturday", "year": 2012, "categories": {"17-W20": {"pace": 330000000000, "rank": 204, "distance": 17, "time": 5774.9}}, "day": 6, "month": 10, "livingplace": "Belp"}}, "location": "Murten"}, "Basler Stadtlauf": {"race": "Basler Stadtlauf", "longitude": 7.5885761, "latitude": 47.5595986, "date": {"sam. 24.11.2012": {"weekday": "saturday", "year": 2012, "categories": {"F20": {"pace": 276000000000, "rank": 76, "distance": 6, "time": 1521.6}}, "day": 24, "month": 11, "livingplace": "Belp"}}, "location": "Basel"}}, "name": "Meyer Sabrina", "birth": 1988}