{"sex": "M", "races": {"BCN Tour Neuch\u00e2tel": {"race": "BCN Tour Neuch\u00e2tel", "longitude": 6.9292732, "latitude": 46.9899874, "date": {"mer. 26.05.2010": {"weekday": "wednesday", "year": 2010, "categories": {"HS2": {"pace": 442000000000, "rank": 271, "distance": 10, "time": 4295.0}}, "day": 26, "month": 5, "livingplace": "Marin Epagnier"}}, "location": "Neuch\u00e2tel"}, "Brienzerseelauf, B\u00f6nigen": {"race": "Brienzerseelauf, B\u00f6nigen", "date": {"sam. 10.10.2015": {"weekday": "saturday", "year": 2015, "categories": {"3-M50": {"pace": 371000000000, "rank": 44, "distance": 35, "time": 13009.8}}, "day": 10, "month": 10, "livingplace": "Marin Epagnier"}}, "location": "B\u00f6nigen b. Interlaken"}, "BCN Tour M\u00f4tier": {"race": "BCN Tour M\u00f4tier", "longitude": 6.6324944, "latitude": 46.9262933, "date": {"mer. 19.05.2010": {"weekday": "wednesday", "year": 2010, "categories": {"HS2": {"pace": 334000000000, "rank": 235, "distance": 10, "time": 3313.6}}, "day": 19, "month": 5, "livingplace": "Marin Epagnier"}}, "location": "Couvet"}, "BCN Tour Fontaine Cernier": {"race": "BCN Tour Fontaine Cernier", "longitude": 6.9175754, "latitude": 47.0624261, "date": {"mer. 27.04.2011": {"weekday": "wednesday", "year": 2011, "categories": {"HS2": {"pace": 344000000000, "rank": 294, "distance": 10, "time": 3545.9}}, "day": 27, "month": 4, "livingplace": "Marin Epagnier"}}, "location": "Ch\u00e9zard-St-Martin"}, "BCN Tour Colombier": {"race": "BCN Tour Colombier", "longitude": 6.8589727, "latitude": 46.9668714, "date": {"mer. 21.04.2010": {"weekday": "wednesday", "year": 2010, "categories": {"HS2": {"pace": 390000000000, "rank": 268, "distance": 10, "time": 3901.3}}, "day": 21, "month": 4, "livingplace": "Marin Epagnier"}}, "location": "Colombier NE"}, "BCN Tour Le Landeron": {"race": "BCN Tour Le Landeron", "longitude": 6.8589727, "latitude": 46.9668714, "date": {"mer. 22.04.2009": {"weekday": "wednesday", "year": 2009, "categories": {"HS2": {"pace": 332000000000, "rank": 188, "distance": 11, "time": 3687.6}}, "day": 22, "month": 4, "livingplace": "Marin Epagnier"}}, "location": "Colombier NE"}, "BCN Tour La Chaux-de-fonds": {"race": "BCN Tour La Chaux-de-fonds", "longitude": 6.832783800000001, "latitude": 47.1034892, "date": {"mer. 12.05.2010": {"weekday": "wednesday", "year": 2010, "categories": {"HS2": {"pace": 413000000000, "rank": 210, "distance": 11, "time": 4424.7}}, "day": 12, "month": 5, "livingplace": "Marin Epagnier"}}, "location": "La Chaux-de-Fonds"}}, "name": "Meyer Jacques", "birth": 1965}