{"sex": "M", "races": {"Course de l'Escalade, Gen\u00e8ve": {"race": "Course de l'Escalade, Gen\u00e8ve", "longitude": 6.1431577, "latitude": 46.2043907, "date": {"sam. 01.12.2007": {"weekday": "saturday", "year": 2007, "categories": {"DucH2": {"pace": 238000000000, "rank": 84, "distance": 18, "time": 4338.7}}, "day": 1, "month": 12, "livingplace": "Marin Epagnier"}}, "location": "Gen\u00e8ve"}, "BCN Tour Les Ponts de Martel": {"race": "BCN Tour Les Ponts de Martel", "longitude": 6.6324944, "latitude": 46.9262933, "date": {"mer. 18.05.2011": {"weekday": "wednesday", "year": 2011, "categories": {"HS2": {"pace": 268000000000, "rank": 40, "distance": 13, "time": 3439.9}}, "day": 18, "month": 5, "livingplace": "Marin Epagnier"}}, "location": "Couvet"}, "BCN Tour #1 Corcelles": {"race": "BCN Tour #1 Corcelles", "longitude": 6.8589727, "latitude": 46.9668714, "date": {"mer. 24.04.2013": {"weekday": "wednesday", "year": 2013, "categories": {"HS2": {"pace": 257000000000, "rank": 45, "distance": 10, "time": 2522.1}}, "day": 24, "month": 4, "livingplace": "Marin Epagnier"}}, "location": "Colombier NE"}, "BCN Tour La Chaux-de-Fonds": {"race": "BCN Tour La Chaux-de-Fonds", "longitude": 6.832783800000001, "latitude": 47.1034892, "date": {"mer. 11.05.2011": {"weekday": "wednesday", "year": 2011, "categories": {"HS2": {"pace": 299000000000, "rank": 44, "distance": 11, "time": 3209.6}}, "day": 11, "month": 5, "livingplace": "Marin Epagnier"}}, "location": "La Chaux-de-Fonds"}, "BCN Tour Auvernier": {"race": "BCN Tour Auvernier", "longitude": 6.8589727, "latitude": 46.9668714, "date": {"mer. 20.04.2011": {"weekday": "wednesday", "year": 2011, "categories": {"HS2": {"pace": 271000000000, "rank": 50, "distance": 11, "time": 2930.9}}, "day": 20, "month": 4, "livingplace": "Marin Epagnier"}}, "location": "Colombier NE"}, "La Trotteuse-Tissot, La Chaux-de-Fonds": {"race": "La Trotteuse-Tissot, La Chaux-de-Fonds", "longitude": 6.832783800000001, "latitude": 47.1034892, "date": {"sam. 12.12.2015": {"weekday": "saturday", "year": 2015, "categories": {"GC-H40": {"pace": 277000000000, "rank": 98, "distance": 8, "time": 2221.0}}, "day": 12, "month": 12, "livingplace": "La Coudre"}, "sam. 18.12.2010": {"weekday": "saturday", "year": 2010, "categories": {"GC-H30": {"pace": 290000000000, "rank": 54, "distance": 8, "time": 2323.6}}, "day": 18, "month": 12, "livingplace": "Marin Epagnier"}}, "location": "La Chaux-de-Fonds"}, "BCN Tour Le Landeron": {"race": "BCN Tour Le Landeron", "longitude": 6.8589727, "latitude": 46.9668714, "date": {"mer. 22.04.2009": {"weekday": "wednesday", "year": 2009, "categories": {"HS1": {"pace": 254000000000, "rank": 35, "distance": 11, "time": 2821.9}}, "day": 22, "month": 4, "livingplace": "Marin Epagnier"}}, "location": "Colombier NE"}, "BCN Tour Boudry": {"race": "BCN Tour Boudry", "longitude": 6.8589727, "latitude": 46.9668714, "date": {"mer. 26.04.2006": {"weekday": "wednesday", "year": 2006, "categories": {"HS1": {"pace": 288000000000, "rank": 93, "distance": 10, "time": 2943.1}}, "day": 26, "month": 4, "livingplace": "Marin Epagnier"}}, "location": "Colombier NE"}, "BCN Tour Fontaine Cernier": {"race": "BCN Tour Fontaine Cernier", "longitude": 6.9175754, "latitude": 47.0624261, "date": {"mer. 27.04.2011": {"weekday": "wednesday", "year": 2011, "categories": {"HS2": {"pace": 250000000000, "rank": 34, "distance": 10, "time": 2577.4}}, "day": 27, "month": 4, "livingplace": "Marin Epagnier"}}, "location": "Ch\u00e9zard-St-Martin"}, "Morat-Fribourg": {"race": "Morat-Fribourg", "longitude": 7.120184, "latitude": 46.92922110000001, "date": {"sam. 03.10.2009": {"weekday": "saturday", "year": 2009, "categories": {"C-M20": {"pace": 261000000000, "rank": 251, "distance": 17, "time": 4484.2}}, "day": 3, "month": 10, "livingplace": "Marin Epagnier"}, "sam. 06.10.2007": {"weekday": "saturday", "year": 2007, "categories": {"C/M20": {"pace": 250000000000, "rank": 180, "distance": 17, "time": 4293.0}}, "day": 6, "month": 10, "livingplace": "Marin Epagnier"}, "sam. 01.10.2011": {"weekday": "saturday", "year": 2011, "categories": {"17-M40": {"pace": 252000000000, "rank": 65, "distance": 17, "time": 4343.4}}, "day": 1, "month": 10, "livingplace": "Marin Epagnier"}, "sam. 04.10.2008": {"weekday": "saturday", "year": 2008, "categories": {"C-M20": {"pace": 242000000000, "rank": 110, "distance": 17, "time": 4155.3}}, "day": 4, "month": 10, "livingplace": "Marin Epagnier"}}, "location": "Murten"}, "BCN Tour La Br\u00e9vine": {"race": "BCN Tour La Br\u00e9vine", "longitude": 6.733554799999999, "latitude": 46.999113, "date": {"mer. 04.05.2011": {"weekday": "wednesday", "year": 2011, "categories": {"HS2": {"pace": 264000000000, "rank": 48, "distance": 10, "time": 2642.8}}, "day": 4, "month": 5, "livingplace": "Marin Epagnier"}}, "location": "Les Ponts-de-Martel"}, "D\u00e9fi Val-de-Travers, Couvet": {"race": "D\u00e9fi Val-de-Travers, Couvet", "longitude": 6.6324944, "latitude": 46.9262933, "date": {"sam. 21.06.2008": {"weekday": "saturday", "year": 2008, "categories": {"SHS1": {"pace": 308000000000, "rank": 7, "distance": 20, "time": 6068.6}}, "day": 21, "month": 6, "livingplace": "Marin Epagnier"}, "sam. 20.06.2009": {"weekday": "saturday", "year": 2009, "categories": {"SHS1": {"pace": 284000000000, "rank": 9, "distance": 20, "time": 5597.9}}, "day": 20, "month": 6, "livingplace": "Marin Epagnier"}}, "location": "Couvet"}, "BCN Tour #2 La Chaux-de-Fonds": {"race": "BCN Tour #2 La Chaux-de-Fonds", "longitude": 6.9175754, "latitude": 47.0624261, "date": {"mer. 01.05.2013": {"weekday": "wednesday", "year": 2013, "categories": {"HS2": {"pace": 254000000000, "rank": 53, "distance": 11, "time": 2724.8}}, "day": 1, "month": 5, "livingplace": "Marin Epagnier"}}, "location": "Ch\u00e9zard-St-Martin"}, "BCN Tour Neuch\u00e2tel": {"race": "BCN Tour Neuch\u00e2tel", "longitude": 6.9292732, "latitude": 46.9899874, "date": {"mer. 25.05.2011": {"weekday": "wednesday", "year": 2011, "categories": {"HS2": {"pace": 266000000000, "rank": 36, "distance": 11, "time": 3040.5}}, "day": 25, "month": 5, "livingplace": "Marin Epagnier"}, "mer. 26.05.2010": {"weekday": "wednesday", "year": 2010, "categories": {"HS1": {"pace": 297000000000, "rank": 83, "distance": 10, "time": 2887.5}}, "day": 26, "month": 5, "livingplace": "Marin Centre"}}, "location": "Neuch\u00e2tel"}, "Zermatt Marathon, Zermatt": {"race": "Zermatt Marathon, Zermatt", "date": {"sam. 09.07.2011": {"weekday": "saturday", "year": 2011, "categories": {"M-M40": {"pace": 416000000000, "rank": 44, "distance": 42, "time": 17554.4}}, "day": 9, "month": 7, "livingplace": "Marin Epagnier"}}, "location": "Zermatt"}, "Grand Prix Craft, Neuch\u00e2tel": {"race": "Grand Prix Craft, Neuch\u00e2tel", "longitude": 6.9292732, "latitude": 46.9899874, "date": {"dim. 17.12.2006": {"weekday": "sunday", "year": 2006, "categories": {"HS1": {"pace": 226000000000, "rank": 26, "distance": 7, "time": 1582.5}}, "day": 17, "month": 12, "livingplace": "Marin Epagnier"}}, "location": "Neuch\u00e2tel"}, "BCN Tour Colombier": {"race": "BCN Tour Colombier", "longitude": 6.8589727, "latitude": 46.9668714, "date": {"mer. 23.04.2008": {"weekday": "wednesday", "year": 2008, "categories": {"HS1": {"pace": 262000000000, "rank": 37, "distance": 10, "time": 2682.5}}, "day": 23, "month": 4, "livingplace": "Marin Epagnier"}}, "location": "Colombier NE"}, "Kerzerslauf": {"race": "Kerzerslauf", "longitude": 7.1954365, "latitude": 46.97488999999999, "date": {"sam. 21.03.2009": {"weekday": "saturday", "year": 2009, "categories": {"15-M35": {"pace": 240000000000, "rank": 65, "distance": 15, "time": 3600.0}}, "day": 21, "month": 3, "livingplace": "Marin Epagnier"}}, "location": "Kerzers"}, "BCN Tour Le Locle": {"race": "BCN Tour Le Locle", "longitude": 6.733554799999999, "latitude": 46.999113, "date": {"mer. 05.05.2010": {"weekday": "wednesday", "year": 2010, "categories": {"HS1": {"pace": 263000000000, "rank": 47, "distance": 11, "time": 2869.1}}, "day": 5, "month": 5, "livingplace": "Marin Centre"}}, "location": "Les Ponts-de-Martel"}, "BCN Tour La Chaux-de-fonds": {"race": "BCN Tour La Chaux-de-fonds", "longitude": 6.832783800000001, "latitude": 47.1034892, "date": {"mer. 12.05.2010": {"weekday": "wednesday", "year": 2010, "categories": {"HS1": {"pace": 318000000000, "rank": 45, "distance": 11, "time": 3403.4}}, "day": 12, "month": 5, "livingplace": "Marin Centre"}}, "location": "La Chaux-de-Fonds"}}, "name": "Michaud Steeve", "birth": 1971}