{"sex": "M", "races": {"Tour du Chablais #5 Leysin": {"race": "Tour du Chablais #5 Leysin", "longitude": 6.931504599999999, "latitude": 46.3603257, "date": {"mer. 05.05.2010": {"weekday": "wednesday", "year": 2010, "categories": {"M-M40": {"pace": 262000000000, "rank": 21, "distance": 8, "time": 2221.9}}, "day": 5, "month": 5, "livingplace": "Monthey"}}, "location": "Roche VD"}, "Tour du Chablais #4 Yvorne": {"race": "Tour du Chablais #4 Yvorne", "date": {"mer. 28.04.2010": {"weekday": "wednesday", "year": 2010, "categories": {"M-M40": {"pace": 259000000000, "rank": 40, "distance": 8, "time": 2148.3}}, "day": 28, "month": 4, "livingplace": "Monthey"}}, "location": "Les Mosses"}, "Tour du Chablais #3 Bex": {"race": "Tour du Chablais #3 Bex", "longitude": 7.0223787, "latitude": 46.1782231, "date": {"mer. 21.04.2010": {"weekday": "wednesday", "year": 2010, "categories": {"M-M40": {"pace": 244000000000, "rank": 27, "distance": 10, "time": 2445.7}}, "day": 21, "month": 4, "livingplace": "Monthey"}}, "location": "Evionnaz"}, "Tour du Chablais #1 Roche": {"race": "Tour du Chablais #1 Roche", "longitude": 6.9916269, "latitude": 46.2957462, "date": {"mer. 07.04.2010": {"weekday": "wednesday", "year": 2010, "categories": {"M-M40": {"pace": 238000000000, "rank": 28, "distance": 9, "time": 2131.3}}, "day": 7, "month": 4, "livingplace": "Monthey"}}, "location": "Ollon VD"}, "Tour du Chablais #2 St-Gingolph": {"race": "Tour du Chablais #2 St-Gingolph", "longitude": 6.854975199999999, "latitude": 46.3835529, "date": {"mer. 14.04.2010": {"weekday": "wednesday", "year": 2010, "categories": {"M-M40": {"pace": 258000000000, "rank": 28, "distance": 8, "time": 2160.1}}, "day": 14, "month": 4, "livingplace": "Monthey"}}, "location": "Bouveret"}, "Tour du Chablais #6 Mouthey": {"race": "Tour du Chablais #6 Mouthey", "longitude": 6.970566, "latitude": 46.3190253, "date": {"mer. 12.05.2010": {"weekday": "wednesday", "year": 2010, "categories": {"M-M40": {"pace": 235000000000, "rank": 29, "distance": 9, "time": 2161.0}}, "day": 12, "month": 5, "livingplace": "Monthey"}}, "location": "Aigle"}}, "name": "Michaud Bertrand", "birth": 1964}