{"sex": "M", "races": {"Groupe E Tour Fribourg #4 Siviriez": {"race": "Groupe E Tour Fribourg #4 Siviriez", "longitude": 6.877722, "latitude": 46.6585092, "date": {"mer. 19.09.2012": {"weekday": "wednesday", "year": 2012, "categories": {"HS1": {"pace": 286000000000, "rank": 37, "distance": 9, "time": 2694.6}}, "day": 19, "month": 9, "livingplace": "Ollon"}}, "location": "Siviriez"}, "Tour du Chablais #5 Leysin": {"race": "Tour du Chablais #5 Leysin", "longitude": 6.931504599999999, "latitude": 46.3603257, "date": {"mer. 05.05.2010": {"weekday": "wednesday", "year": 2010, "categories": {"M-M20": {"pace": 266000000000, "rank": 44, "distance": 8, "time": 2248.1}}, "day": 5, "month": 5, "livingplace": "Troistorrents"}}, "location": "Roche VD"}, "Course p\u00e9destre Thyon-Dixence, Thyon": {"race": "Course p\u00e9destre Thyon-Dixence, Thyon", "date": {"dim. 04.08.2013": {"weekday": "sunday", "year": 2013, "categories": {"HomElite": {"pace": 433000000000, "rank": 86, "distance": 16, "time": 7090.0}}, "day": 4, "month": 8, "livingplace": "Ollon"}}, "location": "Thyon-Les Collons"}, "Tour du Pays de Vaud #4 - La Sarraz": {"race": "Tour du Pays de Vaud #4 - La Sarraz", "longitude": 6.5707689, "latitude": 46.7088129, "date": {"mer. 29.08.2012": {"weekday": "wednesday", "year": 2012, "categories": {"H-Sen1": {"pace": 272000000000, "rank": 71, "distance": 9, "time": 2320.4}}, "day": 29, "month": 8, "livingplace": "Ollon"}, "mer. 04.09.2013": {"weekday": "wednesday", "year": 2013, "categories": {"H-Sen1": {"pace": 281000000000, "rank": 67, "distance": 9, "time": 2394.4}}, "day": 4, "month": 9, "livingplace": "Ollon"}}, "location": "Chavornay"}, "Tour du Chablais #2 Bex": {"race": "Tour du Chablais #2 Bex", "longitude": 6.854975199999999, "latitude": 46.3835529, "date": {"mer. 18.04.2012": {"weekday": "wednesday", "year": 2012, "categories": {"M-M20": {"pace": 269000000000, "rank": 98, "distance": 8, "time": 2152.7}}, "day": 18, "month": 4, "livingplace": "Ollon"}}, "location": "Bouveret"}, "Humani'Trail, Les Diablerets": {"race": "Humani'Trail, Les Diablerets", "longitude": 7.158055999999999, "latitude": 46.351389, "date": {"sam. 21.09.2013": {"weekday": "saturday", "year": 2013, "categories": {"50-HS": {"pace": 771000000000, "rank": 27, "distance": 50, "time": 38597.3}}, "day": 21, "month": 9, "livingplace": "Ollon"}}, "location": "Les Diablerets"}, "20km de Lausanne": {"race": "20km de Lausanne", "longitude": 6.6322734, "latitude": 46.5196535, "date": {"sam. 27.04.2013": {"weekday": "saturday", "year": 2013, "categories": {"20-H30": {"pace": 283000000000, "rank": 368, "distance": 20, "time": 5678.0}}, "day": 27, "month": 4, "livingplace": "Ollon"}}, "location": "Lausanne"}, "Tour du Chablais #2 St-Gingolph": {"race": "Tour du Chablais #2 St-Gingolph", "longitude": 6.854975199999999, "latitude": 46.3835529, "date": {"mer. 14.04.2010": {"weekday": "wednesday", "year": 2010, "categories": {"M-M20": {"pace": 261000000000, "rank": 44, "distance": 8, "time": 2183.8}}, "day": 14, "month": 4, "livingplace": "Troistorrents"}}, "location": "Bouveret"}, "Tour du Pays de Vaud #3 - Mezi\u00e8res": {"race": "Tour du Pays de Vaud #3 - Mezi\u00e8res", "longitude": 6.641183, "latitude": 46.7784736, "date": {"mer. 22.08.2012": {"weekday": "wednesday", "year": 2012, "categories": {"H-Sen1": {"pace": 293000000000, "rank": 54, "distance": 8, "time": 2466.2}}, "day": 22, "month": 8, "livingplace": "Ollon"}}, "location": "Yverdon-les-Bains"}, "SwissCityMarathon - Lucerne, Luzern": {"race": "SwissCityMarathon - Lucerne, Luzern", "longitude": 8.3093072, "latitude": 47.05016819999999, "date": {"dim. 27.10.2013": {"weekday": "sunday", "year": 2013, "categories": {"M-M30": {"pace": 357000000000, "rank": 289, "distance": 42, "time": 15080.6}}, "day": 27, "month": 10, "livingplace": "Ollon"}}, "location": "Luzern"}, "Tour du Chablais #3 Bex": {"race": "Tour du Chablais #3 Bex", "longitude": 7.0223787, "latitude": 46.1782231, "date": {"mer. 21.04.2010": {"weekday": "wednesday", "year": 2010, "categories": {"M-M20": {"pace": 252000000000, "rank": 55, "distance": 10, "time": 2525.0}}, "day": 21, "month": 4, "livingplace": "Troistorrents"}}, "location": "Evionnaz"}, "Tour du pays de Vaud #5 - Penthaz": {"race": "Tour du pays de Vaud #5 - Penthaz", "longitude": 6.539251200000001, "latitude": 46.5993131, "date": {"mer. 07.09.2011": {"weekday": "wednesday", "year": 2011, "categories": {"H-Sen1": {"pace": 301000000000, "rank": 58, "distance": 8, "time": 2520.5}}, "day": 7, "month": 9, "livingplace": "Ollon"}}, "location": "Penthaz"}, "Tour du Chablais #4 St  Maurice": {"race": "Tour du Chablais #4 St  Maurice", "date": {"mer. 24.04.2013": {"weekday": "wednesday", "year": 2013, "categories": {"M-M20": {"pace": 276000000000, "rank": 117, "distance": 10, "time": 2761.5}}, "day": 24, "month": 4, "livingplace": "Ollon"}}, "location": "Les Mosses"}, "Tour du Chablais #1 Montreux": {"race": "Tour du Chablais #1 Montreux", "longitude": 6.9916269, "latitude": 46.2957462, "date": {"mer. 11.04.2012": {"weekday": "wednesday", "year": 2012, "categories": {"M-M20": {"pace": 271000000000, "rank": 85, "distance": 8, "time": 2060.2}}, "day": 11, "month": 4, "livingplace": "Ollon"}}, "location": "Ollon VD"}, "Tour du Chablais #4 Yvorne": {"race": "Tour du Chablais #4 Yvorne", "date": {"mer. 28.04.2010": {"weekday": "wednesday", "year": 2010, "categories": {"M-M20": {"pace": 260000000000, "rank": 49, "distance": 8, "time": 2157.9}}, "day": 28, "month": 4, "livingplace": "Troistorrents"}}, "location": "Les Mosses"}, "10km de Payerne": {"race": "10km de Payerne", "longitude": 6.9405663, "latitude": 46.8220266, "date": {"sam. 27.03.2010": {"weekday": "saturday", "year": 2010, "categories": {"M35": {"pace": 260000000000, "rank": 30, "distance": 10, "time": 2600.4}}, "day": 27, "month": 3, "livingplace": "Troistorrents"}}, "location": "Payerne"}, "Tour du Chablais #1 Roche": {"race": "Tour du Chablais #1 Roche", "longitude": 6.9916269, "latitude": 46.2957462, "date": {"mer. 07.04.2010": {"weekday": "wednesday", "year": 2010, "categories": {"M-M20": {"pace": 246000000000, "rank": 68, "distance": 9, "time": 2207.1}}, "day": 7, "month": 4, "livingplace": "Troistorrents"}}, "location": "Ollon VD"}, "Tour du pays de Vaud #1 - Mezi\u00e8res": {"race": "Tour du pays de Vaud #1 - Mezi\u00e8res", "longitude": 6.641183, "latitude": 46.7784736, "date": {"mer. 10.08.2011": {"weekday": "wednesday", "year": 2011, "categories": {"H-Sen1": {"pace": 264000000000, "rank": 49, "distance": 9, "time": 2251.8}}, "day": 10, "month": 8, "livingplace": "Ollon"}}, "location": "Yverdon-les-Bains"}, "Morat-Fribourg": {"race": "Morat-Fribourg", "longitude": 7.120184, "latitude": 46.92922110000001, "date": {"sam. 06.10.2012": {"weekday": "saturday", "year": 2012, "categories": {"17-M20": {"pace": 301000000000, "rank": 991, "distance": 17, "time": 5259.1}}, "day": 6, "month": 10, "livingplace": "Ollon"}}, "location": "Murten"}, "Tour du Chablais #6 Mouthey": {"race": "Tour du Chablais #6 Mouthey", "longitude": 6.970566, "latitude": 46.3190253, "date": {"mer. 12.05.2010": {"weekday": "wednesday", "year": 2010, "categories": {"M-M20": {"pace": 243000000000, "rank": 71, "distance": 9, "time": 2238.4}}, "day": 12, "month": 5, "livingplace": "Troistorrents"}}, "location": "Aigle"}, "Tour du Chablais #5 Morgins": {"race": "Tour du Chablais #5 Morgins", "longitude": 6.931504599999999, "latitude": 46.3603257, "date": {"mer. 01.05.2013": {"weekday": "wednesday", "year": 2013, "categories": {"M-M20": {"pace": 286000000000, "rank": 107, "distance": 8, "time": 2175.4}}, "day": 1, "month": 5, "livingplace": "Ollon"}}, "location": "Roche VD"}, "Lausanne Marathon": {"race": "Lausanne Marathon", "longitude": 6.6322734, "latitude": 46.5196535, "date": {"dim. 28.10.2012": {"weekday": "sunday", "year": 2012, "categories": {"42-H2": {"pace": 334000000000, "rank": 165, "distance": 42, "time": 14120.2}}, "day": 28, "month": 10, "livingplace": "Ollon"}, "dim. 30.10.2011": {"weekday": "sunday", "year": 2011, "categories": {"21-H2": {"pace": 289000000000, "rank": 313, "distance": 21, "time": 6105.8}}, "day": 30, "month": 10, "livingplace": "Ollon"}}, "location": "Lausanne"}, "Tour du pays de Vaud #1 - Penthaz": {"race": "Tour du pays de Vaud #1 - Penthaz", "longitude": 6.539251200000001, "latitude": 46.5993131, "date": {"mer. 08.08.2012": {"weekday": "wednesday", "year": 2012, "categories": {"H-Sen1": {"pace": 282000000000, "rank": 68, "distance": 9, "time": 2405.6}}, "day": 8, "month": 8, "livingplace": "Ollon"}}, "location": "Penthaz"}, "Tour du Pays de Vaud #2 - Genolier": {"race": "Tour du Pays de Vaud #2 - Genolier", "longitude": 6.7702883, "latitude": 46.5955273, "date": {"mer. 15.08.2012": {"weekday": "wednesday", "year": 2012, "categories": {"H-Sen1": {"pace": 293000000000, "rank": 96, "distance": 9, "time": 2493.3}}, "day": 15, "month": 8, "livingplace": "Ollon"}, "mer. 17.08.2011": {"weekday": "wednesday", "year": 2011, "categories": {"H-Sen1": {"pace": 269000000000, "rank": 44, "distance": 9, "time": 2292.6}}, "day": 17, "month": 8, "livingplace": "Ollon"}}, "location": "M\u00e9zi\u00e8res VD"}}, "name": "Michel Eddy", "birth": 1975}