{"sex": "F", "races": {"Tour du Chablais #5 Leysin": {"race": "Tour du Chablais #5 Leysin", "longitude": 6.931504599999999, "latitude": 46.3603257, "date": {"mer. 05.05.2010": {"weekday": "wednesday", "year": 2010, "categories": {"F-F20": {"pace": 363000000000, "rank": 62, "distance": 8, "time": 3075.3}}, "day": 5, "month": 5, "livingplace": "Riddes"}}, "location": "Roche VD"}, "Tour du Chablais #4 Yvorne": {"race": "Tour du Chablais #4 Yvorne", "date": {"mer. 28.04.2010": {"weekday": "wednesday", "year": 2010, "categories": {"F-F20": {"pace": 366000000000, "rank": 80, "distance": 8, "time": 3038.6}}, "day": 28, "month": 4, "livingplace": "Riddes"}}, "location": "Les Mosses"}, "Tour du Chablais #3 Bex": {"race": "Tour du Chablais #3 Bex", "longitude": 7.0223787, "latitude": 46.1782231, "date": {"mer. 21.04.2010": {"weekday": "wednesday", "year": 2010, "categories": {"F-F20": {"pace": 355000000000, "rank": 96, "distance": 10, "time": 3553.4}}, "day": 21, "month": 4, "livingplace": "Riddes"}}, "location": "Evionnaz"}, "Tour du Chablais #1 Roche": {"race": "Tour du Chablais #1 Roche", "longitude": 6.9916269, "latitude": 46.2957462, "date": {"mer. 07.04.2010": {"weekday": "wednesday", "year": 2010, "categories": {"F-F20": {"pace": 363000000000, "rank": 112, "distance": 9, "time": 3249.8}}, "day": 7, "month": 4, "livingplace": "Riddes"}}, "location": "Ollon VD"}, "Tour du Chablais #2 St-Gingolph": {"race": "Tour du Chablais #2 St-Gingolph", "longitude": 6.854975199999999, "latitude": 46.3835529, "date": {"mer. 14.04.2010": {"weekday": "wednesday", "year": 2010, "categories": {"F-F20": {"pace": 379000000000, "rank": 83, "distance": 8, "time": 3166.1}}, "day": 14, "month": 4, "livingplace": "Riddes"}}, "location": "Bouveret"}, "La Montheysanne, Monthey": {"race": "La Montheysanne, Monthey", "longitude": 6.9469598, "latitude": 46.2521873, "date": {"dim. 23.08.2015": {"weekday": "sunday", "year": 2015, "categories": {"5-DA1": {"pace": 358000000000, "rank": 46, "distance": 5, "time": 1790.5}}, "day": 23, "month": 8, "livingplace": "Riddes"}}, "location": "Monthey"}, "Tour du Chablais #6 Mouthey": {"race": "Tour du Chablais #6 Mouthey", "longitude": 6.970566, "latitude": 46.3190253, "date": {"mer. 12.05.2010": {"weekday": "wednesday", "year": 2010, "categories": {"F-F20": {"pace": 327000000000, "rank": 75, "distance": 9, "time": 3015.2}}, "day": 12, "month": 5, "livingplace": "Riddes"}}, "location": "Aigle"}}, "name": "Monnet Florence", "birth": 1981}