{"sex": "F", "races": {"Corrida Bulloise, Bulle": {"race": "Corrida Bulloise, Bulle", "longitude": 7.057726799999999, "latitude": 46.6154512, "date": {"sam. 19.11.2011": {"weekday": "saturday", "year": 2011, "categories": {"F20": {"pace": 287000000000, "rank": 55, "distance": 6, "time": 1765.9}}, "day": 19, "month": 11, "livingplace": "Vers chez Perrin"}}, "location": "Bulle"}, "Aletsch-Halbmarathon, Bettmeralp": {"race": "Aletsch-Halbmarathon, Bettmeralp", "date": {"dim. 24.06.2012": {"weekday": "sunday", "year": 2012, "categories": {"F20": {"pace": 500000000000, "rank": 36, "distance": 21, "time": 10618.3}}, "day": 24, "month": 6, "livingplace": "Vers chez Perrin"}}, "location": "Bettmeralp"}, "Glacier 3000 Run, Gstaad": {"race": "Glacier 3000 Run, Gstaad", "longitude": 7.2865728, "latitude": 46.4717588, "date": {"sam. 10.08.2013": {"weekday": "saturday", "year": 2013, "categories": {"F20": {"pace": 633000000000, "rank": 11, "distance": 26, "time": 16459.8}}, "day": 10, "month": 8, "livingplace": "Corcelles pres Payerne"}}, "location": "Gstaad"}, "Bl\u00fcemlisalp-Lauf, Reichenbach": {"race": "Bl\u00fcemlisalp-Lauf, Reichenbach", "longitude": 7.6940529, "latitude": 46.6254387, "date": {"dim. 26.05.2013": {"weekday": "sunday", "year": 2013, "categories": {"F20": {"pace": 361000000000, "rank": 10, "distance": 14, "time": 5064.7}}, "day": 26, "month": 5, "livingplace": "Corcelles pres Payerne"}}, "location": "Reichenbach im Kandertal"}, "Schweizer Frauenlauf Bern": {"race": "Schweizer Frauenlauf Bern", "longitude": 7.4474468, "latitude": 46.9479739, "date": {"dim. 19.06.2011": {"weekday": "sunday", "year": 2011, "categories": {"10-W20": {"pace": 303000000000, "rank": 155, "distance": 10, "time": 3033.0}}, "day": 19, "month": 6, "livingplace": "Vers chez Perrin"}, "dim. 10.06.2012": {"weekday": "sunday", "year": 2012, "categories": {"10-W20": {"pace": 286000000000, "rank": 73, "distance": 10, "time": 2862.5}}, "day": 10, "month": 6, "livingplace": "Vers chez Perrin"}}, "location": "Bern"}, "Kerzerslauf": {"race": "Kerzerslauf", "longitude": 7.1954365, "latitude": 46.97488999999999, "date": {"sam. 17.03.2012": {"weekday": "saturday", "year": 2012, "categories": {"15-F20": {"pace": 323000000000, "rank": 186, "distance": 15, "time": 4846.1}}, "day": 17, "month": 3, "livingplace": "Vers chez Perrin"}}, "location": "Kerzers"}, "Morat-Fribourg": {"race": "Morat-Fribourg", "longitude": 7.120184, "latitude": 46.92922110000001, "date": {"sam. 06.10.2012": {"weekday": "saturday", "year": 2012, "categories": {"17-W20": {"pace": 319000000000, "rank": 145, "distance": 17, "time": 5579.8}}, "day": 6, "month": 10, "livingplace": "Corcelles pres Payerne"}}, "location": "Murten"}, "20km de Lausanne": {"race": "20km de Lausanne", "longitude": 6.6322734, "latitude": 46.5196535, "date": {"sam. 30.04.2011": {"weekday": "saturday", "year": 2011, "categories": {"10-F20": {"pace": 315000000000, "rank": 110, "distance": 10, "time": 3153.6}}, "day": 30, "month": 4, "livingplace": "Vers chez Perrin"}, "sam. 28.04.2012": {"weekday": "saturday", "year": 2012, "categories": {"10-F20": {"pace": 303000000000, "rank": 54, "distance": 10, "time": 3039.7}}, "day": 28, "month": 4, "livingplace": "Vers chez Perrin"}}, "location": "Lausanne"}}, "name": "Monney Corinne", "birth": 1987}