{"sex": "M", "races": {"Course de l'Escalade, Gen\u00e8ve": {"race": "Course de l'Escalade, Gen\u00e8ve", "longitude": 6.1431577, "latitude": 46.2043907, "date": {"sam. 04.12.2010": {"weekday": "saturday", "year": 2010, "categories": {"H-H1": {"pace": 192000000000, "rank": 6, "distance": 7, "time": 1397.7}}, "day": 4, "month": 12, "livingplace": "Court"}, "sam. 05.12.2015": {"weekday": "saturday", "year": 2015, "categories": {"Esc-Hom2": {"pace": 197000000000, "rank": 3, "distance": 7, "time": 1446.5}}, "day": 5, "month": 12, "livingplace": "Court"}}, "location": "Gen\u00e8ve"}, "BCN Tour La Chaux-de-Fonds": {"race": "BCN Tour La Chaux-de-Fonds", "longitude": 6.832783800000001, "latitude": 47.1034892, "date": {"mer. 11.05.2011": {"weekday": "wednesday", "year": 2011, "categories": {"HE": {"pace": 252000000000, "rank": 3, "distance": 11, "time": 2705.6}}, "day": 11, "month": 5, "livingplace": "Court"}, "mer. 23.05.2012": {"weekday": "wednesday", "year": 2012, "categories": {"HE": {"pace": 220000000000, "rank": 3, "distance": 11, "time": 2379.5}}, "day": 23, "month": 5, "livingplace": "Court"}}, "location": "La Chaux-de-Fonds"}, "BCN Tour Auvernier": {"race": "BCN Tour Auvernier", "longitude": 6.8589727, "latitude": 46.9668714, "date": {"mer. 20.04.2011": {"weekday": "wednesday", "year": 2011, "categories": {"HE": {"pace": 221000000000, "rank": 2, "distance": 11, "time": 2391.5}}, "day": 20, "month": 4, "livingplace": "Court"}}, "location": "Colombier NE"}, "La Trotteuse-Tissot, La Chaux-de-Fonds": {"race": "La Trotteuse-Tissot, La Chaux-de-Fonds", "longitude": 6.832783800000001, "latitude": 47.1034892, "date": {"sam. 17.12.2011": {"weekday": "saturday", "year": 2011, "categories": {"GC-H20": {"pace": 216000000000, "rank": 3, "distance": 8, "time": 1735.8}}, "day": 17, "month": 12, "livingplace": "Les Morands"}, "sam. 14.12.2013": {"weekday": "saturday", "year": 2013, "categories": {"GC-H30": {"pace": 213000000000, "rank": 9, "distance": 8, "time": 1708.0}}, "day": 14, "month": 12, "livingplace": "Les Bon   Morand"}}, "location": "La Chaux-de-Fonds"}, "BCN Tour Les Ponts de Martel": {"race": "BCN Tour Les Ponts de Martel", "longitude": 6.6324944, "latitude": 46.9262933, "date": {"mer. 18.05.2011": {"weekday": "wednesday", "year": 2011, "categories": {"HE": {"pace": 229000000000, "rank": 3, "distance": 13, "time": 2931.9}}, "day": 18, "month": 5, "livingplace": "Court"}}, "location": "Couvet"}, "Morat-Fribourg": {"race": "Morat-Fribourg", "longitude": 7.120184, "latitude": 46.92922110000001, "date": {"sam. 02.10.2010": {"weekday": "saturday", "year": 2010, "categories": {"17-M20": {"pace": 224000000000, "rank": 16, "distance": 17, "time": 3849.8}}, "day": 2, "month": 10, "livingplace": "Court"}}, "location": "Murten"}, "BCN Tour Fontaine Cernier": {"race": "BCN Tour Fontaine Cernier", "longitude": 6.9175754, "latitude": 47.0624261, "date": {"mer. 27.04.2011": {"weekday": "wednesday", "year": 2011, "categories": {"HE": {"pace": 214000000000, "rank": 3, "distance": 10, "time": 2211.7}}, "day": 27, "month": 4, "livingplace": "Court"}}, "location": "Ch\u00e9zard-St-Martin"}, "20km de Lausanne": {"race": "20km de Lausanne", "longitude": 6.6322734, "latitude": 46.5196535, "date": {"sam. 25.04.2015": {"weekday": "saturday", "year": 2015, "categories": {"10-H30": {"pace": 207000000000, "rank": 4, "distance": 10, "time": 2074.2}}, "day": 25, "month": 4, "livingplace": "Help for hope"}, "sam. 26.04.2014": {"weekday": "saturday", "year": 2014, "categories": {"10-H30": {"pace": 208000000000, "rank": 3, "distance": 10, "time": 2084.0}}, "day": 26, "month": 4, "livingplace": "Help for hope"}}, "location": "Lausanne"}, "Derendinger Abendlauf, Derendingen": {"race": "Derendinger Abendlauf, Derendingen", "longitude": 7.585593099999999, "latitude": 47.1952433, "date": {"ven. 28.06.2013": {"weekday": "friday", "year": 2013, "categories": {"M30": {"pace": 206000000000, "rank": 2, "distance": 10, "time": 2109.3}}, "day": 28, "month": 6, "livingplace": "Court"}, "ven. 29.06.2012": {"weekday": "friday", "year": 2012, "categories": {"M20": {"pace": 218000000000, "rank": 1, "distance": 10, "time": 2228.4}}, "day": 29, "month": 6, "livingplace": "Court"}}, "location": "Derendingen"}, "BCN Tour Neuch\u00e2tel": {"race": "BCN Tour Neuch\u00e2tel", "longitude": 6.9292732, "latitude": 46.9899874, "date": {"mer. 25.05.2011": {"weekday": "wednesday", "year": 2011, "categories": {"HE": {"pace": 226000000000, "rank": 2, "distance": 11, "time": 2586.0}}, "day": 25, "month": 5, "livingplace": "Court"}, "mer. 30.05.2012": {"weekday": "wednesday", "year": 2012, "categories": {"HE": {"pace": 226000000000, "rank": 2, "distance": 11, "time": 2539.0}}, "day": 30, "month": 5, "livingplace": "Court"}}, "location": "Neuch\u00e2tel"}, "GP Fricktal, Eiken": {"race": "GP Fricktal, Eiken", "date": {"sam. 23.04.2011": {"weekday": "saturday", "year": 2011, "categories": {"M20": {"pace": 217000000000, "rank": 4, "distance": 16, "time": 3495.9}}, "day": 23, "month": 4, "livingplace": "Court"}}, "location": "Eiken"}, "Sierre-Zinal, Sierre": {"race": "Sierre-Zinal, Sierre", "longitude": 7.533536199999999, "latitude": 46.29413110000001, "date": {"dim. 09.08.2015": {"weekday": "sunday", "year": 2015, "categories": {"ElitesHo": {"pace": 330000000000, "rank": 20, "distance": 31, "time": 10246.1}}, "day": 9, "month": 8, "livingplace": "Court"}, "dim. 10.08.2014": {"weekday": "sunday", "year": 2014, "categories": {"ElitesHo": {"pace": 348000000000, "rank": 52, "distance": 31, "time": 10790.1}}, "day": 10, "month": 8, "livingplace": "Court"}, "dim. 11.08.2013": {"weekday": "sunday", "year": 2013, "categories": {"Elites": {"pace": 344000000000, "rank": 35, "distance": 31, "time": 10669.3}}, "day": 11, "month": 8, "livingplace": "Court"}}, "location": "Sierre"}, "BCN Tour Les Ponts-de-Martel": {"race": "BCN Tour Les Ponts-de-Martel", "longitude": 6.733554799999999, "latitude": 46.999113, "date": {"mer. 09.05.2012": {"weekday": "wednesday", "year": 2012, "categories": {"HE": {"pace": 224000000000, "rank": 2, "distance": 10, "time": 2312.3}}, "day": 9, "month": 5, "livingplace": "Court"}}, "location": "Les Ponts-de-Martel"}, "Gippinger Stauseelauf": {"race": "Gippinger Stauseelauf", "longitude": 8.2152586, "latitude": 47.5810513, "date": {"ven. 31.12.2010": {"weekday": "friday", "year": 2010, "categories": {"7-M20": {"pace": 203000000000, "rank": 4, "distance": 8, "time": 1530.9}}, "day": 31, "month": 12, "livingplace": "Court"}, "jeu. 31.12.2009": {"weekday": "thursday", "year": 2009, "categories": {"M20": {"pace": 219000000000, "rank": 11, "distance": 8, "time": 1651.3}}, "day": 31, "month": 12, "livingplace": "Court"}, "jeu. 31.12.2015": {"weekday": "thursday", "year": 2015, "categories": {"7-M30": {"pace": 196000000000, "rank": 2, "distance": 8, "time": 1477.9}}, "day": 31, "month": 12, "livingplace": "Court"}}, "location": "Leuggern"}, "Les Traine-Savates, Cheseaux-sur-Lausanne": {"race": "Les Traine-Savates, Cheseaux-sur-Lausanne", "longitude": 6.6047712, "latitude": 46.585452, "date": {"sam. 18.04.2015": {"weekday": "saturday", "year": 2015, "categories": {"10-M20": {"pace": 208000000000, "rank": 6, "distance": 10, "time": 2143.8}}, "day": 18, "month": 4, "livingplace": "Court"}, "sam. 14.04.2012": {"weekday": "saturday", "year": 2012, "categories": {"10-M20": {"pace": 205000000000, "rank": 4, "distance": 10, "time": 2137.5}}, "day": 14, "month": 4, "livingplace": "Court"}, "sam. 09.04.2011": {"weekday": "saturday", "year": 2011, "categories": {"10-M20": {"pace": 209000000000, "rank": 5, "distance": 10, "time": 2174.2}}, "day": 9, "month": 4, "livingplace": "Court"}, "sam. 12.04.2014": {"weekday": "saturday", "year": 2014, "categories": {"10-M20": {"pace": 205000000000, "rank": 4, "distance": 10, "time": 2121.6}}, "day": 12, "month": 4, "livingplace": "Court"}}, "location": "Cheseaux-sur-Lausanne"}, "Corrida Bulloise, Bulle": {"race": "Corrida Bulloise, Bulle", "longitude": 7.057726799999999, "latitude": 46.6154512, "date": {"sam. 20.11.2010": {"weekday": "saturday", "year": 2010, "categories": {"M20": {"pace": 208000000000, "rank": 12, "distance": 8, "time": 1698.5}}, "day": 20, "month": 11, "livingplace": "Court"}, "sam. 19.11.2011": {"weekday": "saturday", "year": 2011, "categories": {"M20": {"pace": 208000000000, "rank": 11, "distance": 8, "time": 1697.0}}, "day": 19, "month": 11, "livingplace": "Court"}}, "location": "Bulle"}, "Laufsporttag Winterthur": {"race": "Laufsporttag Winterthur", "longitude": -75.6037351, "latitude": 39.8088766, "date": {"sam. 05.03.2011": {"weekday": "saturday", "year": 2011, "categories": {"A": {"pace": 202000000000, "rank": 4, "distance": 11, "time": 2229.1}}, "day": 5, "month": 3, "livingplace": "Court"}}, "location": "Winterthur"}, "Birslauf Basel": {"race": "Birslauf Basel", "longitude": 7.5885761, "latitude": 47.5595986, "date": {"sam. 28.03.2015": {"weekday": "saturday", "year": 2015, "categories": {"M\u00e4nner": {"pace": 203000000000, "rank": 5, "distance": 10, "time": 2036.8}}, "day": 28, "month": 3, "livingplace": "Court"}}, "location": "Basel"}, "ASICS Bremgarter Reusslauf": {"race": "ASICS Bremgarter Reusslauf", "longitude": 8.3397905, "latitude": 47.34917739999999, "date": {"sam. 27.02.2010": {"weekday": "saturday", "year": 2010, "categories": {"M20": {"pace": 212000000000, "rank": 28, "distance": 11, "time": 2341.6}}, "day": 27, "month": 2, "livingplace": "Court"}, "sam. 26.02.2011": {"weekday": "saturday", "year": 2011, "categories": {"M20": {"pace": 201000000000, "rank": 17, "distance": 11, "time": 2218.8}}, "day": 26, "month": 2, "livingplace": "Court"}}, "location": "Bremgarten AG"}, "Gempenlauf, Dornach": {"race": "Gempenlauf, Dornach", "longitude": 7.6170412, "latitude": 47.4790491, "date": {"mer. 04.06.2014": {"weekday": "wednesday", "year": 2014, "categories": {"M20": {"pace": 249000000000, "rank": 8, "distance": 8, "time": 1943.1}}, "day": 4, "month": 6, "livingplace": "Court"}}, "location": "Dornach"}, "BCN Tour Couvet": {"race": "BCN Tour Couvet", "longitude": 6.9175754, "latitude": 47.0624261, "date": {"mer. 02.05.2012": {"weekday": "wednesday", "year": 2012, "categories": {"HE": {"pace": 221000000000, "rank": 2, "distance": 11, "time": 2474.8}}, "day": 2, "month": 5, "livingplace": "Court"}}, "location": "Ch\u00e9zard-St-Martin"}, "Montreux - Les Rochers de Naye": {"race": "Montreux - Les Rochers de Naye", "longitude": 6.9106799, "latitude": 46.4312213, "date": {"dim. 05.07.2015": {"weekday": "sunday", "year": 2015, "categories": {"C-HElite": {"pace": 342000000000, "rank": 4, "distance": 10, "time": 3250.6}}, "day": 5, "month": 7, "livingplace": "Court"}}, "location": "Montreux"}, "BCN Tour Cornaux": {"race": "BCN Tour Cornaux", "longitude": 6.8589727, "latitude": 46.9668714, "date": {"mer. 25.04.2012": {"weekday": "wednesday", "year": 2012, "categories": {"HE": {"pace": 237000000000, "rank": 2, "distance": 11, "time": 2608.0}}, "day": 25, "month": 4, "livingplace": "Court"}}, "location": "Colombier NE"}, "BCN Tour La Br\u00e9vine": {"race": "BCN Tour La Br\u00e9vine", "longitude": 6.733554799999999, "latitude": 46.999113, "date": {"mer. 04.05.2011": {"weekday": "wednesday", "year": 2011, "categories": {"HE": {"pace": 227000000000, "rank": 2, "distance": 10, "time": 2271.8}}, "day": 4, "month": 5, "livingplace": "Court"}}, "location": "Les Ponts-de-Martel"}, "Glacier 3000 Run, Gstaad": {"race": "Glacier 3000 Run, Gstaad", "longitude": 7.2865728, "latitude": 46.4717588, "date": {"sam. 04.08.2012": {"weekday": "saturday", "year": 2012, "categories": {"M20": {"pace": 382000000000, "rank": 7, "distance": 26, "time": 9939.6}}, "day": 4, "month": 8, "livingplace": "Gsmb"}}, "location": "Gstaad"}, "Badener Limmat-Lauf, Baden": {"race": "Badener Limmat-Lauf, Baden", "longitude": 8.5303972, "latitude": 48.5699281, "date": {"sam. 26.03.2011": {"weekday": "saturday", "year": 2011, "categories": {"M20": {"pace": 209000000000, "rank": 3, "distance": 13, "time": 2760.5}}, "day": 26, "month": 3, "livingplace": "Court"}}, "location": "Baden"}, "Int  Bieler Cross, Biel-Bienne": {"race": "Int  Bieler Cross, Biel-Bienne", "longitude": 7.2467909, "latitude": 47.1367785, "date": {"dim. 09.11.2014": {"weekday": "sunday", "year": 2014, "categories": {"M30": {"pace": 202000000000, "rank": 3, "distance": 8, "time": 1620.7}}, "day": 9, "month": 11, "livingplace": "Les Morands"}, "dim. 10.11.2013": {"weekday": "sunday", "year": 2013, "categories": {"M30": {"pace": 204000000000, "rank": 2, "distance": 8, "time": 1635.5}}, "day": 10, "month": 11, "livingplace": "Gsmb"}, "dim. 13.11.2011": {"weekday": "sunday", "year": 2011, "categories": {"M20": {"pace": 199000000000, "rank": 5, "distance": 8, "time": 1592.7}}, "day": 13, "month": 11, "livingplace": "Gsmb"}, "dim. 11.11.2012": {"weekday": "sunday", "year": 2012, "categories": {"M20": {"pace": 204000000000, "rank": 3, "distance": 8, "time": 1633.2}}, "day": 11, "month": 11, "livingplace": "Gsmb"}}, "location": "Biel/Bienne"}, "Dietiker Neujahrslauf, Dietikon": {"race": "Dietiker Neujahrslauf, Dietikon", "longitude": 8.39977, "latitude": 47.4053885, "date": {"sam. 08.01.2011": {"weekday": "saturday", "year": 2011, "categories": {"A": {"pace": 208000000000, "rank": 1, "distance": 12, "time": 2524.2}}, "day": 8, "month": 1, "livingplace": "Court"}}, "location": "Dietikon"}, "BCN Tour Colombier": {"race": "BCN Tour Colombier", "longitude": 6.832783800000001, "latitude": 47.1034892, "date": {"mer. 16.05.2012": {"weekday": "wednesday", "year": 2012, "categories": {"HE": {"pace": 218000000000, "rank": 2, "distance": 11, "time": 2355.3}}, "day": 16, "month": 5, "livingplace": "Court"}}, "location": "La Chaux-de-Fonds"}, "Kerzerslauf": {"race": "Kerzerslauf", "longitude": 7.1954365, "latitude": 46.97488999999999, "date": {"sam. 15.03.2014": {"weekday": "saturday", "year": 2014, "categories": {"15-M20": {"pace": 211000000000, "rank": 26, "distance": 15, "time": 3172.7}}, "day": 15, "month": 3, "livingplace": "Court"}}, "location": "Kerzers"}}, "name": "Morand Micha\u00ebl", "birth": 1983}