{"sex": "M", "races": {"Course de l'Escalade, Gen\u00e8ve": {"race": "Course de l'Escalade, Gen\u00e8ve", "longitude": 6.1431577, "latitude": 46.2043907, "date": {"sam. 05.12.2015": {"weekday": "saturday", "year": 2015, "categories": {"Cad-A-M": {"pace": 203000000000, "rank": 12, "distance": 5, "time": 981.1}}, "day": 5, "month": 12, "livingplace": "St Legier"}}, "location": "Gen\u00e8ve"}, "Corrida Bulloise, Bulle": {"race": "Corrida Bulloise, Bulle", "longitude": 7.057726799999999, "latitude": 46.6154512, "date": {"sam. 20.11.2010": {"weekday": "saturday", "year": 2010, "categories": {"EB": {"pace": 230000000000, "rank": 5, "distance": 2, "time": 402.6}}, "day": 20, "month": 11, "livingplace": "St Legier"}}, "location": "Bulle"}, "Tour du Chablais #5 Leysin": {"race": "Tour du Chablais #5 Leysin", "longitude": 6.931504599999999, "latitude": 46.3603257, "date": {"mer. 05.05.2010": {"weekday": "wednesday", "year": 2010, "categories": {"M-EC3": {"pace": 256000000000, "rank": 3, "distance": 4, "time": 908.8}}, "day": 5, "month": 5, "livingplace": "St Legier"}}, "location": "Roche VD"}, "Course Titz\u00e9 de no\u00ebl Sion": {"race": "Course Titz\u00e9 de no\u00ebl Sion", "longitude": 7.360625999999999, "latitude": 46.2331221, "date": {"sam. 14.12.2013": {"weekday": "saturday", "year": 2013, "categories": {"K-CMB": {"pace": 227000000000, "rank": 15, "distance": 3, "time": 683.1}}, "day": 14, "month": 12, "livingplace": "St Legier"}}, "location": "Sion"}, "Tour du Chablais #6 Monthey": {"race": "Tour du Chablais #6 Monthey", "longitude": 6.970566, "latitude": 46.3190253, "date": {"mer. 08.05.2013": {"weekday": "wednesday", "year": 2013, "categories": {"M-EC2": {"pace": 239000000000, "rank": 18, "distance": 3, "time": 751.2}}, "day": 8, "month": 5, "livingplace": "St Legier"}}, "location": "Aigle"}, "Tour du Chablais #4 Yvorne": {"race": "Tour du Chablais #4 Yvorne", "date": {"mer. 28.04.2010": {"weekday": "wednesday", "year": 2010, "categories": {"M-EC3": {"pace": 253000000000, "rank": 3, "distance": 3, "time": 812.6}}, "day": 28, "month": 4, "livingplace": "St Legier"}}, "location": "Les Mosses"}, "Tour du Chablais #6 Aigle": {"race": "Tour du Chablais #6 Aigle", "longitude": 6.970566, "latitude": 46.3190253, "date": {"mer. 01.06.2011": {"weekday": "wednesday", "year": 2011, "categories": {"M-EC3": {"pace": 247000000000, "rank": 6, "distance": 5, "time": 1186.1}}, "day": 1, "month": 6, "livingplace": "St Legier"}}, "location": "Aigle"}, "Tour du Chablais #4 Morgins": {"race": "Tour du Chablais #4 Morgins", "date": {"mer. 18.05.2011": {"weekday": "wednesday", "year": 2011, "categories": {"M-EC3": {"pace": 264000000000, "rank": 9, "distance": 4, "time": 951.9}}, "day": 18, "month": 5, "livingplace": "St Legier"}}, "location": "Les Mosses"}, "Tour du Chablais #6 Mouthey": {"race": "Tour du Chablais #6 Mouthey", "longitude": 6.970566, "latitude": 46.3190253, "date": {"mer. 12.05.2010": {"weekday": "wednesday", "year": 2010, "categories": {"M-EC3": {"pace": 230000000000, "rank": 4, "distance": 3, "time": 738.0}}, "day": 12, "month": 5, "livingplace": "St Legier"}}, "location": "Aigle"}, "20km de Lausanne": {"race": "20km de Lausanne", "longitude": 6.6322734, "latitude": 46.5196535, "date": {"sam. 25.04.2009": {"weekday": "saturday", "year": 2009, "categories": {"EcolD-M": {"pace": 261000000000, "rank": 23, "distance": 2, "time": 523.8}}, "day": 25, "month": 4, "livingplace": "La Tour de Peilz"}, "sam. 28.04.2007": {"weekday": "saturday", "year": 2007, "categories": {"11": {"pace": 285000000000, "rank": 17, "distance": 2, "time": 570.5}}, "day": 28, "month": 4, "livingplace": "La Tour de Peilz"}, "sam. 25.04.2015": {"weekday": "saturday", "year": 2015, "categories": {"4-H17": {"pace": 206000000000, "rank": 5, "distance": 4, "time": 827.8}}, "day": 25, "month": 4, "livingplace": "Triviera"}}, "location": "Lausanne"}, "Course en f\u00f4ret, Romont": {"race": "Course en f\u00f4ret, Romont", "longitude": 6.9118086, "latitude": 46.691887, "date": {"dim. 21.09.2003": {"weekday": "sunday", "year": 2003, "categories": {"GC": {"pace": 385000000000, "rank": 35, "distance": 1, "time": 308.4}}, "day": 21, "month": 9, "livingplace": "La Tour de Peilz"}}, "location": "Romont FR"}, "Les Traine-Savates, Cheseaux-sur-Lausanne": {"race": "Les Traine-Savates, Cheseaux-sur-Lausanne", "longitude": 6.6047712, "latitude": 46.585452, "date": {"sam. 04.04.2009": {"weekday": "saturday", "year": 2009, "categories": {"EcolB-M": {"pace": 238000000000, "rank": 4, "distance": 3, "time": 811.1}}, "day": 4, "month": 4, "livingplace": "St Legier La Chiesaz"}}, "location": "Cheseaux-sur-Lausanne"}, "Tour du Chablais #2 Rennaz": {"race": "Tour du Chablais #2 Rennaz", "longitude": 6.854975199999999, "latitude": 46.3835529, "date": {"mer. 04.05.2011": {"weekday": "wednesday", "year": 2011, "categories": {"M-EC3": {"pace": 228000000000, "rank": 5, "distance": 3, "time": 730.7}}, "day": 4, "month": 5, "livingplace": "St Legier"}}, "location": "Bouveret"}}, "name": "Moraz Pierre", "birth": 1999}