{"sex": "F", "races": {"Engadiner Sommerlauf, Samedan": {"race": "Engadiner Sommerlauf, Samedan", "date": {"dim. 21.08.2011": {"weekday": "sunday", "year": 2011, "categories": {"S-D2": {"pace": 387000000000, "rank": 58, "distance": 27, "time": 10472.4}}, "day": 21, "month": 8, "livingplace": "Aubonne"}}, "location": "Bever"}, "Tour du Pays de Vaud #2 - Genolier": {"race": "Tour du Pays de Vaud #2 - Genolier", "longitude": 6.7702883, "latitude": 46.5955273, "date": {"mer. 15.08.2012": {"weekday": "wednesday", "year": 2012, "categories": {"D-Sen2": {"pace": 347000000000, "rank": 42, "distance": 9, "time": 2950.3}}, "day": 15, "month": 8, "livingplace": "Le Brassus"}}, "location": "M\u00e9zi\u00e8res VD"}, "ASICS Bremgarter Reusslauf": {"race": "ASICS Bremgarter Reusslauf", "longitude": 8.3397905, "latitude": 47.34917739999999, "date": {"sam. 23.02.2013": {"weekday": "saturday", "year": 2013, "categories": {"11-F40": {"pace": 342000000000, "rank": 153, "distance": 11, "time": 3766.6}}, "day": 23, "month": 2, "livingplace": "Le Brassus"}}, "location": "Bremgarten AG"}, "Morat-Fribourg": {"race": "Morat-Fribourg", "longitude": 7.120184, "latitude": 46.92922110000001, "date": {"sam. 03.10.2009": {"weekday": "saturday", "year": 2009, "categories": {"C-W35": {"pace": 405000000000, "rank": 259, "distance": 17, "time": 6965.5}}, "day": 3, "month": 10, "livingplace": "Aubonne"}}, "location": "Murten"}, "Kerzerslauf": {"race": "Kerzerslauf", "longitude": 7.1954365, "latitude": 46.97488999999999, "date": {"sam. 19.03.2011": {"weekday": "saturday", "year": 2011, "categories": {"15-F35": {"pace": 377000000000, "rank": 163, "distance": 15, "time": 5665.4}}, "day": 19, "month": 3, "livingplace": "Aubonne"}, "sam. 16.03.2013": {"weekday": "saturday", "year": 2013, "categories": {"15-F40": {"pace": 356000000000, "rank": 192, "distance": 15, "time": 5351.2}}, "day": 16, "month": 3, "livingplace": "Le Brassus"}}, "location": "Kerzers"}, "20km de Lausanne": {"race": "20km de Lausanne", "longitude": 6.6322734, "latitude": 46.5196535, "date": {"sam. 28.04.2012": {"weekday": "saturday", "year": 2012, "categories": {"10-F40": {"pace": 344000000000, "rank": 100, "distance": 10, "time": 3440.9}}, "day": 28, "month": 4, "livingplace": "Aubonne"}}, "location": "Lausanne"}}, "name": "Morellon Sarah", "birth": 1972}