{"sex": "M", "races": {"Tour du Chablais #1 Montreux": {"race": "Tour du Chablais #1 Montreux", "longitude": 6.9916269, "latitude": 46.2957462, "date": {"mer. 11.04.2012": {"weekday": "wednesday", "year": 2012, "categories": {"M-M20": {"pace": 233000000000, "rank": 29, "distance": 8, "time": 1777.5}}, "day": 11, "month": 4, "livingplace": "Fully"}}, "location": "Ollon VD"}, "Tour du Chablais #6 Monthey": {"race": "Tour du Chablais #6 Monthey", "longitude": 6.970566, "latitude": 46.3190253, "date": {"mer. 08.05.2013": {"weekday": "wednesday", "year": 2013, "categories": {"M-M20": {"pace": 217000000000, "rank": 15, "distance": 9, "time": 2025.3}}, "day": 8, "month": 5, "livingplace": "Fully"}}, "location": "Aigle"}, "Tour du Chablais #2 Yvorne": {"race": "Tour du Chablais #2 Yvorne", "longitude": 6.854975199999999, "latitude": 46.3835529, "date": {"mer. 10.04.2013": {"weekday": "wednesday", "year": 2013, "categories": {"M-M20": {"pace": 240000000000, "rank": 20, "distance": 8, "time": 1923.4}}, "day": 10, "month": 4, "livingplace": "Fully"}}, "location": "Bouveret"}, "Tour du Chablais #2 Bex": {"race": "Tour du Chablais #2 Bex", "longitude": 6.854975199999999, "latitude": 46.3835529, "date": {"mer. 18.04.2012": {"weekday": "wednesday", "year": 2012, "categories": {"M-M20": {"pace": 227000000000, "rank": 25, "distance": 8, "time": 1816.7}}, "day": 18, "month": 4, "livingplace": "Fully"}}, "location": "Bouveret"}, "Tour du Chablais #3 Bouveret": {"race": "Tour du Chablais #3 Bouveret", "longitude": 7.0223787, "latitude": 46.1782231, "date": {"mer. 17.04.2013": {"weekday": "wednesday", "year": 2013, "categories": {"M-M20": {"pace": 226000000000, "rank": 19, "distance": 10, "time": 2265.6}}, "day": 17, "month": 4, "livingplace": "Fully"}}, "location": "Evionnaz"}, "Tour du Chablais #1 Roche": {"race": "Tour du Chablais #1 Roche", "longitude": 6.9916269, "latitude": 46.2957462, "date": {"mer. 03.04.2013": {"weekday": "wednesday", "year": 2013, "categories": {"M-M20": {"pace": 221000000000, "rank": 17, "distance": 9, "time": 1962.3}}, "day": 3, "month": 4, "livingplace": "Fully"}}, "location": "Ollon VD"}, "Tour du Chablais #1 Martigny": {"race": "Tour du Chablais #1 Martigny", "longitude": 6.9916269, "latitude": 46.2957462, "date": {"mer. 23.04.2014": {"weekday": "wednesday", "year": 2014, "categories": {"M-M20": {"pace": 210000000000, "rank": 14, "distance": 9, "time": 1792.8}}, "day": 23, "month": 4, "livingplace": "Fully"}}, "location": "Ollon VD"}, "Tour du Chablais #6 Aigle": {"race": "Tour du Chablais #6 Aigle", "longitude": 6.970566, "latitude": 46.3190253, "date": {"mer. 01.06.2011": {"weekday": "wednesday", "year": 2011, "categories": {"M-M20": {"pace": 254000000000, "rank": 94, "distance": 10, "time": 2591.6}}, "day": 1, "month": 6, "livingplace": "Fully"}}, "location": "Aigle"}, "Tour du Chablais #4 Morgins": {"race": "Tour du Chablais #4 Morgins", "date": {"mer. 18.05.2011": {"weekday": "wednesday", "year": 2011, "categories": {"M-M20": {"pace": 294000000000, "rank": 126, "distance": 8, "time": 2460.4}}, "day": 18, "month": 5, "livingplace": "Fully"}}, "location": "Les Mosses"}, "Tour du Chablais #4 Champ\u00e9ry": {"race": "Tour du Chablais #4 Champ\u00e9ry", "date": {"mer. 02.05.2012": {"weekday": "wednesday", "year": 2012, "categories": {"M-M20": {"pace": 224000000000, "rank": 26, "distance": 8, "time": 1866.8}}, "day": 2, "month": 5, "livingplace": "Fully"}}, "location": "Les Mosses"}, "Tour du Chablais #5 Morgins": {"race": "Tour du Chablais #5 Morgins", "longitude": 6.931504599999999, "latitude": 46.3603257, "date": {"mer. 01.05.2013": {"weekday": "wednesday", "year": 2013, "categories": {"M-M20": {"pace": 234000000000, "rank": 20, "distance": 8, "time": 1779.4}}, "day": 1, "month": 5, "livingplace": "Fully"}}, "location": "Roche VD"}, "Tour du Chablais #4 St  Maurice": {"race": "Tour du Chablais #4 St  Maurice", "date": {"mer. 24.04.2013": {"weekday": "wednesday", "year": 2013, "categories": {"M-M20": {"pace": 226000000000, "rank": 20, "distance": 10, "time": 2267.7}}, "day": 24, "month": 4, "livingplace": "Fully"}}, "location": "Les Mosses"}, "Aletsch-Halbmarathon, Bettmeralp": {"race": "Aletsch-Halbmarathon, Bettmeralp", "date": {"dim. 24.06.2012": {"weekday": "sunday", "year": 2012, "categories": {"M30": {"pace": 347000000000, "rank": 35, "distance": 21, "time": 7361.2}}, "day": 24, "month": 6, "livingplace": "Fully"}}, "location": "Bettmeralp"}}, "name": "Mottier Fabien", "birth": 1979}