{"sex": "F", "races": {"Tour du Chablais #6 Montreux": {"race": "Tour du Chablais #6 Montreux", "longitude": 6.970566, "latitude": 46.3190253, "date": {"mer. 16.05.2012": {"weekday": "wednesday", "year": 2012, "categories": {"F-F20": {"pace": 290000000000, "rank": 29, "distance": 9, "time": 2688.3}}, "day": 16, "month": 5, "livingplace": "Troistorrents"}}, "location": "Aigle"}, "Tour du Chablais #4 Champ\u00e9ry": {"race": "Tour du Chablais #4 Champ\u00e9ry", "date": {"mer. 02.05.2012": {"weekday": "wednesday", "year": 2012, "categories": {"F-F20": {"pace": 311000000000, "rank": 49, "distance": 8, "time": 2581.6}}, "day": 2, "month": 5, "livingplace": "Troistorrents"}}, "location": "Les Mosses"}, "Tour du Chablais #2 Yvorne": {"race": "Tour du Chablais #2 Yvorne", "longitude": 6.854975199999999, "latitude": 46.3835529, "date": {"mer. 10.04.2013": {"weekday": "wednesday", "year": 2013, "categories": {"F-F20": {"pace": 329000000000, "rank": 43, "distance": 8, "time": 2634.8}}, "day": 10, "month": 4, "livingplace": "Troistorrents"}}, "location": "Bouveret"}, "Tour du Chablais #6 Monthey": {"race": "Tour du Chablais #6 Monthey", "longitude": 6.970566, "latitude": 46.3190253, "date": {"mer. 08.05.2013": {"weekday": "wednesday", "year": 2013, "categories": {"F-F20": {"pace": 292000000000, "rank": 36, "distance": 9, "time": 2727.6}}, "day": 8, "month": 5, "livingplace": "Troistorrents"}}, "location": "Aigle"}, "Tour du Chablais #2 Bex": {"race": "Tour du Chablais #2 Bex", "longitude": 6.854975199999999, "latitude": 46.3835529, "date": {"mer. 18.04.2012": {"weekday": "wednesday", "year": 2012, "categories": {"F-F20": {"pace": 305000000000, "rank": 38, "distance": 8, "time": 2441.5}}, "day": 18, "month": 4, "livingplace": "Troistorrents"}}, "location": "Bouveret"}, "Tour du Chablais #3 Bouveret": {"race": "Tour du Chablais #3 Bouveret", "longitude": 7.0223787, "latitude": 46.1782231, "date": {"mer. 17.04.2013": {"weekday": "wednesday", "year": 2013, "categories": {"F-F20": {"pace": 297000000000, "rank": 34, "distance": 10, "time": 2975.2}}, "day": 17, "month": 4, "livingplace": "Troistorrents"}}, "location": "Evionnaz"}, "Tour du Chablais #1 Roche": {"race": "Tour du Chablais #1 Roche", "longitude": 6.9916269, "latitude": 46.2957462, "date": {"mer. 03.04.2013": {"weekday": "wednesday", "year": 2013, "categories": {"F-F20": {"pace": 302000000000, "rank": 49, "distance": 9, "time": 2678.2}}, "day": 3, "month": 4, "livingplace": "Troistorrents"}}, "location": "Ollon VD"}, "Tour du Chablais #3 Collombey-Muraz": {"race": "Tour du Chablais #3 Collombey-Muraz", "longitude": 7.0223787, "latitude": 46.1782231, "date": {"mer. 25.04.2012": {"weekday": "wednesday", "year": 2012, "categories": {"F-F20": {"pace": 294000000000, "rank": 33, "distance": 9, "time": 2640.8}}, "day": 25, "month": 4, "livingplace": "Troistorrents"}}, "location": "Evionnaz"}, "Morat-Fribourg": {"race": "Morat-Fribourg", "longitude": 7.120184, "latitude": 46.92922110000001, "date": {"sam. 03.10.2009": {"weekday": "saturday", "year": 2009, "categories": {"C-W20": {"pace": 332000000000, "rank": 149, "distance": 17, "time": 5702.3}}, "day": 3, "month": 10, "livingplace": "Cham"}, "sam. 04.10.2008": {"weekday": "saturday", "year": 2008, "categories": {"C-W20": {"pace": 319000000000, "rank": 128, "distance": 17, "time": 5493.7}}, "day": 4, "month": 10, "livingplace": "Aigle"}, "sam. 06.10.2012": {"weekday": "saturday", "year": 2012, "categories": {"17-W20": {"pace": 328000000000, "rank": 186, "distance": 17, "time": 5725.4}}, "day": 6, "month": 10, "livingplace": "Troistorrents"}}, "location": "Murten"}, "20km de Lausanne": {"race": "20km de Lausanne", "longitude": 6.6322734, "latitude": 46.5196535, "date": {"sam. 25.04.2009": {"weekday": "saturday", "year": 2009, "categories": {"20-F20": {"pace": 309000000000, "rank": 40, "distance": 20, "time": 6195.3}}, "day": 25, "month": 4, "livingplace": "Aigle"}, "sam. 28.04.2007": {"weekday": "saturday", "year": 2007, "categories": {"20F20": {"pace": 335000000000, "rank": 44, "distance": 20, "time": 6704.1}}, "day": 28, "month": 4, "livingplace": "TL 7   Mixte 20 km"}, "sam. 22.04.2006": {"weekday": "saturday", "year": 2006, "categories": {"10/F20": {"pace": 346000000000, "rank": 121, "distance": 10, "time": 3461.7}}, "day": 22, "month": 4, "livingplace": "Aigle"}}, "location": "Lausanne"}, "Tour du Chablais #1 Montreux": {"race": "Tour du Chablais #1 Montreux", "longitude": 6.9916269, "latitude": 46.2957462, "date": {"mer. 11.04.2012": {"weekday": "wednesday", "year": 2012, "categories": {"F-F20": {"pace": 319000000000, "rank": 44, "distance": 8, "time": 2431.5}}, "day": 11, "month": 4, "livingplace": "Troistorrents"}}, "location": "Ollon VD"}, "Tour du Chablais #5 Les Mosses": {"race": "Tour du Chablais #5 Les Mosses", "longitude": 6.931504599999999, "latitude": 46.3603257, "date": {"mer. 25.05.2011": {"weekday": "wednesday", "year": 2011, "categories": {"F-F20": {"pace": 411000000000, "rank": 108, "distance": 8, "time": 3295.8}}, "day": 25, "month": 5, "livingplace": "Aigle"}}, "location": "Roche VD"}, "Tour du Chablais #4 Morgins": {"race": "Tour du Chablais #4 Morgins", "date": {"mer. 18.05.2011": {"weekday": "wednesday", "year": 2011, "categories": {"F-F20": {"pace": 312000000000, "rank": 32, "distance": 8, "time": 2612.4}}, "day": 18, "month": 5, "livingplace": "Aigle"}}, "location": "Les Mosses"}, "Tour du Chablais #5 Bex": {"race": "Tour du Chablais #5 Bex", "longitude": 6.931504599999999, "latitude": 46.3603257, "date": {"mer. 09.05.2012": {"weekday": "wednesday", "year": 2012, "categories": {"F-F20": {"pace": 291000000000, "rank": 32, "distance": 9, "time": 2584.2}}, "day": 9, "month": 5, "livingplace": "Troistorrents"}}, "location": "Roche VD"}, "Tour du Chablais #5 Morgins": {"race": "Tour du Chablais #5 Morgins", "longitude": 6.931504599999999, "latitude": 46.3603257, "date": {"mer. 01.05.2013": {"weekday": "wednesday", "year": 2013, "categories": {"F-F20": {"pace": 316000000000, "rank": 35, "distance": 8, "time": 2402.9}}, "day": 1, "month": 5, "livingplace": "Troistorrents"}}, "location": "Roche VD"}, "Tour du Chablais #4 St  Maurice": {"race": "Tour du Chablais #4 St  Maurice", "date": {"mer. 24.04.2013": {"weekday": "wednesday", "year": 2013, "categories": {"F-F20": {"pace": 301000000000, "rank": 32, "distance": 10, "time": 3018.0}}, "day": 24, "month": 4, "livingplace": "Troistorrents"}}, "location": "Les Mosses"}, "Tour du Chablais #2 Rennaz": {"race": "Tour du Chablais #2 Rennaz", "longitude": 6.854975199999999, "latitude": 46.3835529, "date": {"mer. 04.05.2011": {"weekday": "wednesday", "year": 2011, "categories": {"F-F20": {"pace": 398000000000, "rank": 129, "distance": 9, "time": 3728.6}}, "day": 4, "month": 5, "livingplace": "Aigle"}}, "location": "Bouveret"}}, "name": "Mottier Miranda", "birth": 1982}