{"sex": "F", "races": {"Hallwilerseelauf, Beinwil am See": {"race": "Hallwilerseelauf, Beinwil am See", "date": {"sam. 15.10.2011": {"weekday": "saturday", "year": 2011, "categories": {"21-F30": {"pace": 268000000000, "rank": 17, "distance": 21, "time": 5669.7}}, "day": 15, "month": 10, "livingplace": "Thalwil"}}, "location": "Beinwil am See"}, "Z\u00fcrich Marathon, Teamrun und Cityrun": {"race": "Z\u00fcrich Marathon, Teamrun und Cityrun", "longitude": 8.541694, "latitude": 47.3768866, "date": {"dim. 06.04.2014": {"weekday": "sunday", "year": 2014, "categories": {"10-W40": {"pace": 257000000000, "rank": 6, "distance": 10, "time": 2524.6}}, "day": 6, "month": 4, "livingplace": "Thalwil"}}, "location": "Z\u00fcrich"}, "Sihltaler Fr\u00fchlingslauf, Gattikon": {"race": "Sihltaler Fr\u00fchlingslauf, Gattikon", "longitude": 8.5644799, "latitude": 47.2949282, "date": {"dim. 01.05.2011": {"weekday": "sunday", "year": 2011, "categories": {"10-F30": {"pace": 266000000000, "rank": 4, "distance": 10, "time": 2668.3}}, "day": 1, "month": 5, "livingplace": "Adliswil"}}, "location": "Gattikon"}, "Pfingstlauf Wohlen AG": {"race": "Pfingstlauf Wohlen AG", "longitude": 8.2768762, "latitude": 47.3493653, "date": {"sam. 11.06.2011": {"weekday": "saturday", "year": 2011, "categories": {"8-10-F30": {"pace": 258000000000, "rank": 2, "distance": 10, "time": 2588.8}}, "day": 11, "month": 6, "livingplace": "Adliswil"}}, "location": "Wohlen AG"}, "ASICS Bremgarter Reusslauf": {"race": "ASICS Bremgarter Reusslauf", "longitude": 8.3397905, "latitude": 47.34917739999999, "date": {"sam. 26.02.2011": {"weekday": "saturday", "year": 2011, "categories": {"F30": {"pace": 255000000000, "rank": 25, "distance": 11, "time": 2810.2}}, "day": 26, "month": 2, "livingplace": "Adliswil"}}, "location": "Bremgarten AG"}, "Lucerne Marathon, Luzern": {"race": "Lucerne Marathon, Luzern", "longitude": 8.3093072, "latitude": 47.05016819999999, "date": {"dim. 31.10.2010": {"weekday": "sunday", "year": 2010, "categories": {"H-F30": {"pace": 279000000000, "rank": 29, "distance": 21, "time": 5897.5}}, "day": 31, "month": 10, "livingplace": "Adliswil"}}, "location": "Luzern"}, "SwissCityMarathon - Lucerne, Luzern": {"race": "SwissCityMarathon - Lucerne, Luzern", "longitude": 8.3093072, "latitude": 47.05016819999999, "date": {"dim. 26.10.2014": {"weekday": "sunday", "year": 2014, "categories": {"H-F40": {"pace": 266000000000, "rank": 17, "distance": 21, "time": 5616.5}}, "day": 26, "month": 10, "livingplace": "Thalwil"}}, "location": "Luzern"}}, "name": "Moulin Lantz Armelle", "birth": 1972}