{"sex": "M", "races": {"Tour du Chablais #1 Montreux": {"race": "Tour du Chablais #1 Montreux", "longitude": 6.9916269, "latitude": 46.2957462, "date": {"mer. 11.04.2012": {"weekday": "wednesday", "year": 2012, "categories": {"M-M20": {"pace": 272000000000, "rank": 89, "distance": 8, "time": 2074.6}}, "day": 11, "month": 4, "livingplace": "Martigny Croix"}}, "location": "Ollon VD"}, "Tour du Chablais #2 Bex": {"race": "Tour du Chablais #2 Bex", "longitude": 6.854975199999999, "latitude": 46.3835529, "date": {"mer. 18.04.2012": {"weekday": "wednesday", "year": 2012, "categories": {"M-M20": {"pace": 266000000000, "rank": 91, "distance": 8, "time": 2135.5}}, "day": 18, "month": 4, "livingplace": "Martigny Croix"}}, "location": "Bouveret"}, "Tour du Chablais #3 Bouveret": {"race": "Tour du Chablais #3 Bouveret", "longitude": 7.0223787, "latitude": 46.1782231, "date": {"mer. 17.04.2013": {"weekday": "wednesday", "year": 2013, "categories": {"M-M40": {"pace": 280000000000, "rank": 83, "distance": 10, "time": 2806.5}}, "day": 17, "month": 4, "livingplace": "Martigny Croix"}}, "location": "Evionnaz"}, "Tour du Chablais #1 Roche": {"race": "Tour du Chablais #1 Roche", "longitude": 6.9916269, "latitude": 46.2957462, "date": {"mer. 03.04.2013": {"weekday": "wednesday", "year": 2013, "categories": {"M-M40": {"pace": 271000000000, "rank": 71, "distance": 9, "time": 2405.3}}, "day": 3, "month": 4, "livingplace": "Martigny Croix"}}, "location": "Ollon VD"}, "Tour du Chablais #3 Collombey-Muraz": {"race": "Tour du Chablais #3 Collombey-Muraz", "longitude": 7.0223787, "latitude": 46.1782231, "date": {"mer. 25.04.2012": {"weekday": "wednesday", "year": 2012, "categories": {"M-M20": {"pace": 262000000000, "rank": 87, "distance": 9, "time": 2357.1}}, "day": 25, "month": 4, "livingplace": "Martigny Croix"}}, "location": "Evionnaz"}, "Tour du Chablais #6 Montreux": {"race": "Tour du Chablais #6 Montreux", "longitude": 6.970566, "latitude": 46.3190253, "date": {"mer. 16.05.2012": {"weekday": "wednesday", "year": 2012, "categories": {"M-M20": {"pace": 256000000000, "rank": 88, "distance": 9, "time": 2369.9}}, "day": 16, "month": 5, "livingplace": "Martigny Croix"}}, "location": "Aigle"}, "Montreux - Les Rochers de Naye": {"race": "Montreux - Les Rochers de Naye", "longitude": 6.9106799, "latitude": 46.4312213, "date": {"dim. 06.07.2014": {"weekday": "sunday", "year": 2014, "categories": {"M-HV\u00e9t1": {"pace": 515000000000, "rank": 107, "distance": 19, "time": 9697.7}}, "day": 6, "month": 7, "livingplace": "Martigny Croix"}}, "location": "Montreux"}, "Tour du Chablais #4 Morgins": {"race": "Tour du Chablais #4 Morgins", "date": {"mer. 18.05.2011": {"weekday": "wednesday", "year": 2011, "categories": {"M-M20": {"pace": 295000000000, "rank": 127, "distance": 8, "time": 2463.7}}, "day": 18, "month": 5, "livingplace": "Martigny Croix"}}, "location": "Les Mosses"}, "Tour du Chablais #6 Aigle": {"race": "Tour du Chablais #6 Aigle", "longitude": 6.970566, "latitude": 46.3190253, "date": {"mer. 01.06.2011": {"weekday": "wednesday", "year": 2011, "categories": {"M-M20": {"pace": 262000000000, "rank": 118, "distance": 10, "time": 2677.5}}, "day": 1, "month": 6, "livingplace": "Martigny Croix"}}, "location": "Aigle"}, "Tour du Chablais #4 Champ\u00e9ry": {"race": "Tour du Chablais #4 Champ\u00e9ry", "date": {"mer. 02.05.2012": {"weekday": "wednesday", "year": 2012, "categories": {"M-M20": {"pace": 261000000000, "rank": 83, "distance": 8, "time": 2169.6}}, "day": 2, "month": 5, "livingplace": "Martigny Croix"}}, "location": "Les Mosses"}, "Tour du Chablais #5 Les Mosses": {"race": "Tour du Chablais #5 Les Mosses", "longitude": 6.931504599999999, "latitude": 46.3603257, "date": {"mer. 25.05.2011": {"weekday": "wednesday", "year": 2011, "categories": {"M-M20": {"pace": 296000000000, "rank": 123, "distance": 8, "time": 2374.1}}, "day": 25, "month": 5, "livingplace": "Martigny Croix"}}, "location": "Roche VD"}, "Tour du Chablais #1 Lavey": {"race": "Tour du Chablais #1 Lavey", "longitude": 6.9916269, "latitude": 46.2957462, "date": {"mer. 27.04.2011": {"weekday": "wednesday", "year": 2011, "categories": {"M-M20": {"pace": 276000000000, "rank": 123, "distance": 9, "time": 2491.3}}, "day": 27, "month": 4, "livingplace": "Martigny Croix"}}, "location": "Ollon VD"}, "Tour du Chablais #5 Bex": {"race": "Tour du Chablais #5 Bex", "longitude": 6.931504599999999, "latitude": 46.3603257, "date": {"mer. 09.05.2012": {"weekday": "wednesday", "year": 2012, "categories": {"M-M20": {"pace": 258000000000, "rank": 75, "distance": 9, "time": 2292.3}}, "day": 9, "month": 5, "livingplace": "Martigny Croix"}}, "location": "Roche VD"}, "Tour du Chablais #5 Morgins": {"race": "Tour du Chablais #5 Morgins", "longitude": 6.931504599999999, "latitude": 46.3603257, "date": {"mer. 01.05.2013": {"weekday": "wednesday", "year": 2013, "categories": {"M-M40": {"pace": 288000000000, "rank": 60, "distance": 8, "time": 2196.0}}, "day": 1, "month": 5, "livingplace": "Martigny Croix"}}, "location": "Roche VD"}, "Tour du Chablais #3 Le Bouveret": {"race": "Tour du Chablais #3 Le Bouveret", "longitude": 7.0223787, "latitude": 46.1782231, "date": {"mer. 11.05.2011": {"weekday": "wednesday", "year": 2011, "categories": {"M-M20": {"pace": 275000000000, "rank": 147, "distance": 10, "time": 2751.2}}, "day": 11, "month": 5, "livingplace": "Martigny Croix"}}, "location": "Evionnaz"}, "Tour du Chablais #4 St  Maurice": {"race": "Tour du Chablais #4 St  Maurice", "date": {"mer. 24.04.2013": {"weekday": "wednesday", "year": 2013, "categories": {"M-M40": {"pace": 277000000000, "rank": 71, "distance": 10, "time": 2779.4}}, "day": 24, "month": 4, "livingplace": "Martigny Croix"}}, "location": "Les Mosses"}, "Tour du Chablais #2 Rennaz": {"race": "Tour du Chablais #2 Rennaz", "longitude": 6.854975199999999, "latitude": 46.3835529, "date": {"mer. 04.05.2011": {"weekday": "wednesday", "year": 2011, "categories": {"M-M20": {"pace": 270000000000, "rank": 124, "distance": 9, "time": 2524.8}}, "day": 4, "month": 5, "livingplace": "Martigny Croix"}}, "location": "Bouveret"}}, "name": "Moulin G\u00e9rard", "birth": 1973}