{"sex": "F", "races": {"Tour du pays de Vaud #6 - St  Prex": {"race": "Tour du pays de Vaud #6 - St  Prex", "longitude": 6.458343500000001, "latitude": 46.4829113, "date": {"mer. 14.09.2011": {"weekday": "wednesday", "year": 2011, "categories": {"D-Dam": {"pace": 289000000000, "rank": 10, "distance": 9, "time": 2490.3}}, "day": 14, "month": 9, "livingplace": "Lausanne"}}, "location": "St-Prex"}, "Tour du Pays de Vaud etape 1 - Le Mont sur Lausanne": {"race": "Tour du Pays de Vaud etape 1 - Le Mont sur Lausanne", "longitude": 6.641183, "latitude": 46.7784736, "date": {"mer. 12.08.2009": {"weekday": "wednesday", "year": 2009, "categories": {"Dam": {"pace": 277000000000, "rank": 1, "distance": 9, "time": 2580.5}}, "day": 12, "month": 8, "livingplace": "Lausanne"}}, "location": "Yverdon-les-Bains"}, "20km de Lausanne": {"race": "20km de Lausanne", "longitude": 6.6322734, "latitude": 46.5196535, "date": {"sam. 24.04.2010": {"weekday": "saturday", "year": 2010, "categories": {"10-F20": {"pace": 308000000000, "rank": 68, "distance": 10, "time": 3089.4}}, "day": 24, "month": 4, "livingplace": "Tri Team Lutry"}}, "location": "Lausanne"}, "Tour du Chablais #4 Yvorne": {"race": "Tour du Chablais #4 Yvorne", "date": {"mer. 28.04.2010": {"weekday": "wednesday", "year": 2010, "categories": {"F-F20": {"pace": 318000000000, "rank": 29, "distance": 8, "time": 2640.5}}, "day": 28, "month": 4, "livingplace": "Lausanne"}}, "location": "Les Mosses"}, "Tour du Pays de Vaud etape 5 - La Sarraz": {"race": "Tour du Pays de Vaud etape 5 - La Sarraz", "longitude": 6.539251200000001, "latitude": 46.5993131, "date": {"mer. 09.09.2009": {"weekday": "wednesday", "year": 2009, "categories": {"Dam": {"pace": 295000000000, "rank": 8, "distance": 9, "time": 2481.1}}, "day": 9, "month": 9, "livingplace": "Lausanne"}}, "location": "Penthaz"}, "Tour du pays de Vaud #1 - Mezi\u00e8res": {"race": "Tour du pays de Vaud #1 - Mezi\u00e8res", "longitude": 6.641183, "latitude": 46.7784736, "date": {"mer. 10.08.2011": {"weekday": "wednesday", "year": 2011, "categories": {"D-Dam": {"pace": 296000000000, "rank": 11, "distance": 9, "time": 2518.8}}, "day": 10, "month": 8, "livingplace": "Lausanne"}}, "location": "Yverdon-les-Bains"}, "Morat-Fribourg": {"race": "Morat-Fribourg", "longitude": 7.120184, "latitude": 46.92922110000001, "date": {"sam. 03.10.2009": {"weekday": "saturday", "year": 2009, "categories": {"C-W20": {"pace": 322000000000, "rank": 117, "distance": 17, "time": 5544.1}}, "day": 3, "month": 10, "livingplace": "Lausanne"}, "sam. 02.10.2010": {"weekday": "saturday", "year": 2010, "categories": {"17-W20": {"pace": 313000000000, "rank": 83, "distance": 17, "time": 5382.1}}, "day": 2, "month": 10, "livingplace": "Lausanne"}, "sam. 04.10.2008": {"weekday": "saturday", "year": 2008, "categories": {"C-W20": {"pace": 309000000000, "rank": 84, "distance": 17, "time": 5319.5}}, "day": 4, "month": 10, "livingplace": "Lausanne"}}, "location": "Murten"}, "Tour du Pays de Vaud etape 2 - Genolier": {"race": "Tour du Pays de Vaud etape 2 - Genolier", "longitude": 6.7702883, "latitude": 46.5955273, "date": {"mer. 20.08.2008": {"weekday": "wednesday", "year": 2008, "categories": {"Dam": {"pace": 305000000000, "rank": 9, "distance": 8, "time": 2536.0}}, "day": 20, "month": 8, "livingplace": "Lausanne"}, "mer. 19.08.2009": {"weekday": "wednesday", "year": 2009, "categories": {"Dam": {"pace": 314000000000, "rank": 10, "distance": 8, "time": 2548.8}}, "day": 19, "month": 8, "livingplace": "Lausanne"}}, "location": "M\u00e9zi\u00e8res VD"}, "Tour du pays de Vaud #5 - Penthaz": {"race": "Tour du pays de Vaud #5 - Penthaz", "longitude": 6.539251200000001, "latitude": 46.5993131, "date": {"mer. 07.09.2011": {"weekday": "wednesday", "year": 2011, "categories": {"D-Dam": {"pace": 330000000000, "rank": 7, "distance": 8, "time": 2758.5}}, "day": 7, "month": 9, "livingplace": "Lausanne"}}, "location": "Penthaz"}}, "name": "Mounir V\u00e9ronique", "birth": 1982}