{"sex": "M", "races": {"Course de l'Escalade, Gen\u00e8ve": {"race": "Course de l'Escalade, Gen\u00e8ve", "longitude": 6.1431577, "latitude": 46.2043907, "date": {"sam. 04.12.2010": {"weekday": "saturday", "year": 2010, "categories": {"H-Elite": {"pace": 220000000000, "rank": 228, "distance": 7, "time": 1595.4}}, "day": 4, "month": 12, "livingplace": "Yverdon les Bains"}}, "location": "Gen\u00e8ve"}, "Course de l'Avent, Yverdon": {"race": "Course de l'Avent, Yverdon", "longitude": 7.161971899999999, "latitude": 46.8064773, "date": {"dim. 27.11.2011": {"weekday": "sunday", "year": 2011, "categories": {"E-H2": {"pace": 227000000000, "rank": 9, "distance": 8, "time": 1762.0}}, "day": 27, "month": 11, "livingplace": "Yverdon les Bains"}}, "location": "Fribourg"}, "Hallwilerseelauf, Beinwil am See": {"race": "Hallwilerseelauf, Beinwil am See", "date": {"sam. 10.10.2009": {"weekday": "saturday", "year": 2009, "categories": {"21-M20": {"pace": 247000000000, "rank": 42, "distance": 21, "time": 5219.1}}, "day": 10, "month": 10, "livingplace": "Yverdon les Bains"}}, "location": "Beinwil am See"}, "10km, Payerne": {"race": "10km, Payerne", "longitude": 6.9405663, "latitude": 46.8220266, "date": {"sam. 16.04.2011": {"weekday": "saturday", "year": 2011, "categories": {"M30": {"pace": 230000000000, "rank": 12, "distance": 10, "time": 2305.0}}, "day": 16, "month": 4, "livingplace": "Yverdon"}}, "location": "Payerne"}, "Kerzerslauf": {"race": "Kerzerslauf", "longitude": 7.1954365, "latitude": 46.97488999999999, "date": {"sam. 15.03.2014": {"weekday": "saturday", "year": 2014, "categories": {"15-M20": {"pace": 251000000000, "rank": 145, "distance": 15, "time": 3777.9}}, "day": 15, "month": 3, "livingplace": "Yverdon les Bains"}}, "location": "Kerzers"}, "Morat-Fribourg": {"race": "Morat-Fribourg", "longitude": 7.120184, "latitude": 46.92922110000001, "date": {"sam. 03.10.2015": {"weekday": "saturday", "year": 2015, "categories": {"17-M20": {"pace": 308000000000, "rank": 1139, "distance": 17, "time": 5303.1}}, "day": 3, "month": 10, "livingplace": "Yverdon les Bains"}}, "location": "Murten"}, "20km de Lausanne": {"race": "20km de Lausanne", "longitude": 6.6322734, "latitude": 46.5196535, "date": {"sam. 24.04.2010": {"weekday": "saturday", "year": 2010, "categories": {"20-H20": {"pace": 245000000000, "rank": 34, "distance": 20, "time": 4908.3}}, "day": 24, "month": 4, "livingplace": "Yverdon les Bains"}, "sam. 30.04.2011": {"weekday": "saturday", "year": 2011, "categories": {"20-H30": {"pace": 245000000000, "rank": 66, "distance": 20, "time": 4900.7}}, "day": 30, "month": 4, "livingplace": "Yverdon les Bains"}}, "location": "Lausanne"}, "Tour du Pays de Vaud etape 1 - Le Mont sur Lausanne": {"race": "Tour du Pays de Vaud etape 1 - Le Mont sur Lausanne", "longitude": 6.641183, "latitude": 46.7784736, "date": {"mer. 13.08.2008": {"weekday": "wednesday", "year": 2008, "categories": {"Hom": {"pace": 245000000000, "rank": 10, "distance": 8, "time": 2062.7}}, "day": 13, "month": 8, "livingplace": "Yverdon"}}, "location": "Yverdon-les-Bains"}, "10km de Payerne": {"race": "10km de Payerne", "longitude": 6.9405663, "latitude": 46.8220266, "date": {"sam. 28.03.2009": {"weekday": "saturday", "year": 2009, "categories": {"M Elite": {"pace": 236000000000, "rank": 56, "distance": 10, "time": 2361.7}}, "day": 28, "month": 3, "livingplace": "Les Onamistes"}, "sam. 27.03.2010": {"weekday": "saturday", "year": 2010, "categories": {"M Elite": {"pace": 231000000000, "rank": 69, "distance": 10, "time": 2310.3}}, "day": 27, "month": 3, "livingplace": "Yverdon"}}, "location": "Payerne"}, "Lausanne Marathon": {"race": "Lausanne Marathon", "longitude": 6.6322734, "latitude": 46.5196535, "date": {"dim. 31.10.2010": {"weekday": "sunday", "year": 2010, "categories": {"42-H1": {"pace": 293000000000, "rank": 34, "distance": 42, "time": 12391.0}}, "day": 31, "month": 10, "livingplace": "Yverdon"}}, "location": "Lausanne"}, "Z\u00fcrich Marathon, Teamrun und Cityrun": {"race": "Z\u00fcrich Marathon, Teamrun und Cityrun", "longitude": 8.541694, "latitude": 47.3768866, "date": {"dim. 26.04.2009": {"weekday": "sunday", "year": 2009, "categories": {"M20": {"pace": 289000000000, "rank": 89, "distance": 42, "time": 12194.7}}, "day": 26, "month": 4, "livingplace": "Yverdon"}}, "location": "Z\u00fcrich"}, "Les Traine-Savates, Cheseaux-sur-Lausanne": {"race": "Les Traine-Savates, Cheseaux-sur-Lausanne", "longitude": 6.6047712, "latitude": 46.585452, "date": {"sam. 09.04.2011": {"weekday": "saturday", "year": 2011, "categories": {"10-M20": {"pace": 235000000000, "rank": 39, "distance": 10, "time": 2444.6}}, "day": 9, "month": 4, "livingplace": "Yverdon"}}, "location": "Cheseaux-sur-Lausanne"}, "Tour du Pays de Vaud etape 2 - Genolier": {"race": "Tour du Pays de Vaud etape 2 - Genolier", "longitude": 6.7702883, "latitude": 46.5955273, "date": {"mer. 20.08.2008": {"weekday": "wednesday", "year": 2008, "categories": {"Hom": {"pace": 244000000000, "rank": 12, "distance": 8, "time": 2031.9}}, "day": 20, "month": 8, "livingplace": "Yverdon"}}, "location": "M\u00e9zi\u00e8res VD"}}, "name": "Mozzillo Carmine", "birth": 1981}