{"sex": "M", "races": {"Tour du Chablais #5 Morgins": {"race": "Tour du Chablais #5 Morgins", "longitude": 6.931504599999999, "latitude": 46.3603257, "date": {"mer. 01.05.2013": {"weekday": "wednesday", "year": 2013, "categories": {"M-Jun": {"pace": 274000000000, "rank": 8, "distance": 8, "time": 2086.8}}, "day": 1, "month": 5, "livingplace": "Vevey"}}, "location": "Roche VD"}, "Tour du Chablais #6 Monthey": {"race": "Tour du Chablais #6 Monthey", "longitude": 6.970566, "latitude": 46.3190253, "date": {"mer. 08.05.2013": {"weekday": "wednesday", "year": 2013, "categories": {"M-Jun": {"pace": 256000000000, "rank": 10, "distance": 9, "time": 2391.1}}, "day": 8, "month": 5, "livingplace": "Vevey"}}, "location": "Aigle"}, "Tour du Chablais #2 Yvorne": {"race": "Tour du Chablais #2 Yvorne", "longitude": 6.854975199999999, "latitude": 46.3835529, "date": {"mer. 10.04.2013": {"weekday": "wednesday", "year": 2013, "categories": {"M-Jun": {"pace": 283000000000, "rank": 5, "distance": 8, "time": 2264.4}}, "day": 10, "month": 4, "livingplace": "Vevey"}}, "location": "Bouveret"}, "Tour du Chablais #3 Bouveret": {"race": "Tour du Chablais #3 Bouveret", "longitude": 7.0223787, "latitude": 46.1782231, "date": {"mer. 17.04.2013": {"weekday": "wednesday", "year": 2013, "categories": {"M-Jun": {"pace": 273000000000, "rank": 6, "distance": 10, "time": 2733.7}}, "day": 17, "month": 4, "livingplace": "Vevey"}}, "location": "Evionnaz"}, "Tour du Chablais #1 Roche": {"race": "Tour du Chablais #1 Roche", "longitude": 6.9916269, "latitude": 46.2957462, "date": {"mer. 03.04.2013": {"weekday": "wednesday", "year": 2013, "categories": {"M-Jun": {"pace": 252000000000, "rank": 4, "distance": 9, "time": 2235.5}}, "day": 3, "month": 4, "livingplace": "Vevey"}}, "location": "Ollon VD"}, "Tour du Chablais #4 St  Maurice": {"race": "Tour du Chablais #4 St  Maurice", "date": {"mer. 24.04.2013": {"weekday": "wednesday", "year": 2013, "categories": {"M-Jun": {"pace": 271000000000, "rank": 12, "distance": 10, "time": 2714.2}}, "day": 24, "month": 4, "livingplace": "Vevey"}}, "location": "Les Mosses"}, "20km de Lausanne": {"race": "20km de Lausanne", "longitude": 6.6322734, "latitude": 46.5196535, "date": {"sam. 30.04.2011": {"weekday": "saturday", "year": 2011, "categories": {"10-Hesp": {"pace": 315000000000, "rank": 172, "distance": 10, "time": 3159.8}}, "day": 30, "month": 4, "livingplace": "Vevey"}}, "location": "Lausanne"}}, "name": "Mroczek Flavien", "birth": 1994}