{"sex": "F", "races": {"Liestaler Stadtlauf": {"race": "Liestaler Stadtlauf", "longitude": 7.7334272, "latitude": 47.4866143, "date": {"mer. 28.08.2013": {"weekday": "wednesday", "year": 2013, "categories": {"W20": {"pace": 347000000000, "rank": 13, "distance": 12, "time": 4170.5}}, "day": 28, "month": 8, "livingplace": "Rheinfelden"}}, "location": "Liestal"}, "Schweizer Frauenlauf Bern": {"race": "Schweizer Frauenlauf Bern", "longitude": 7.4474468, "latitude": 46.9479739, "date": {"dim. 15.06.2014": {"weekday": "sunday", "year": 2014, "categories": {"10-W20": {"pace": 293000000000, "rank": 87, "distance": 10, "time": 2931.3}}, "day": 15, "month": 6, "livingplace": "Mohlin"}}, "location": "Bern"}, "Badener Limmat-Lauf, Baden": {"race": "Badener Limmat-Lauf, Baden", "longitude": 8.5303972, "latitude": 48.5699281, "date": {"sam. 29.03.2014": {"weekday": "saturday", "year": 2014, "categories": {"F20": {"pace": 301000000000, "rank": 19, "distance": 13, "time": 3969.0}}, "day": 29, "month": 3, "livingplace": "Mohlin"}}, "location": "Baden"}, "IWB Basel Marathon": {"race": "IWB Basel Marathon", "longitude": 7.5885761, "latitude": 47.5595986, "date": {"dim. 22.09.2013": {"weekday": "sunday", "year": 2013, "categories": {"H-21-F20": {"pace": 336000000000, "rank": 41, "distance": 21, "time": 7092.6}}, "day": 22, "month": 9, "livingplace": "Rheinfelden"}}, "location": "Basel"}, "Z\u00fcrich Marathon, Teamrun und Cityrun": {"race": "Z\u00fcrich Marathon, Teamrun und Cityrun", "longitude": 8.541694, "latitude": 47.3768866, "date": {"dim. 19.04.2015": {"weekday": "sunday", "year": 2015, "categories": {"42-W20": {"pace": 309000000000, "rank": 16, "distance": 42, "time": 13067.0}}, "day": 19, "month": 4, "livingplace": "Mohlin"}}, "location": "Z\u00fcrich"}, "Aletsch-Halbmarathon, Bettmeralp": {"race": "Aletsch-Halbmarathon, Bettmeralp", "date": {"dim. 28.06.2015": {"weekday": "sunday", "year": 2015, "categories": {"F20": {"pace": 438000000000, "rank": 41, "distance": 21, "time": 9258.3}}, "day": 28, "month": 6, "livingplace": "Lsvb"}}, "location": "Bettmeralp"}}, "name": "M\u00fcller Selina", "birth": 1990}