{"sex": "M", "races": {"Derendinger Abendlauf, Derendingen": {"race": "Derendinger Abendlauf, Derendingen", "longitude": 7.585593099999999, "latitude": 47.1952433, "date": {"ven. 28.06.2013": {"weekday": "friday", "year": 2013, "categories": {"M20": {"pace": 271000000000, "rank": 15, "distance": 10, "time": 2774.0}}, "day": 28, "month": 6, "livingplace": "Walterswil"}}, "location": "Derendingen"}, "SwissCityMarathon - Lucerne, Luzern": {"race": "SwissCityMarathon - Lucerne, Luzern", "longitude": 8.3093072, "latitude": 47.05016819999999, "date": {"dim. 27.10.2013": {"weekday": "sunday", "year": 2013, "categories": {"H-M20": {"pace": 285000000000, "rank": 231, "distance": 21, "time": 6019.2}}, "day": 27, "month": 10, "livingplace": "Walterswil"}}, "location": "Luzern"}, "Brienzerseelauf, B\u00f6nigen": {"race": "Brienzerseelauf, B\u00f6nigen", "date": {"sam. 10.10.2015": {"weekday": "saturday", "year": 2015, "categories": {"11-H-M20": {"pace": 270000000000, "rank": 17, "distance": 21, "time": 5711.5}}, "day": 10, "month": 10, "livingplace": "Walterswil"}}, "location": "B\u00f6nigen b. Interlaken"}, "Hallwilerseelauf, Beinwil am See": {"race": "Hallwilerseelauf, Beinwil am See", "date": {"sam. 12.10.2013": {"weekday": "saturday", "year": 2013, "categories": {"21-M20": {"pace": 287000000000, "rank": 136, "distance": 21, "time": 6056.7}}, "day": 12, "month": 10, "livingplace": "Walterswil"}}, "location": "Beinwil am See"}, "Emmenlauf Utzenstorf": {"race": "Emmenlauf Utzenstorf", "longitude": 7.5588034, "latitude": 47.12816670000001, "date": {"mer. 21.08.2013": {"weekday": "wednesday", "year": 2013, "categories": {"Herren1": {"pace": 255000000000, "rank": 9, "distance": 11, "time": 2685.7}}, "day": 21, "month": 8, "livingplace": "Walterswil"}}, "location": "Utzenstorf"}, "Kerzerslauf": {"race": "Kerzerslauf", "longitude": 7.1954365, "latitude": 46.97488999999999, "date": {"sam. 15.03.2014": {"weekday": "saturday", "year": 2014, "categories": {"15-M20": {"pace": 282000000000, "rank": 327, "distance": 15, "time": 4242.4}}, "day": 15, "month": 3, "livingplace": "Walterswil"}}, "location": "Kerzers"}, "Langenthaler Stadtlauf": {"race": "Langenthaler Stadtlauf", "longitude": 7.790562299999999, "latitude": 47.2120786, "date": {"sam. 22.11.2014": {"weekday": "saturday", "year": 2014, "categories": {"M20": {"pace": 261000000000, "rank": 18, "distance": 8, "time": 1960.1}}, "day": 22, "month": 11, "livingplace": "Walterswil"}}, "location": "Langenthal"}, "Basler Stadtlauf": {"race": "Basler Stadtlauf", "longitude": 7.5885761, "latitude": 47.5595986, "date": {"sam. 29.11.2014": {"weekday": "saturday", "year": 2014, "categories": {"M20": {"pace": 260000000000, "rank": 277, "distance": 6, "time": 1431.2}}, "day": 29, "month": 11, "livingplace": "Walterswil"}}, "location": "Basel"}}, "name": "M\u00fcller Yannick", "birth": 1985}