{"sex": "F", "races": {"Int Greifenseelauf, Uster": {"race": "Int Greifenseelauf, Uster", "longitude": 8.717873899999999, "latitude": 47.3482747, "date": {"sam. 19.09.2009": {"weekday": "saturday", "year": 2009, "categories": {"H-W20": {"pace": 325000000000, "rank": 142, "distance": 21, "time": 6868.8}}, "day": 19, "month": 9, "livingplace": "Wetzikon"}}, "location": "Uster"}, "Schweizer Frauenlauf Bern": {"race": "Schweizer Frauenlauf Bern", "longitude": 7.4474468, "latitude": 46.9479739, "date": {"dim. 14.06.2009": {"weekday": "sunday", "year": 2009, "categories": {"10-W20": {"pace": 311000000000, "rank": 135, "distance": 10, "time": 3111.0}}, "day": 14, "month": 6, "livingplace": "Wetzikon"}}, "location": "Bern"}, "Sihltaler Fr\u00fchlingslauf, Gattikon": {"race": "Sihltaler Fr\u00fchlingslauf, Gattikon", "longitude": 8.5644799, "latitude": 47.2949282, "date": {"ven. 01.05.2009": {"weekday": "friday", "year": 2009, "categories": {"F20": {"pace": 315000000000, "rank": 11, "distance": 10, "time": 3154.9}}, "day": 1, "month": 5, "livingplace": "Wetzikon"}}, "location": "Gattikon"}, "Rotseelauf, Ebikon": {"race": "Rotseelauf, Ebikon", "date": {"sam. 04.04.2009": {"weekday": "saturday", "year": 2009, "categories": {"F20": {"pace": 329000000000, "rank": 23, "distance": 10, "time": 3295.8}}, "day": 4, "month": 4, "livingplace": "Wetzikon"}}, "location": "Ebikon"}, "Winterthur Marathon": {"race": "Winterthur Marathon", "longitude": -75.6037351, "latitude": 39.8088766, "date": {"dim. 24.05.2009": {"weekday": "sunday", "year": 2009, "categories": {"HFAktiv": {"pace": 338000000000, "rank": 32, "distance": 21, "time": 7133.7}}, "day": 24, "month": 5, "livingplace": "Wetzikon"}}, "location": "Winterthur"}, "Z\u00fcrcher Silvesterlauf, Z\u00fcrich": {"race": "Z\u00fcrcher Silvesterlauf, Z\u00fcrich", "longitude": 8.541694, "latitude": 47.3768866, "date": {"dim. 14.12.2008": {"weekday": "sunday", "year": 2008, "categories": {"DaHK-8": {"pace": 300000000000, "rank": 107, "distance": 9, "time": 2588.3}}, "day": 14, "month": 12, "livingplace": "Wetzikon"}, "dim. 13.12.2009": {"weekday": "sunday", "year": 2009, "categories": {"8-DaHK": {"pace": 288000000000, "rank": 64, "distance": 9, "time": 2478.8}}, "day": 13, "month": 12, "livingplace": "Wetzikon"}}, "location": "Z\u00fcrich"}, "crossrun, Therwil": {"race": "crossrun, Therwil", "longitude": 7.5532808, "latitude": 47.4990611, "date": {"dim. 10.05.2009": {"weekday": "sunday", "year": 2009, "categories": {"F20": {"pace": 330000000000, "rank": 6, "distance": 10, "time": 3307.6}}, "day": 10, "month": 5, "livingplace": "Wetzikon"}}, "location": "Therwil"}}, "name": "M\u00fcller Sonja", "birth": 1982}