{"sex": "M", "races": {"Int Greifenseelauf, Uster": {"race": "Int Greifenseelauf, Uster", "longitude": 8.717873899999999, "latitude": 47.3482747, "date": {"sam. 19.09.2009": {"weekday": "saturday", "year": 2009, "categories": {"H-M20": {"pace": 265000000000, "rank": 76, "distance": 21, "time": 5594.7}}, "day": 19, "month": 9, "livingplace": "Baar"}}, "location": "Uster"}, "M\u00e4nnlichen Halbmarathon, Grindelwald": {"race": "M\u00e4nnlichen Halbmarathon, Grindelwald", "longitude": 8.0413962, "latitude": 46.624164, "date": {"dim. 09.06.2013": {"weekday": "sunday", "year": 2013, "categories": {"M30": {"pace": 454000000000, "rank": 29, "distance": 21, "time": 9593.8}}, "day": 9, "month": 6, "livingplace": "Bottmingen"}}, "location": "Grindelwald"}, "Eiger Ultra Trail, Grindelwald": {"race": "Eiger Ultra Trail, Grindelwald", "longitude": 8.0413962, "latitude": 46.624164, "date": {"sam. 19.07.2014": {"weekday": "saturday", "year": 2014, "categories": {"B-H": {"pace": 540000000000, "rank": 17, "distance": 51, "time": 27587.6}}, "day": 19, "month": 7, "livingplace": "Bottmingen"}}, "location": "Grindelwald"}, "Aletsch-Halbmarathon, Bettmeralp": {"race": "Aletsch-Halbmarathon, Bettmeralp", "date": {"dim. 27.06.2010": {"weekday": "sunday", "year": 2010, "categories": {"M20": {"pace": 401000000000, "rank": 30, "distance": 21, "time": 8437.1}}, "day": 27, "month": 6, "livingplace": "Baar"}}, "location": "Bettmeralp"}, "Basel City Marathon": {"race": "Basel City Marathon", "longitude": 7.5885761, "latitude": 47.5595986, "date": {"dim. 03.09.2006": {"weekday": "sunday", "year": 2006, "categories": {"M-M20": {"pace": 295000000000, "rank": 12, "distance": 42, "time": 12465.4}}, "day": 3, "month": 9, "livingplace": "Allschwil"}}, "location": "Basel"}, "Lucerne Marathon, Luzern": {"race": "Lucerne Marathon, Luzern", "longitude": 8.3093072, "latitude": 47.05016819999999, "date": {"dim. 31.10.2010": {"weekday": "sunday", "year": 2010, "categories": {"M-M20": {"pace": 285000000000, "rank": 37, "distance": 42, "time": 12053.7}}, "day": 31, "month": 10, "livingplace": "Baar"}}, "location": "Luzern"}, "Morat-Fribourg": {"race": "Morat-Fribourg", "longitude": 7.120184, "latitude": 46.92922110000001, "date": {"sam. 04.10.2008": {"weekday": "saturday", "year": 2008, "categories": {"C-M20": {"pace": 255000000000, "rank": 216, "distance": 17, "time": 4383.4}}, "day": 4, "month": 10, "livingplace": "Allschwil"}}, "location": "Murten"}, "Jungfrau-Marathon, Interlaken": {"race": "Jungfrau-Marathon, Interlaken", "date": {"sam. 08.09.2012": {"weekday": "saturday", "year": 2012, "categories": {"SO-M20": {"pace": 406000000000, "rank": 411, "distance": 42, "time": 17140.7}}, "day": 8, "month": 9, "livingplace": "Bottmingen"}}, "location": "Interlaken"}, "Basler Stadtlauf": {"race": "Basler Stadtlauf", "longitude": 7.5885761, "latitude": 47.5595986, "date": {"sam. 29.11.2008": {"weekday": "saturday", "year": 2008, "categories": {"M": {"pace": 237000000000, "rank": 88, "distance": 6, "time": 1305.8}}, "day": 29, "month": 11, "livingplace": "Basel"}, "sam. 27.11.2010": {"weekday": "saturday", "year": 2010, "categories": {"M": {"pace": 231000000000, "rank": 80, "distance": 6, "time": 1271.4}}, "day": 27, "month": 11, "livingplace": "Baar"}}, "location": "Basel"}}, "name": "Muller Philippe", "birth": 1981}