{"sex": "M", "races": {"Z\u00fcrich Marathon, Teamrun und Cityrun": {"race": "Z\u00fcrich Marathon, Teamrun und Cityrun", "longitude": 8.541694, "latitude": 47.3768866, "date": {"dim. 22.04.2012": {"weekday": "sunday", "year": 2012, "categories": {"42-M20": {"pace": 318000000000, "rank": 115, "distance": 42, "time": 13436.3}}, "day": 22, "month": 4, "livingplace": "Spiez"}}, "location": "Z\u00fcrich"}, "Bl\u00fcemlisalp-Lauf, Reichenbach": {"race": "Bl\u00fcemlisalp-Lauf, Reichenbach", "longitude": 7.6940529, "latitude": 46.6254387, "date": {"dim. 29.05.2011": {"weekday": "sunday", "year": 2011, "categories": {"M20": {"pace": 397000000000, "rank": 33, "distance": 16, "time": 6398.2}}, "day": 29, "month": 5, "livingplace": "Spiez"}}, "location": "Reichenbach im Kandertal"}, "Course de l'Avent, Fribourg": {"race": "Course de l'Avent, Fribourg", "longitude": 7.161971899999999, "latitude": 46.8064773, "date": {"dim. 25.11.2012": {"weekday": "sunday", "year": 2012, "categories": {"E-H20": {"pace": 312000000000, "rank": 13, "distance": 7, "time": 2075.0}}, "day": 25, "month": 11, "livingplace": "Spiez"}}, "location": "Fribourg"}, "Dietiker Neujahrslauf, Dietikon": {"race": "Dietiker Neujahrslauf, Dietikon", "longitude": 8.39977, "latitude": 47.4053885, "date": {"sam. 14.01.2012": {"weekday": "saturday", "year": 2012, "categories": {"A": {"pace": 283000000000, "rank": 42, "distance": 12, "time": 3432.5}}, "day": 14, "month": 1, "livingplace": "Spiez"}}, "location": "Dietikon"}, "Lausanne Marathon": {"race": "Lausanne Marathon", "longitude": 6.6322734, "latitude": 46.5196535, "date": {"dim. 30.10.2011": {"weekday": "sunday", "year": 2011, "categories": {"42-H1": {"pace": 369000000000, "rank": 92, "distance": 42, "time": 15586.7}}, "day": 30, "month": 10, "livingplace": "Spiez"}}, "location": "Lausanne"}, "M\u00e4nnlichen Halbmarathon, Grindelwald": {"race": "M\u00e4nnlichen Halbmarathon, Grindelwald", "longitude": 8.0413962, "latitude": 46.624164, "date": {"dim. 09.06.2013": {"weekday": "sunday", "year": 2013, "categories": {"M20": {"pace": 480000000000, "rank": 15, "distance": 21, "time": 10128.8}}, "day": 9, "month": 6, "livingplace": "Spiez"}}, "location": "Grindelwald"}, "Flughafenlauf, Kloten": {"race": "Flughafenlauf, Kloten", "date": {"jeu. 02.06.2011": {"weekday": "thursday", "year": 2011, "categories": {"A": {"pace": 275000000000, "rank": 39, "distance": 17, "time": 4688.7}}, "day": 2, "month": 6, "livingplace": "Spiez"}, "jeu. 09.05.2013": {"weekday": "thursday", "year": 2013, "categories": {"A": {"pace": 292000000000, "rank": 72, "distance": 17, "time": 4977.8}}, "day": 9, "month": 5, "livingplace": "Spiez"}}, "location": "Kloten"}, "Kerzerslauf": {"race": "Kerzerslauf", "longitude": 7.1954365, "latitude": 46.97488999999999, "date": {"sam. 17.03.2012": {"weekday": "saturday", "year": 2012, "categories": {"15-M20": {"pace": 281000000000, "rank": 300, "distance": 15, "time": 4222.2}}, "day": 17, "month": 3, "livingplace": "Spiez"}}, "location": "Kerzers"}}, "name": "M\u00fcrner J\u00fcrg", "birth": 1987}