{"sex": "F", "races": {"Tour du Pays de Vaud #3 - Chavornay": {"race": "Tour du Pays de Vaud #3 - Chavornay", "longitude": 6.641183, "latitude": 46.7784736, "date": {"mer. 28.08.2013": {"weekday": "wednesday", "year": 2013, "categories": {"D-Sen2": {"pace": 414000000000, "rank": 77, "distance": 9, "time": 3688.8}}, "day": 28, "month": 8, "livingplace": "Blonay"}}, "location": "Yverdon-les-Bains"}, "Tour du Chablais #1 Montreux": {"race": "Tour du Chablais #1 Montreux", "longitude": 6.9916269, "latitude": 46.2957462, "date": {"mer. 11.04.2012": {"weekday": "wednesday", "year": 2012, "categories": {"F-F40": {"pace": 359000000000, "rank": 47, "distance": 8, "time": 2728.6}}, "day": 11, "month": 4, "livingplace": "Blonay"}}, "location": "Ollon VD"}, "Tour du Chablais #2 Yvorne": {"race": "Tour du Chablais #2 Yvorne", "longitude": 6.854975199999999, "latitude": 46.3835529, "date": {"mer. 10.04.2013": {"weekday": "wednesday", "year": 2013, "categories": {"F-F40": {"pace": 428000000000, "rank": 73, "distance": 8, "time": 3428.5}}, "day": 10, "month": 4, "livingplace": "Blonay"}}, "location": "Bouveret"}, "Tour du Chablais #2 Bex": {"race": "Tour du Chablais #2 Bex", "longitude": 6.854975199999999, "latitude": 46.3835529, "date": {"mer. 18.04.2012": {"weekday": "wednesday", "year": 2012, "categories": {"F-F40": {"pace": 358000000000, "rank": 65, "distance": 8, "time": 2868.7}}, "day": 18, "month": 4, "livingplace": "Blonay"}}, "location": "Bouveret"}, "Tour du Chablais #3 Bouveret": {"race": "Tour du Chablais #3 Bouveret", "longitude": 7.0223787, "latitude": 46.1782231, "date": {"mer. 17.04.2013": {"weekday": "wednesday", "year": 2013, "categories": {"F-F40": {"pace": 371000000000, "rank": 72, "distance": 10, "time": 3711.3}}, "day": 17, "month": 4, "livingplace": "Blonay"}}, "location": "Evionnaz"}, "Tour du Chablais #3 Collombey-Muraz": {"race": "Tour du Chablais #3 Collombey-Muraz", "longitude": 7.0223787, "latitude": 46.1782231, "date": {"mer. 25.04.2012": {"weekday": "wednesday", "year": 2012, "categories": {"F-F40": {"pace": 346000000000, "rank": 55, "distance": 9, "time": 3108.0}}, "day": 25, "month": 4, "livingplace": "Blonay"}}, "location": "Evionnaz"}, "Morat-Fribourg": {"race": "Morat-Fribourg", "longitude": 7.120184, "latitude": 46.92922110000001, "date": {"sam. 01.10.2011": {"weekday": "saturday", "year": 2011, "categories": {"17-W45": {"pace": 375000000000, "rank": 149, "distance": 17, "time": 6441.7}}, "day": 1, "month": 10, "livingplace": "Blonay"}, "sam. 02.10.2010": {"weekday": "saturday", "year": 2010, "categories": {"17-W40": {"pace": 388000000000, "rank": 204, "distance": 17, "time": 6665.1}}, "day": 2, "month": 10, "livingplace": "Blonay"}, "sam. 06.10.2012": {"weekday": "saturday", "year": 2012, "categories": {"17-W45": {"pace": 389000000000, "rank": 210, "distance": 17, "time": 6799.1}}, "day": 6, "month": 10, "livingplace": "Blonay"}}, "location": "Murten"}, "20km de Lausanne": {"race": "20km de Lausanne", "longitude": 6.6322734, "latitude": 46.5196535, "date": {"sam. 24.04.2010": {"weekday": "saturday", "year": 2010, "categories": {"10-F40": {"pace": 403000000000, "rank": 279, "distance": 10, "time": 4038.6}}, "day": 24, "month": 4, "livingplace": "Blonay"}, "sam. 30.04.2011": {"weekday": "saturday", "year": 2011, "categories": {"10-F45": {"pace": 368000000000, "rank": 163, "distance": 10, "time": 3687.0}}, "day": 30, "month": 4, "livingplace": "Blonay"}, "sam. 28.04.2012": {"weekday": "saturday", "year": 2012, "categories": {"10-F45": {"pace": 369000000000, "rank": 145, "distance": 10, "time": 3695.1}}, "day": 28, "month": 4, "livingplace": "Blonay"}}, "location": "Lausanne"}, "Schweizer Frauenlauf Bern": {"race": "Schweizer Frauenlauf Bern", "longitude": 7.4474468, "latitude": 46.9479739, "date": {"dim. 19.06.2011": {"weekday": "sunday", "year": 2011, "categories": {"10-W45": {"pace": 346000000000, "rank": 356, "distance": 10, "time": 3462.0}}, "day": 19, "month": 6, "livingplace": "Blonay"}, "dim. 10.06.2012": {"weekday": "sunday", "year": 2012, "categories": {"10-W45": {"pace": 354000000000, "rank": 365, "distance": 10, "time": 3544.5}}, "day": 10, "month": 6, "livingplace": "Blonay"}}, "location": "Bern"}, "Tour du Chablais #5 Les Mosses": {"race": "Tour du Chablais #5 Les Mosses", "longitude": 6.931504599999999, "latitude": 46.3603257, "date": {"mer. 25.05.2011": {"weekday": "wednesday", "year": 2011, "categories": {"F-F40": {"pace": 379000000000, "rank": 63, "distance": 8, "time": 3038.1}}, "day": 25, "month": 5, "livingplace": "Blonay"}}, "location": "Roche VD"}, "Tour du Chablais #1 Lavey": {"race": "Tour du Chablais #1 Lavey", "longitude": 6.9916269, "latitude": 46.2957462, "date": {"mer. 27.04.2011": {"weekday": "wednesday", "year": 2011, "categories": {"F-F40": {"pace": 365000000000, "rank": 70, "distance": 9, "time": 3292.6}}, "day": 27, "month": 4, "livingplace": "Blonay"}}, "location": "Ollon VD"}, "Tour du pays de Vaud #1 - Penthaz": {"race": "Tour du pays de Vaud #1 - Penthaz", "longitude": 6.539251200000001, "latitude": 46.5993131, "date": {"mer. 14.08.2013": {"weekday": "wednesday", "year": 2013, "categories": {"D-Sen2": {"pace": 388000000000, "rank": 61, "distance": 9, "time": 3311.2}}, "day": 14, "month": 8, "livingplace": "Blonay"}}, "location": "Penthaz"}, "Tour du Pays de Vaud #2, Mezi\u00e8res": {"race": "Tour du Pays de Vaud #2, Mezi\u00e8res", "longitude": 6.7702883, "latitude": 46.5955273, "date": {"mer. 20.08.2014": {"weekday": "wednesday", "year": 2014, "categories": {"D-Sen2": {"pace": 407000000000, "rank": 50, "distance": 8, "time": 3304.4}}, "day": 20, "month": 8, "livingplace": "Blonay"}}, "location": "M\u00e9zi\u00e8res VD"}, "Tour du Chablais #4 Morgins": {"race": "Tour du Chablais #4 Morgins", "date": {"mer. 18.05.2011": {"weekday": "wednesday", "year": 2011, "categories": {"F-F40": {"pace": 390000000000, "rank": 76, "distance": 8, "time": 3263.7}}, "day": 18, "month": 5, "livingplace": "Blonay"}}, "location": "Les Mosses"}, "Tour du Chablais #2 Rennaz": {"race": "Tour du Chablais #2 Rennaz", "longitude": 6.854975199999999, "latitude": 46.3835529, "date": {"mer. 04.05.2011": {"weekday": "wednesday", "year": 2011, "categories": {"F-F40": {"pace": 352000000000, "rank": 71, "distance": 9, "time": 3291.8}}, "day": 4, "month": 5, "livingplace": "Blonay"}}, "location": "Bouveret"}}, "name": "Mury Carole", "birth": 1966}