{"sex": "F", "races": {"Int Greifenseelauf, Uster": {"race": "Int Greifenseelauf, Uster", "longitude": 8.717873899999999, "latitude": 47.3482747, "date": {"sam. 20.09.2008": {"weekday": "saturday", "year": 2008, "categories": {"H-W35": {"pace": 247000000000, "rank": 4, "distance": 21, "time": 5225.1}}, "day": 20, "month": 9, "livingplace": "Riehen"}}, "location": "Uster"}, "Bieler Lauftage, Biel Bienne": {"race": "Bieler Lauftage, Biel Bienne", "longitude": 7.2467909, "latitude": 47.1367785, "date": {"ven. 15.06.2007": {"weekday": "friday", "year": 2007, "categories": {"M/W35": {"pace": 300000000000, "rank": 1, "distance": 42, "time": 12697.0}}, "day": 15, "month": 6, "livingplace": "Basel"}}, "location": "Biel/Bienne"}, "Basel City Marathon": {"race": "Basel City Marathon", "longitude": 7.5885761, "latitude": 47.5595986, "date": {"dim. 03.09.2006": {"weekday": "sunday", "year": 2006, "categories": {"M-F30": {"pace": 295000000000, "rank": 4, "distance": 42, "time": 12457.1}}, "day": 3, "month": 9, "livingplace": "Basel"}}, "location": "Basel"}, "IWB Basel Marathon": {"race": "IWB Basel Marathon", "longitude": 7.5885761, "latitude": 47.5595986, "date": {"dim. 22.09.2013": {"weekday": "sunday", "year": 2013, "categories": {"H-21-F40": {"pace": 270000000000, "rank": 4, "distance": 21, "time": 5699.4}}, "day": 22, "month": 9, "livingplace": "Riehen"}}, "location": "Basel"}, "Hallwilerseelauf, Beinwil am See": {"race": "Hallwilerseelauf, Beinwil am See", "date": {"sam. 14.10.2006": {"weekday": "saturday", "year": 2006, "categories": {"F30": {"pace": 281000000000, "rank": 29, "distance": 21, "time": 5949.3}}, "day": 14, "month": 10, "livingplace": "Basel"}}, "location": "Beinwil am See"}, "Wiedlisbacher L\u00e4ufe, Wiedlisbach": {"race": "Wiedlisbacher L\u00e4ufe, Wiedlisbach", "longitude": 7.6453444, "latitude": 47.2512653, "date": {"dim. 27.04.2008": {"weekday": "sunday", "year": 2008, "categories": {"F20-21": {"pace": 278000000000, "rank": 4, "distance": 21, "time": 5870.3}}, "day": 27, "month": 4, "livingplace": "Basel"}, "dim. 29.04.2007": {"weekday": "sunday", "year": 2007, "categories": {"F20-21": {"pace": 285000000000, "rank": 3, "distance": 21, "time": 6017.2}}, "day": 29, "month": 4, "livingplace": "Basel"}}, "location": "Wiedlisbach"}, "Lucerne Marathon, Luzern": {"race": "Lucerne Marathon, Luzern", "longitude": 8.3093072, "latitude": 47.05016819999999, "date": {"dim. 25.10.2009": {"weekday": "sunday", "year": 2009, "categories": {"M-F30": {"pace": 270000000000, "rank": 2, "distance": 42, "time": 11432.7}}, "day": 25, "month": 10, "livingplace": "Riehen"}}, "location": "Luzern"}, "SwissCityMarathon - Lucerne, Luzern": {"race": "SwissCityMarathon - Lucerne, Luzern", "longitude": 8.3093072, "latitude": 47.05016819999999, "date": {"dim. 27.10.2013": {"weekday": "sunday", "year": 2013, "categories": {"M-F40": {"pace": 281000000000, "rank": 4, "distance": 42, "time": 11892.2}}, "day": 27, "month": 10, "livingplace": "Riehen"}}, "location": "Luzern"}}, "name": "Nel Linda", "birth": 1971}