{"sex": "M", "races": {"Tour du Chablais #4 Champ\u00e9ry": {"race": "Tour du Chablais #4 Champ\u00e9ry", "date": {"mer. 02.05.2012": {"weekday": "wednesday", "year": 2012, "categories": {"M-M40": {"pace": 288000000000, "rank": 89, "distance": 8, "time": 2393.0}}, "day": 2, "month": 5, "livingplace": "Chardonne"}}, "location": "Les Mosses"}, "Tour du Chablais #2 Yvorne": {"race": "Tour du Chablais #2 Yvorne", "longitude": 6.854975199999999, "latitude": 46.3835529, "date": {"mer. 10.04.2013": {"weekday": "wednesday", "year": 2013, "categories": {"M-M50": {"pace": 302000000000, "rank": 31, "distance": 8, "time": 2417.8}}, "day": 10, "month": 4, "livingplace": "Chardonne"}}, "location": "Bouveret"}, "Tour du Chablais #6 Monthey": {"race": "Tour du Chablais #6 Monthey", "longitude": 6.970566, "latitude": 46.3190253, "date": {"mer. 08.05.2013": {"weekday": "wednesday", "year": 2013, "categories": {"M-M50": {"pace": 266000000000, "rank": 33, "distance": 9, "time": 2489.6}}, "day": 8, "month": 5, "livingplace": "Chardonne"}}, "location": "Aigle"}, "Tour du Chablais #3 Bouveret": {"race": "Tour du Chablais #3 Bouveret", "longitude": 7.0223787, "latitude": 46.1782231, "date": {"mer. 17.04.2013": {"weekday": "wednesday", "year": 2013, "categories": {"M-M50": {"pace": 273000000000, "rank": 29, "distance": 10, "time": 2733.2}}, "day": 17, "month": 4, "livingplace": "Chardonne"}}, "location": "Evionnaz"}, "Tour du Chablais #1 Roche": {"race": "Tour du Chablais #1 Roche", "longitude": 6.9916269, "latitude": 46.2957462, "date": {"mer. 03.04.2013": {"weekday": "wednesday", "year": 2013, "categories": {"M-M50": {"pace": 278000000000, "rank": 47, "distance": 9, "time": 2467.6}}, "day": 3, "month": 4, "livingplace": "Chardonne"}}, "location": "Ollon VD"}, "Tour du Chablais #1 Martigny": {"race": "Tour du Chablais #1 Martigny", "longitude": 6.9916269, "latitude": 46.2957462, "date": {"mer. 23.04.2014": {"weekday": "wednesday", "year": 2014, "categories": {"M-M50": {"pace": 275000000000, "rank": 40, "distance": 9, "time": 2342.8}}, "day": 23, "month": 4, "livingplace": "Chardonne"}}, "location": "Ollon VD"}, "Tour du Chablais #3 Collombey-Muraz": {"race": "Tour du Chablais #3 Collombey-Muraz", "longitude": 7.0223787, "latitude": 46.1782231, "date": {"mer. 25.04.2012": {"weekday": "wednesday", "year": 2012, "categories": {"M-M40": {"pace": 289000000000, "rank": 101, "distance": 9, "time": 2602.2}}, "day": 25, "month": 4, "livingplace": "Chardonne"}}, "location": "Evionnaz"}, "Tour du Chablais #6 Aigle": {"race": "Tour du Chablais #6 Aigle", "longitude": 6.970566, "latitude": 46.3190253, "date": {"mer. 01.06.2011": {"weekday": "wednesday", "year": 2011, "categories": {"M-M40": {"pace": 268000000000, "rank": 69, "distance": 10, "time": 2741.3}}, "day": 1, "month": 6, "livingplace": "Chardonne"}}, "location": "Aigle"}, "Tour du Chablais #4 Morgins": {"race": "Tour du Chablais #4 Morgins", "date": {"mer. 18.05.2011": {"weekday": "wednesday", "year": 2011, "categories": {"M-M40": {"pace": 298000000000, "rank": 88, "distance": 8, "time": 2495.2}}, "day": 18, "month": 5, "livingplace": "Chardonne"}}, "location": "Les Mosses"}, "Tour du Chablais #2 St-Gingolph": {"race": "Tour du Chablais #2 St-Gingolph", "longitude": 6.854975199999999, "latitude": 46.3835529, "date": {"mer. 14.04.2010": {"weekday": "wednesday", "year": 2010, "categories": {"M-M40": {"pace": 318000000000, "rank": 118, "distance": 8, "time": 2657.5}}, "day": 14, "month": 4, "livingplace": "Chardonne"}}, "location": "Bouveret"}, "Tour du Chablais #1 Montreux": {"race": "Tour du Chablais #1 Montreux", "longitude": 6.9916269, "latitude": 46.2957462, "date": {"mer. 11.04.2012": {"weekday": "wednesday", "year": 2012, "categories": {"M-M40": {"pace": 308000000000, "rank": 119, "distance": 8, "time": 2341.0}}, "day": 11, "month": 4, "livingplace": "Chardonne"}}, "location": "Ollon VD"}, "Tour du Chablais #5 Les Mosses": {"race": "Tour du Chablais #5 Les Mosses", "longitude": 6.931504599999999, "latitude": 46.3603257, "date": {"mer. 25.05.2011": {"weekday": "wednesday", "year": 2011, "categories": {"M-M40": {"pace": 297000000000, "rank": 64, "distance": 8, "time": 2383.8}}, "day": 25, "month": 5, "livingplace": "Chardonne"}}, "location": "Roche VD"}, "Tour du Chablais #1 Lavey": {"race": "Tour du Chablais #1 Lavey", "longitude": 6.9916269, "latitude": 46.2957462, "date": {"mer. 27.04.2011": {"weekday": "wednesday", "year": 2011, "categories": {"M-M40": {"pace": 300000000000, "rank": 108, "distance": 9, "time": 2706.4}}, "day": 27, "month": 4, "livingplace": "Chardonne"}}, "location": "Ollon VD"}, "Tour du Chablais #5 Leysin": {"race": "Tour du Chablais #5 Leysin", "longitude": 6.931504599999999, "latitude": 46.3603257, "date": {"mer. 05.05.2010": {"weekday": "wednesday", "year": 2010, "categories": {"M-M40": {"pace": 309000000000, "rank": 71, "distance": 8, "time": 2616.9}}, "day": 5, "month": 5, "livingplace": "Chardonne"}}, "location": "Roche VD"}, "Tour du Chablais #5 Bex": {"race": "Tour du Chablais #5 Bex", "longitude": 6.931504599999999, "latitude": 46.3603257, "date": {"mer. 09.05.2012": {"weekday": "wednesday", "year": 2012, "categories": {"M-M40": {"pace": 270000000000, "rank": 61, "distance": 9, "time": 2395.9}}, "day": 9, "month": 5, "livingplace": "Chardonne"}}, "location": "Roche VD"}, "Tour du Chablais #5 Morgins": {"race": "Tour du Chablais #5 Morgins", "longitude": 6.931504599999999, "latitude": 46.3603257, "date": {"mer. 01.05.2013": {"weekday": "wednesday", "year": 2013, "categories": {"M-M50": {"pace": 285000000000, "rank": 20, "distance": 8, "time": 2170.9}}, "day": 1, "month": 5, "livingplace": "Chardonne"}}, "location": "Roche VD"}, "Tour du Chablais #4 St  Maurice": {"race": "Tour du Chablais #4 St  Maurice", "date": {"mer. 24.04.2013": {"weekday": "wednesday", "year": 2013, "categories": {"M-M50": {"pace": 269000000000, "rank": 25, "distance": 10, "time": 2690.7}}, "day": 24, "month": 4, "livingplace": "Chardonne"}}, "location": "Les Mosses"}, "Tour du Chablais #6 Mouthey": {"race": "Tour du Chablais #6 Mouthey", "longitude": 6.970566, "latitude": 46.3190253, "date": {"mer. 12.05.2010": {"weekday": "wednesday", "year": 2010, "categories": {"M-M40": {"pace": 274000000000, "rank": 94, "distance": 9, "time": 2522.0}}, "day": 12, "month": 5, "livingplace": "Chardonne"}}, "location": "Aigle"}, "Tour du Chablais #3 Le Bouveret": {"race": "Tour du Chablais #3 Le Bouveret", "longitude": 7.0223787, "latitude": 46.1782231, "date": {"mer. 11.05.2011": {"weekday": "wednesday", "year": 2011, "categories": {"M-M40": {"pace": 283000000000, "rank": 98, "distance": 10, "time": 2833.9}}, "day": 11, "month": 5, "livingplace": "Chardonne"}}, "location": "Evionnaz"}}, "name": "Neyroud Jean-Fran\u00e7ois", "birth": 1963}