{"sex": "F", "races": {"Tour du Chablais #1 Lavey": {"race": "Tour du Chablais #1 Lavey", "longitude": 6.9916269, "latitude": 46.2957462, "date": {"mer. 27.04.2011": {"weekday": "wednesday", "year": 2011, "categories": {"F-F20": {"pace": 293000000000, "rank": 22, "distance": 9, "time": 2643.6}}, "day": 27, "month": 4, "livingplace": "Yens"}}, "location": "Ollon VD"}, "Tour du Chablais #5 Les Mosses": {"race": "Tour du Chablais #5 Les Mosses", "longitude": 6.931504599999999, "latitude": 46.3603257, "date": {"mer. 25.05.2011": {"weekday": "wednesday", "year": 2011, "categories": {"F-F20": {"pace": 294000000000, "rank": 15, "distance": 8, "time": 2359.6}}, "day": 25, "month": 5, "livingplace": "Yens"}}, "location": "Roche VD"}, "20km de Lausanne": {"race": "20km de Lausanne", "longitude": 6.6322734, "latitude": 46.5196535, "date": {"sam. 30.04.2011": {"weekday": "saturday", "year": 2011, "categories": {"10-F20": {"pace": 300000000000, "rank": 51, "distance": 10, "time": 3002.2}}, "day": 30, "month": 4, "livingplace": "Yens"}}, "location": "Lausanne"}, "Tour du Chablais #3 Le Bouveret": {"race": "Tour du Chablais #3 Le Bouveret", "longitude": 7.0223787, "latitude": 46.1782231, "date": {"mer. 11.05.2011": {"weekday": "wednesday", "year": 2011, "categories": {"F-F20": {"pace": 281000000000, "rank": 19, "distance": 10, "time": 2817.4}}, "day": 11, "month": 5, "livingplace": "Yens"}}, "location": "Evionnaz"}, "Morat-Fribourg": {"race": "Morat-Fribourg", "longitude": 7.120184, "latitude": 46.92922110000001, "date": {"sam. 03.10.2015": {"weekday": "saturday", "year": 2015, "categories": {"17-W20": {"pace": 316000000000, "rank": 118, "distance": 17, "time": 5438.7}}, "day": 3, "month": 10, "livingplace": "Apples"}}, "location": "Murten"}, "Tour du Chablais #4 Morgins": {"race": "Tour du Chablais #4 Morgins", "date": {"mer. 18.05.2011": {"weekday": "wednesday", "year": 2011, "categories": {"F-F20": {"pace": 302000000000, "rank": 23, "distance": 8, "time": 2529.4}}, "day": 18, "month": 5, "livingplace": "Yens"}}, "location": "Les Mosses"}, "Tour du Chablais #2 Rennaz": {"race": "Tour du Chablais #2 Rennaz", "longitude": 6.854975199999999, "latitude": 46.3835529, "date": {"mer. 04.05.2011": {"weekday": "wednesday", "year": 2011, "categories": {"F-F20": {"pace": 280000000000, "rank": 11, "distance": 9, "time": 2619.3}}, "day": 4, "month": 5, "livingplace": "Yens"}}, "location": "Bouveret"}}, "name": "Nicollier-Pasquier Julie", "birth": 1982}