{"sex": "M", "races": {"Course de l'Escalade, Gen\u00e8ve": {"race": "Course de l'Escalade, Gen\u00e8ve", "longitude": 6.1431577, "latitude": 46.2043907, "date": {"sam. 06.12.2008": {"weekday": "saturday", "year": 2008, "categories": {"Hommes3": {"pace": 253000000000, "rank": 225, "distance": 7, "time": 1835.3}}, "day": 6, "month": 12, "livingplace": "Leysin"}}, "location": "Gen\u00e8ve"}, "Corrida Bulloise, Bulle": {"race": "Corrida Bulloise, Bulle", "longitude": 7.057726799999999, "latitude": 46.6154512, "date": {"sam. 15.11.2008": {"weekday": "saturday", "year": 2008, "categories": {"PH": {"pace": 247000000000, "rank": 79, "distance": 6, "time": 1486.1}}, "day": 15, "month": 11, "livingplace": "Leysin"}}, "location": "Bulle"}, "Tour du Chablais #3 Le Bouveret": {"race": "Tour du Chablais #3 Le Bouveret", "longitude": 7.0223787, "latitude": 46.1782231, "date": {"mer. 11.05.2011": {"weekday": "wednesday", "year": 2011, "categories": {"M-M40": {"pace": 261000000000, "rank": 59, "distance": 10, "time": 2614.2}}, "day": 11, "month": 5, "livingplace": "Leysin"}}, "location": "Evionnaz"}, "20km de Lausanne": {"race": "20km de Lausanne", "longitude": 6.6322734, "latitude": 46.5196535, "date": {"sam. 25.04.2009": {"weekday": "saturday", "year": 2009, "categories": {"20-H40": {"pace": 267000000000, "rank": 96, "distance": 20, "time": 5355.6}}, "day": 25, "month": 4, "livingplace": "Leysin"}, "sam. 30.04.2011": {"weekday": "saturday", "year": 2011, "categories": {"10-H40": {"pace": 268000000000, "rank": 73, "distance": 10, "time": 2688.9}}, "day": 30, "month": 4, "livingplace": "Leysin"}, "sam. 28.04.2007": {"weekday": "saturday", "year": 2007, "categories": {"10H40": {"pace": 282000000000, "rank": 96, "distance": 10, "time": 2828.8}}, "day": 28, "month": 4, "livingplace": "Leysin"}}, "location": "Lausanne"}, "Tour du Chablais #5 Bex": {"race": "Tour du Chablais #5 Bex", "longitude": 6.931504599999999, "latitude": 46.3603257, "date": {"mer. 09.05.2012": {"weekday": "wednesday", "year": 2012, "categories": {"M-M40": {"pace": 261000000000, "rank": 48, "distance": 9, "time": 2318.4}}, "day": 9, "month": 5, "livingplace": "Leysin"}}, "location": "Roche VD"}, "Tour du Pays de Vaud etape 5 - La Sarraz": {"race": "Tour du Pays de Vaud etape 5 - La Sarraz", "longitude": 6.539251200000001, "latitude": 46.5993131, "date": {"mer. 09.09.2009": {"weekday": "wednesday", "year": 2009, "categories": {"HS2": {"pace": 262000000000, "rank": 51, "distance": 9, "time": 2201.9}}, "day": 9, "month": 9, "livingplace": "Leysin"}}, "location": "Penthaz"}, "Lausanne Marathon": {"race": "Lausanne Marathon", "longitude": 6.6322734, "latitude": 46.5196535, "date": {"dim. 30.10.2011": {"weekday": "sunday", "year": 2011, "categories": {"21-H3": {"pace": 293000000000, "rank": 361, "distance": 21, "time": 6185.6}}, "day": 30, "month": 10, "livingplace": "Leysin"}}, "location": "Lausanne"}, "Morat-Fribourg": {"race": "Morat-Fribourg", "longitude": 7.120184, "latitude": 46.92922110000001, "date": {"sam. 04.10.2014": {"weekday": "saturday", "year": 2014, "categories": {"17-M45": {"pace": 338000000000, "rank": 499, "distance": 17, "time": 5816.5}}, "day": 4, "month": 10, "livingplace": "Leysin"}, "sam. 03.10.2009": {"weekday": "saturday", "year": 2009, "categories": {"C-M40": {"pace": 290000000000, "rank": 273, "distance": 17, "time": 4987.4}}, "day": 3, "month": 10, "livingplace": "Leysin"}, "sam. 06.10.2007": {"weekday": "saturday", "year": 2007, "categories": {"C/M40": {"pace": 304000000000, "rank": 432, "distance": 17, "time": 5234.1}}, "day": 6, "month": 10, "livingplace": "Leysin"}, "sam. 02.10.2010": {"weekday": "saturday", "year": 2010, "categories": {"17-M40": {"pace": 277000000000, "rank": 159, "distance": 17, "time": 4772.8}}, "day": 2, "month": 10, "livingplace": "Leysin"}}, "location": "Murten"}, "Tour du Chablais #6 Aigle": {"race": "Tour du Chablais #6 Aigle", "longitude": 6.970566, "latitude": 46.3190253, "date": {"mer. 01.06.2011": {"weekday": "wednesday", "year": 2011, "categories": {"M-M40": {"pace": 256000000000, "rank": 47, "distance": 10, "time": 2615.5}}, "day": 1, "month": 6, "livingplace": "Leysin"}}, "location": "Aigle"}, "Tour du Chablais #4 Morgins": {"race": "Tour du Chablais #4 Morgins", "date": {"mer. 18.05.2011": {"weekday": "wednesday", "year": 2011, "categories": {"M-M40": {"pace": 381000000000, "rank": 161, "distance": 8, "time": 3185.7}}, "day": 18, "month": 5, "livingplace": "Leysin"}}, "location": "Les Mosses"}, "Tour du Chablais #2 Rennaz": {"race": "Tour du Chablais #2 Rennaz", "longitude": 6.854975199999999, "latitude": 46.3835529, "date": {"mer. 04.05.2011": {"weekday": "wednesday", "year": 2011, "categories": {"M-M40": {"pace": 257000000000, "rank": 58, "distance": 9, "time": 2408.0}}, "day": 4, "month": 5, "livingplace": "Leysin"}}, "location": "Bouveret"}}, "name": "Nikles Daniel", "birth": 1967}