{"sex": "M", "races": {"Course de l'Escalade, Gen\u00e8ve": {"race": "Course de l'Escalade, Gen\u00e8ve", "longitude": 6.1431577, "latitude": 46.2043907, "date": {"sam. 06.12.2008": {"weekday": "saturday", "year": 2008, "categories": {"Hommes3": {"pace": 260000000000, "rank": 312, "distance": 7, "time": 1890.3}}, "day": 6, "month": 12, "livingplace": "Lausanne"}}, "location": "Gen\u00e8ve"}, "Aletsch-Halbmarathon, Bettmeralp": {"race": "Aletsch-Halbmarathon, Bettmeralp", "date": {"dim. 28.06.2009": {"weekday": "sunday", "year": 2009, "categories": {"M40": {"pace": 490000000000, "rank": 134, "distance": 21, "time": 10301.1}}, "day": 28, "month": 6, "livingplace": "Sicpa"}}, "location": "Bettmeralp"}, "Tour du Pays de Vaud #5 - La Sarraz": {"race": "Tour du Pays de Vaud #5 - La Sarraz", "longitude": 6.539251200000001, "latitude": 46.5993131, "date": {"mer. 08.09.2010": {"weekday": "wednesday", "year": 2010, "categories": {"HSen2": {"pace": 275000000000, "rank": 42, "distance": 9, "time": 2504.2}}, "day": 8, "month": 9, "livingplace": "La Sarraz"}}, "location": "Penthaz"}, "Tour du Pays de Vaud #2 - Genolier": {"race": "Tour du Pays de Vaud #2 - Genolier", "longitude": 6.7702883, "latitude": 46.5955273, "date": {"mer. 18.08.2010": {"weekday": "wednesday", "year": 2010, "categories": {"HSen2": {"pace": 280000000000, "rank": 54, "distance": 8, "time": 2269.4}}, "day": 18, "month": 8, "livingplace": "La Sarraz"}}, "location": "M\u00e9zi\u00e8res VD"}, "Tour du Pays de Vaud etape 5 - La Sarraz": {"race": "Tour du Pays de Vaud etape 5 - La Sarraz", "longitude": 6.539251200000001, "latitude": 46.5993131, "date": {"mer. 09.09.2009": {"weekday": "wednesday", "year": 2009, "categories": {"HS2": {"pace": 274000000000, "rank": 62, "distance": 9, "time": 2307.7}}, "day": 9, "month": 9, "livingplace": "La Sarraz"}}, "location": "Penthaz"}, "Tour du pays de Vaud #1 \u2013 St  Prex": {"race": "Tour du pays de Vaud #1 \u2013 St  Prex", "longitude": 6.641183, "latitude": 46.7784736, "date": {"mer. 11.08.2010": {"weekday": "wednesday", "year": 2010, "categories": {"HSen2": {"pace": 280000000000, "rank": 45, "distance": 8, "time": 2359.4}}, "day": 11, "month": 8, "livingplace": "La Sarraz"}}, "location": "Yverdon-les-Bains"}, "Lausanne Marathon": {"race": "Lausanne Marathon", "longitude": 6.6322734, "latitude": 46.5196535, "date": {"dim. 31.10.2010": {"weekday": "sunday", "year": 2010, "categories": {"21-H3": {"pace": 282000000000, "rank": 236, "distance": 21, "time": 5969.7}}, "day": 31, "month": 10, "livingplace": "La Sarraz"}}, "location": "Lausanne"}, "Tour du pays de Vaud #1 - Mezi\u00e8res": {"race": "Tour du pays de Vaud #1 - Mezi\u00e8res", "longitude": 6.641183, "latitude": 46.7784736, "date": {"mer. 10.08.2011": {"weekday": "wednesday", "year": 2011, "categories": {"H-Sen2": {"pace": 281000000000, "rank": 97, "distance": 9, "time": 2391.3}}, "day": 10, "month": 8, "livingplace": "La Sarraz"}}, "location": "Yverdon-les-Bains"}, "Morat-Fribourg": {"race": "Morat-Fribourg", "longitude": 7.120184, "latitude": 46.92922110000001, "date": {"dim. 07.10.2001": {"weekday": "sunday", "year": 2001, "categories": {"M20": {"pace": 298000000000, "rank": 1263, "distance": 17, "time": 5129.8}}, "day": 7, "month": 10, "livingplace": "Lausanne"}, "dim. 05.10.2003": {"weekday": "sunday", "year": 2003, "categories": {"M20": {"pace": 306000000000, "rank": 1363, "distance": 17, "time": 5267.7}}, "day": 5, "month": 10, "livingplace": "Lausanne"}, "sam. 04.10.2008": {"weekday": "saturday", "year": 2008, "categories": {"C-M40": {"pace": 341000000000, "rank": 716, "distance": 17, "time": 5858.8}}, "day": 4, "month": 10, "livingplace": "Lausanne"}}, "location": "Murten"}, "20km de Lausanne": {"race": "20km de Lausanne", "longitude": 6.6322734, "latitude": 46.5196535, "date": {"sam. 25.04.2009": {"weekday": "saturday", "year": 2009, "categories": {"10-H40": {"pace": 279000000000, "rank": 88, "distance": 10, "time": 2796.5}}, "day": 25, "month": 4, "livingplace": "Lausanne"}, "sam. 30.04.2011": {"weekday": "saturday", "year": 2011, "categories": {"10-H45": {"pace": 300000000000, "rank": 132, "distance": 10, "time": 3000.4}}, "day": 30, "month": 4, "livingplace": "La Sarraz"}}, "location": "Lausanne"}, "Tour du pays de Vaud #5 - Penthaz": {"race": "Tour du pays de Vaud #5 - Penthaz", "longitude": 6.539251200000001, "latitude": 46.5993131, "date": {"mer. 07.09.2011": {"weekday": "wednesday", "year": 2011, "categories": {"H-Sen2": {"pace": 315000000000, "rank": 84, "distance": 8, "time": 2638.0}}, "day": 7, "month": 9, "livingplace": "La Sarraz"}}, "location": "Penthaz"}}, "name": "Nouzille Eric", "birth": 1966}