{"sex": "M", "races": {"Int Greifenseelauf, Uster": {"race": "Int Greifenseelauf, Uster", "longitude": 8.717873899999999, "latitude": 47.3482747, "date": {"sam. 16.09.2006": {"weekday": "saturday", "year": 2006, "categories": {"H/M30": {"pace": 296000000000, "rank": 248, "distance": 21, "time": 6256.8}}, "day": 16, "month": 9, "livingplace": "Aesch"}}, "location": "Uster"}, "Z\u00fcrich Marathon, Teamrun und Cityrun": {"race": "Z\u00fcrich Marathon, Teamrun und Cityrun", "longitude": 8.541694, "latitude": 47.3768866, "date": {"dim. 01.04.2007": {"weekday": "sunday", "year": 2007, "categories": {"M30": {"pace": 291000000000, "rank": 438, "distance": 42, "time": 12287.6}}, "day": 1, "month": 4, "livingplace": "Aesch"}}, "location": "Z\u00fcrich"}, "Winterthur Marathon": {"race": "Winterthur Marathon", "longitude": -75.6037351, "latitude": 39.8088766, "date": {"dim. 20.05.2007": {"weekday": "sunday", "year": 2007, "categories": {"HM35": {"pace": 256000000000, "rank": 28, "distance": 21, "time": 5390.9}}, "day": 20, "month": 5, "livingplace": "Buttwil"}}, "location": "Winterthur"}, "Badener Limmat-Lauf, Baden": {"race": "Badener Limmat-Lauf, Baden", "longitude": 8.5303972, "latitude": 48.5699281, "date": {"sam. 29.03.2008": {"weekday": "saturday", "year": 2008, "categories": {"M30": {"pace": 258000000000, "rank": 59, "distance": 13, "time": 3407.1}}, "day": 29, "month": 3, "livingplace": "Buttwil"}}, "location": "Baden"}, "Rotseelauf, Ebikon": {"race": "Rotseelauf, Ebikon", "date": {"sam. 21.04.2007": {"weekday": "saturday", "year": 2007, "categories": {"M30": {"pace": 255000000000, "rank": 63, "distance": 10, "time": 2559.1}}, "day": 21, "month": 4, "livingplace": "Buttwil"}}, "location": "Ebikon"}, "Pfingstlauf Wohlen AG": {"race": "Pfingstlauf Wohlen AG", "longitude": 8.2768762, "latitude": 47.3493653, "date": {"sam. 26.05.2007": {"weekday": "saturday", "year": 2007, "categories": {"M30": {"pace": 247000000000, "rank": 23, "distance": 8, "time": 2030.7}}, "day": 26, "month": 5, "livingplace": "Aesch"}}, "location": "Wohlen AG"}, "ASICS Bremgarter Reusslauf": {"race": "ASICS Bremgarter Reusslauf", "longitude": 8.3397905, "latitude": 47.34917739999999, "date": {"sam. 17.02.2007": {"weekday": "saturday", "year": 2007, "categories": {"M30": {"pace": 250000000000, "rank": 179, "distance": 11, "time": 2629.8}}, "day": 17, "month": 2, "livingplace": "Aesch"}, "sam. 23.02.2008": {"weekday": "saturday", "year": 2008, "categories": {"31": {"pace": 245000000000, "rank": 10, "distance": 7, "time": 1597.7}}, "day": 23, "month": 2, "livingplace": "Buttwil"}}, "location": "Bremgarten AG"}, "Lucerne Marathon, Luzern": {"race": "Lucerne Marathon, Luzern", "longitude": 8.3093072, "latitude": 47.05016819999999, "date": {"dim. 25.10.2009": {"weekday": "sunday", "year": 2009, "categories": {"H-M30": {"pace": 261000000000, "rank": 132, "distance": 21, "time": 5519.4}}, "day": 25, "month": 10, "livingplace": "Buttwil"}}, "location": "Luzern"}, "Z\u00fcrcher Silvesterlauf, Z\u00fcrich": {"race": "Z\u00fcrcher Silvesterlauf, Z\u00fcrich", "longitude": 8.541694, "latitude": 47.3768866, "date": {"dim. 10.12.2006": {"weekday": "sunday", "year": 2006, "categories": {"MenAK1-8": {"pace": 248000000000, "rank": 284, "distance": 9, "time": 2135.8}}, "day": 10, "month": 12, "livingplace": "Aesch"}}, "location": "Z\u00fcrich"}}, "name": "N\u00fcssli Christian", "birth": 1972}