{"sex": "M", "races": {"10km Schweizer Meisterschaften Lyss": {"race": "10km Schweizer Meisterschaften Lyss", "longitude": 7.3077022, "latitude": 47.0746504, "date": {"sam. 31.03.2012": {"weekday": "saturday", "year": 2012, "categories": {"10-M45": {"pace": 212000000000, "rank": 5, "distance": 10, "time": 2120.1}}, "day": 31, "month": 3, "livingplace": "Biasca"}}, "location": "Lyss"}, "Engadiner Sommerlauf, Samedan": {"race": "Engadiner Sommerlauf, Samedan", "date": {"dim. 21.08.2011": {"weekday": "sunday", "year": 2011, "categories": {"M-S1": {"pace": 223000000000, "rank": 5, "distance": 10, "time": 2231.8}}, "day": 21, "month": 8, "livingplace": "Biasca"}}, "location": "Bever"}, "20km de Lausanne": {"race": "20km de Lausanne", "longitude": 6.6322734, "latitude": 46.5196535, "date": {"sam. 27.04.2013": {"weekday": "saturday", "year": 2013, "categories": {"20-H45": {"pace": 236000000000, "rank": 12, "distance": 20, "time": 4728.5}}, "day": 27, "month": 4, "livingplace": "SFG Biasca"}}, "location": "Lausanne"}, "Stralugano, Lugano": {"race": "Stralugano, Lugano", "longitude": 8.951051999999999, "latitude": 46.0036778, "date": {"dim. 27.09.2015": {"weekday": "sunday", "year": 2015, "categories": {"30-M50": {"pace": 232000000000, "rank": 2, "distance": 30, "time": 6978.7}}, "day": 27, "month": 9, "livingplace": "Biasca"}, "dim. 28.09.2014": {"weekday": "sunday", "year": 2014, "categories": {"10-M50": {"pace": 199000000000, "rank": 1, "distance": 10, "time": 1995.7}}, "day": 28, "month": 9, "livingplace": "Biasca"}}, "location": "Lugano"}, "Aletsch-Halbmarathon, Bettmeralp": {"race": "Aletsch-Halbmarathon, Bettmeralp", "date": {"dim. 29.06.2014": {"weekday": "sunday", "year": 2014, "categories": {"M50": {"pace": 294000000000, "rank": 6, "distance": 13, "time": 3915.3}}, "day": 29, "month": 6, "livingplace": "Biasca"}}, "location": "Bettmeralp"}, "Schlosslauf Rapperswil-Jona": {"race": "Schlosslauf Rapperswil-Jona", "longitude": 8.818437399999999, "latitude": 47.2266239, "date": {"dim. 06.10.2013": {"weekday": "sunday", "year": 2013, "categories": {"10-M3": {"pace": 211000000000, "rank": 3, "distance": 10, "time": 2117.0}}, "day": 6, "month": 10, "livingplace": "SFG Biasca"}}, "location": "Rapperswil SG"}, "ASICS Bremgarter Reusslauf": {"race": "ASICS Bremgarter Reusslauf", "longitude": 8.3397905, "latitude": 47.34917739999999, "date": {"sam. 22.02.2014": {"weekday": "saturday", "year": 2014, "categories": {"11-M50": {"pace": 217000000000, "rank": 3, "distance": 11, "time": 2397.9}}, "day": 22, "month": 2, "livingplace": "Biasca"}}, "location": "Bremgarten AG"}, "Kerzerslauf": {"race": "Kerzerslauf", "longitude": 7.1954365, "latitude": 46.97488999999999, "date": {"sam. 17.03.2012": {"weekday": "saturday", "year": 2012, "categories": {"15-M45": {"pace": 226000000000, "rank": 8, "distance": 15, "time": 3392.0}}, "day": 17, "month": 3, "livingplace": "Biasca"}}, "location": "Kerzers"}, "SwissCityMarathon - Lucerne, Luzern": {"race": "SwissCityMarathon - Lucerne, Luzern", "longitude": 8.3093072, "latitude": 47.05016819999999, "date": {"dim. 25.10.2015": {"weekday": "sunday", "year": 2015, "categories": {"M-M50": {"pace": 258000000000, "rank": 6, "distance": 42, "time": 10899.0}}, "day": 25, "month": 10, "livingplace": "Biasca"}}, "location": "Luzern"}, "Montreux - Les Rochers de Naye": {"race": "Montreux - Les Rochers de Naye", "longitude": 6.9106799, "latitude": 46.4312213, "date": {"dim. 06.07.2014": {"weekday": "sunday", "year": 2014, "categories": {"M-HV\u00e9t2": {"pace": 406000000000, "rank": 8, "distance": 19, "time": 7636.0}}, "day": 6, "month": 7, "livingplace": "Biasca"}}, "location": "Montreux"}}, "name": "Oberti Marco", "birth": 1964}