{"sex": "F", "races": {"Tour du Chablais #5 Morgins": {"race": "Tour du Chablais #5 Morgins", "longitude": 6.931504599999999, "latitude": 46.3603257, "date": {"mer. 01.05.2013": {"weekday": "wednesday", "year": 2013, "categories": {"F-F20": {"pace": 260000000000, "rank": 6, "distance": 8, "time": 1981.3}}, "day": 1, "month": 5, "livingplace": "Collombey"}}, "location": "Roche VD"}, "Tour du Chablais #2 Yvorne": {"race": "Tour du Chablais #2 Yvorne", "longitude": 6.854975199999999, "latitude": 46.3835529, "date": {"mer. 10.04.2013": {"weekday": "wednesday", "year": 2013, "categories": {"F-F20": {"pace": 271000000000, "rank": 10, "distance": 8, "time": 2169.2}}, "day": 10, "month": 4, "livingplace": "Collombey"}}, "location": "Bouveret"}, "Tour du Chablais #3 Bouveret": {"race": "Tour du Chablais #3 Bouveret", "longitude": 7.0223787, "latitude": 46.1782231, "date": {"mer. 17.04.2013": {"weekday": "wednesday", "year": 2013, "categories": {"F-F20": {"pace": 253000000000, "rank": 9, "distance": 10, "time": 2534.9}}, "day": 17, "month": 4, "livingplace": "Collombey"}}, "location": "Evionnaz"}, "Tour du Chablais #4 St  Maurice": {"race": "Tour du Chablais #4 St  Maurice", "date": {"mer. 24.04.2013": {"weekday": "wednesday", "year": 2013, "categories": {"F-F20": {"pace": 252000000000, "rank": 7, "distance": 10, "time": 2529.8}}, "day": 24, "month": 4, "livingplace": "Collombey"}}, "location": "Les Mosses"}, "Morat-Fribourg": {"race": "Morat-Fribourg", "longitude": 7.120184, "latitude": 46.92922110000001, "date": {"sam. 01.10.2011": {"weekday": "saturday", "year": 2011, "categories": {"17-W20": {"pace": 281000000000, "rank": 32, "distance": 17, "time": 4835.1}}, "day": 1, "month": 10, "livingplace": "Collombey"}, "sam. 02.10.2010": {"weekday": "saturday", "year": 2010, "categories": {"17-W20": {"pace": 305000000000, "rank": 60, "distance": 17, "time": 5237.1}}, "day": 2, "month": 10, "livingplace": "Collombey"}}, "location": "Murten"}, "20km de Lausanne": {"race": "20km de Lausanne", "longitude": 6.6322734, "latitude": 46.5196535, "date": {"sam. 28.04.2012": {"weekday": "saturday", "year": 2012, "categories": {"20-F30": {"pace": 286000000000, "rank": 18, "distance": 20, "time": 5734.5}}, "day": 28, "month": 4, "livingplace": "Collombey"}}, "location": "Lausanne"}, "Tour du Chablais #6 Mouthey": {"race": "Tour du Chablais #6 Mouthey", "longitude": 6.970566, "latitude": 46.3190253, "date": {"mer. 12.05.2010": {"weekday": "wednesday", "year": 2010, "categories": {"F-F20": {"pace": 263000000000, "rank": 13, "distance": 9, "time": 2425.7}}, "day": 12, "month": 5, "livingplace": "Collombey"}}, "location": "Aigle"}}, "name": "Oberholzer St\u00e9phanie", "birth": 1982}