{"sex": "M", "races": {"Aegeriseelauf, Ober\u00e4geri": {"race": "Aegeriseelauf, Ober\u00e4geri", "date": {"ven. 18.07.2014": {"weekday": "friday", "year": 2014, "categories": {"Sen3": {"pace": 316000000000, "rank": 178, "distance": 14, "time": 4477.8}}, "day": 18, "month": 7, "livingplace": "Alpnach Dorf"}}, "location": "Ober\u00e4geri"}, "Bl\u00fcemlisalp-Lauf, Reichenbach": {"race": "Bl\u00fcemlisalp-Lauf, Reichenbach", "longitude": 7.6940529, "latitude": 46.6254387, "date": {"dim. 24.05.2015": {"weekday": "sunday", "year": 2015, "categories": {"M40": {"pace": 409000000000, "rank": 131, "distance": 16, "time": 6589.0}}, "day": 24, "month": 5, "livingplace": "Bitzilaufer"}}, "location": "Reichenbach im Kandertal"}, "Dietiker Neujahrslauf, Dietikon": {"race": "Dietiker Neujahrslauf, Dietikon", "longitude": 8.39977, "latitude": 47.4053885, "date": {"sam. 10.01.2015": {"weekday": "saturday", "year": 2015, "categories": {"C": {"pace": 289000000000, "rank": 126, "distance": 12, "time": 3502.4}}, "day": 10, "month": 1, "livingplace": "Alpnach Dorf"}}, "location": "Dietikon"}, "Hallwilerseelauf, Beinwil am See": {"race": "Hallwilerseelauf, Beinwil am See", "date": {"sam. 11.10.2014": {"weekday": "saturday", "year": 2014, "categories": {"21-M40": {"pace": 330000000000, "rank": 591, "distance": 21, "time": 6963.3}}, "day": 11, "month": 10, "livingplace": "Alpnach Dorf"}}, "location": "Beinwil am See"}, "Thuner Stadtlauf, Thun": {"race": "Thuner Stadtlauf, Thun", "longitude": 7.6279881, "latitude": 46.7579868, "date": {"dim. 24.08.2014": {"weekday": "sunday", "year": 2014, "categories": {"10-M40": {"pace": 305000000000, "rank": 106, "distance": 11, "time": 3283.0}}, "day": 24, "month": 8, "livingplace": "Alpnach Dorf"}}, "location": "Thun"}, "ASICS Bremgarter Reusslauf": {"race": "ASICS Bremgarter Reusslauf", "longitude": 8.3397905, "latitude": 47.34917739999999, "date": {"sam. 28.02.2015": {"weekday": "saturday", "year": 2015, "categories": {"11-M40": {"pace": 281000000000, "rank": 313, "distance": 11, "time": 3096.6}}, "day": 28, "month": 2, "livingplace": "Alpnach Dorf"}}, "location": "Bremgarten AG"}, "Z\u00fcrich Marathon, Teamrun und Cityrun": {"race": "Z\u00fcrich Marathon, Teamrun und Cityrun", "longitude": 8.541694, "latitude": 47.3768866, "date": {"dim. 19.04.2015": {"weekday": "sunday", "year": 2015, "categories": {"42-M40": {"pace": 398000000000, "rank": 343, "distance": 42, "time": 16832.2}}, "day": 19, "month": 4, "livingplace": "Alpnach Dorf"}}, "location": "Z\u00fcrich"}, "Morat-Fribourg": {"race": "Morat-Fribourg", "longitude": 7.120184, "latitude": 46.92922110000001, "date": {"sam. 03.10.2015": {"weekday": "saturday", "year": 2015, "categories": {"17-M40": {"pace": 437000000000, "rank": 699, "distance": 17, "time": 7510.7}}, "day": 3, "month": 10, "livingplace": "Alpnach Dorf"}}, "location": "Murten"}, "Z\u00fcrcher Silvesterlauf, Z\u00fcrich": {"race": "Z\u00fcrcher Silvesterlauf, Z\u00fcrich", "longitude": 8.541694, "latitude": 47.3768866, "date": {"dim. 14.12.2014": {"weekday": "sunday", "year": 2014, "categories": {"10-M40": {"pace": 289000000000, "rank": 551, "distance": 10, "time": 2890.9}}, "day": 14, "month": 12, "livingplace": "Alpnach Dorf"}}, "location": "Z\u00fcrich"}, "SwissCityMarathon - Lucerne, Luzern": {"race": "SwissCityMarathon - Lucerne, Luzern", "longitude": 8.3093072, "latitude": 47.05016819999999, "date": {"dim. 25.10.2015": {"weekday": "sunday", "year": 2015, "categories": {"H-M40": {"pace": 402000000000, "rank": 517, "distance": 21, "time": 8501.0}}, "day": 25, "month": 10, "livingplace": "Alpnach Dorf"}}, "location": "Luzern"}}, "name": "Odermatt Markus", "birth": 1971}