{"sex": "F", "races": {"Tour du Pays de Vaud printanier #1 Chavornay": {"race": "Tour du Pays de Vaud printanier #1 Chavornay", "longitude": 6.2347852, "latitude": 46.3832683, "date": {"mer. 30.05.2012": {"weekday": "wednesday", "year": 2012, "categories": {"D-Sen2": {"pace": 324000000000, "rank": 15, "distance": 9, "time": 2902.9}}, "day": 30, "month": 5, "livingplace": "Onnens"}}, "location": "Nyon"}, "Tour du Pays de Vaud #3 - Chavornay": {"race": "Tour du Pays de Vaud #3 - Chavornay", "longitude": 6.641183, "latitude": 46.7784736, "date": {"mer. 28.08.2013": {"weekday": "wednesday", "year": 2013, "categories": {"D-Sen3": {"pace": 315000000000, "rank": 13, "distance": 9, "time": 2807.3}}, "day": 28, "month": 8, "livingplace": "Onnens"}}, "location": "Yverdon-les-Bains"}, "Aletsch-Halbmarathon, Bettmeralp": {"race": "Aletsch-Halbmarathon, Bettmeralp", "date": {"dim. 29.06.2014": {"weekday": "sunday", "year": 2014, "categories": {"F50": {"pace": 441000000000, "rank": 23, "distance": 13, "time": 5873.7}}, "day": 29, "month": 6, "livingplace": "Les amis de la course"}, "dim. 28.06.2015": {"weekday": "sunday", "year": 2015, "categories": {"F50": {"pace": 551000000000, "rank": 44, "distance": 21, "time": 11633.0}}, "day": 28, "month": 6, "livingplace": "Usy"}}, "location": "Bettmeralp"}, "Tour du Pays de Vaud printanier #2 Yverdon-les-Bains": {"race": "Tour du Pays de Vaud printanier #2 Yverdon-les-Bains", "longitude": 6.7975224, "latitude": 46.6698891, "date": {"mer. 05.06.2013": {"weekday": "wednesday", "year": 2013, "categories": {"D-Sen3": {"pace": 328000000000, "rank": 6, "distance": 9, "time": 2991.9}}, "day": 5, "month": 6, "livingplace": "Onnens"}}, "location": "Moudon"}, "Lausanne Marathon": {"race": "Lausanne Marathon", "longitude": 6.6322734, "latitude": 46.5196535, "date": {"dim. 26.10.2014": {"weekday": "sunday", "year": 2014, "categories": {"42-D50": {"pace": 357000000000, "rank": 16, "distance": 42, "time": 15069.9}}, "day": 26, "month": 10, "livingplace": "Onnens"}}, "location": "Lausanne"}, "Kerzerslauf": {"race": "Kerzerslauf", "longitude": 7.1954365, "latitude": 46.97488999999999, "date": {"sam. 15.03.2014": {"weekday": "saturday", "year": 2014, "categories": {"15-F50": {"pace": 333000000000, "rank": 97, "distance": 15, "time": 4999.3}}, "day": 15, "month": 3, "livingplace": "Onnens"}}, "location": "Kerzers"}, "Morat-Fribourg": {"race": "Morat-Fribourg", "longitude": 7.120184, "latitude": 46.92922110000001, "date": {"sam. 01.10.2011": {"weekday": "saturday", "year": 2011, "categories": {"17-W45": {"pace": 351000000000, "rank": 100, "distance": 17, "time": 6036.9}}, "day": 1, "month": 10, "livingplace": "Mathod"}, "sam. 06.10.2012": {"weekday": "saturday", "year": 2012, "categories": {"17-W45": {"pace": 352000000000, "rank": 131, "distance": 17, "time": 6147.8}}, "day": 6, "month": 10, "livingplace": "Onnens"}}, "location": "Murten"}, "Les Traine-Savates, Cheseaux-sur-Lausanne": {"race": "Les Traine-Savates, Cheseaux-sur-Lausanne", "longitude": 6.6047712, "latitude": 46.585452, "date": {"sam. 13.04.2013": {"weekday": "saturday", "year": 2013, "categories": {"10-W50": {"pace": 317000000000, "rank": 21, "distance": 10, "time": 3265.3}}, "day": 13, "month": 4, "livingplace": "Onnens"}, "sam. 12.04.2014": {"weekday": "saturday", "year": 2014, "categories": {"10-W50": {"pace": 314000000000, "rank": 17, "distance": 10, "time": 3241.6}}, "day": 12, "month": 4, "livingplace": "Onnens"}}, "location": "Cheseaux-sur-Lausanne"}, "20km de Lausanne": {"race": "20km de Lausanne", "longitude": 6.6322734, "latitude": 46.5196535, "date": {"sam. 26.04.2014": {"weekday": "saturday", "year": 2014, "categories": {"20-F50": {"pace": 330000000000, "rank": 32, "distance": 20, "time": 6607.5}}, "day": 26, "month": 4, "livingplace": "Les Amis de la Course"}}, "location": "Lausanne"}}, "name": "Paillard Mich\u00e8le", "birth": 1963}