{"sex": "M", "races": {"Course p\u00e9destre Thyon-Dixence, Thyon": {"race": "Course p\u00e9destre Thyon-Dixence, Thyon", "date": {"dim. 07.08.2011": {"weekday": "sunday", "year": 2011, "categories": {"V1": {"pace": 488000000000, "rank": 60, "distance": 16, "time": 7986.0}}, "day": 7, "month": 8, "livingplace": "Bramois"}}, "location": "Thyon-Les Collons"}, "Tour du Chablais #6 Aigle": {"race": "Tour du Chablais #6 Aigle", "longitude": 6.970566, "latitude": 46.3190253, "date": {"mer. 01.06.2011": {"weekday": "wednesday", "year": 2011, "categories": {"M-M40": {"pace": 301000000000, "rank": 121, "distance": 10, "time": 3079.8}}, "day": 1, "month": 6, "livingplace": "Bramois"}}, "location": "Aigle"}, "Tour du Chablais #1 Montreux": {"race": "Tour du Chablais #1 Montreux", "longitude": 6.9916269, "latitude": 46.2957462, "date": {"mer. 11.04.2012": {"weekday": "wednesday", "year": 2012, "categories": {"M-M40": {"pace": 298000000000, "rank": 104, "distance": 8, "time": 2269.4}}, "day": 11, "month": 4, "livingplace": "Bramois"}}, "location": "Ollon VD"}, "Tour du Chablais #2 St-Gingolph": {"race": "Tour du Chablais #2 St-Gingolph", "longitude": 6.854975199999999, "latitude": 46.3835529, "date": {"mer. 14.04.2010": {"weekday": "wednesday", "year": 2010, "categories": {"M-M40": {"pace": 371000000000, "rank": 175, "distance": 8, "time": 3101.0}}, "day": 14, "month": 4, "livingplace": "Bramois"}}, "location": "Bouveret"}, "Tour du Chablais #4 St  Maurice": {"race": "Tour du Chablais #4 St  Maurice", "date": {"mer. 24.04.2013": {"weekday": "wednesday", "year": 2013, "categories": {"M-M40": {"pace": 338000000000, "rank": 140, "distance": 10, "time": 3386.7}}, "day": 24, "month": 4, "livingplace": "Bramois"}}, "location": "Les Mosses"}, "Tour du Chablais #6 Montreux": {"race": "Tour du Chablais #6 Montreux", "longitude": 6.970566, "latitude": 46.3190253, "date": {"mer. 16.05.2012": {"weekday": "wednesday", "year": 2012, "categories": {"M-M40": {"pace": 286000000000, "rank": 113, "distance": 9, "time": 2647.5}}, "day": 16, "month": 5, "livingplace": "Bramois"}}, "location": "Aigle"}, "Tour du Chablais #3 Collombey-Muraz": {"race": "Tour du Chablais #3 Collombey-Muraz", "longitude": 7.0223787, "latitude": 46.1782231, "date": {"mer. 25.04.2012": {"weekday": "wednesday", "year": 2012, "categories": {"M-M40": {"pace": 278000000000, "rank": 79, "distance": 9, "time": 2501.4}}, "day": 25, "month": 4, "livingplace": "Bramois"}}, "location": "Evionnaz"}, "Lausanne Marathon": {"race": "Lausanne Marathon", "longitude": 6.6322734, "latitude": 46.5196535, "date": {"dim. 28.10.2012": {"weekday": "sunday", "year": 2012, "categories": {"21-H3": {"pace": 333000000000, "rank": 613, "distance": 21, "time": 7028.4}}, "day": 28, "month": 10, "livingplace": "Bramois"}, "dim. 30.10.2011": {"weekday": "sunday", "year": 2011, "categories": {"21-H3": {"pace": 302000000000, "rank": 439, "distance": 21, "time": 6378.3}}, "day": 30, "month": 10, "livingplace": "Bramois"}}, "location": "Lausanne"}, "Morat-Fribourg": {"race": "Morat-Fribourg", "longitude": 7.120184, "latitude": 46.92922110000001, "date": {"sam. 01.10.2011": {"weekday": "saturday", "year": 2011, "categories": {"17-M45": {"pace": 328000000000, "rank": 457, "distance": 17, "time": 5642.1}}, "day": 1, "month": 10, "livingplace": "Bramois"}, "sam. 05.10.2013": {"weekday": "saturday", "year": 2013, "categories": {"17-M45": {"pace": 345000000000, "rank": 644, "distance": 17, "time": 6021.7}}, "day": 5, "month": 10, "livingplace": "Bramois"}}, "location": "Murten"}, "Tour du Chablais #3 Le Bouveret": {"race": "Tour du Chablais #3 Le Bouveret", "longitude": 7.0223787, "latitude": 46.1782231, "date": {"mer. 11.05.2011": {"weekday": "wednesday", "year": 2011, "categories": {"M-M40": {"pace": 339000000000, "rank": 163, "distance": 10, "time": 3399.9}}, "day": 11, "month": 5, "livingplace": "Bramois"}}, "location": "Evionnaz"}, "Tour du Chablais #6 Mouthey": {"race": "Tour du Chablais #6 Mouthey", "longitude": 6.970566, "latitude": 46.3190253, "date": {"mer. 12.05.2010": {"weekday": "wednesday", "year": 2010, "categories": {"M-M40": {"pace": 297000000000, "rank": 132, "distance": 9, "time": 2739.9}}, "day": 12, "month": 5, "livingplace": "Bramois"}}, "location": "Aigle"}}, "name": "Pallara Juan Carlos", "birth": 1964}