{"sex": "F", "races": {"Tour du Chablais #5 Morgins": {"race": "Tour du Chablais #5 Morgins", "longitude": 6.931504599999999, "latitude": 46.3603257, "date": {"mer. 01.05.2013": {"weekday": "wednesday", "year": 2013, "categories": {"F-F40": {"pace": 283000000000, "rank": 9, "distance": 8, "time": 2154.2}}, "day": 1, "month": 5, "livingplace": "Troistorrents"}}, "location": "Roche VD"}, "Tour du Chablais #2 Yvorne": {"race": "Tour du Chablais #2 Yvorne", "longitude": 6.854975199999999, "latitude": 46.3835529, "date": {"mer. 10.04.2013": {"weekday": "wednesday", "year": 2013, "categories": {"F-F40": {"pace": 294000000000, "rank": 9, "distance": 8, "time": 2358.9}}, "day": 10, "month": 4, "livingplace": "Troistorrents"}}, "location": "Bouveret"}, "Tour du Chablais #6 Monthey": {"race": "Tour du Chablais #6 Monthey", "longitude": 6.970566, "latitude": 46.3190253, "date": {"mer. 08.05.2013": {"weekday": "wednesday", "year": 2013, "categories": {"F-F40": {"pace": 266000000000, "rank": 11, "distance": 9, "time": 2482.0}}, "day": 8, "month": 5, "livingplace": "Troistorrents"}}, "location": "Aigle"}, "Tour du Chablais #3 Bex": {"race": "Tour du Chablais #3 Bex", "longitude": 7.0223787, "latitude": 46.1782231, "date": {"mer. 21.04.2010": {"weekday": "wednesday", "year": 2010, "categories": {"F-F20": {"pace": 295000000000, "rank": 26, "distance": 10, "time": 2953.5}}, "day": 21, "month": 4, "livingplace": "Troistorrents"}}, "location": "Evionnaz"}, "Tour du Chablais #1 Roche": {"race": "Tour du Chablais #1 Roche", "longitude": 6.9916269, "latitude": 46.2957462, "date": {"mer. 03.04.2013": {"weekday": "wednesday", "year": 2013, "categories": {"F-F40": {"pace": 274000000000, "rank": 14, "distance": 9, "time": 2436.3}}, "day": 3, "month": 4, "livingplace": "Troistorrents"}}, "location": "Ollon VD"}, "Tour du Chablais #4 St  Maurice": {"race": "Tour du Chablais #4 St  Maurice", "date": {"mer. 24.04.2013": {"weekday": "wednesday", "year": 2013, "categories": {"F-F40": {"pace": 276000000000, "rank": 12, "distance": 10, "time": 2763.4}}, "day": 24, "month": 4, "livingplace": "Troistorrents"}}, "location": "Les Mosses"}, "Morat-Fribourg": {"race": "Morat-Fribourg", "longitude": 7.120184, "latitude": 46.92922110000001, "date": {"sam. 05.10.2013": {"weekday": "saturday", "year": 2013, "categories": {"17-W40": {"pace": 299000000000, "rank": 43, "distance": 17, "time": 5223.0}}, "day": 5, "month": 10, "livingplace": "Troistorrents"}}, "location": "Murten"}}, "name": "Pannatier Sandra", "birth": 1971}