{"sex": "M", "races": {"Int Greifenseelauf, Uster": {"race": "Int Greifenseelauf, Uster", "longitude": 8.717873899999999, "latitude": 47.3482747, "date": {"sam. 20.09.2008": {"weekday": "saturday", "year": 2008, "categories": {"H-M40": {"pace": 367000000000, "rank": 1053, "distance": 21, "time": 7757.6}}, "day": 20, "month": 9, "livingplace": "Wollerau"}}, "location": "Uster"}, "Dietiker Neujahrslauf, Dietikon": {"race": "Dietiker Neujahrslauf, Dietikon", "longitude": 8.39977, "latitude": 47.4053885, "date": {"sam. 12.01.2008": {"weekday": "saturday", "year": 2008, "categories": {"C": {"pace": 341000000000, "rank": 251, "distance": 12, "time": 4135.3}}, "day": 12, "month": 1, "livingplace": "Wollerau"}}, "location": "Dietikon"}, "ASICS Bremgarter Reusslauf": {"race": "ASICS Bremgarter Reusslauf", "longitude": 8.3397905, "latitude": 47.34917739999999, "date": {"sam. 23.02.2008": {"weekday": "saturday", "year": 2008, "categories": {"M40": {"pace": 315000000000, "rank": 571, "distance": 11, "time": 3473.1}}, "day": 23, "month": 2, "livingplace": "Wollerau"}}, "location": "Bremgarten AG"}, "Z\u00fcrich Marathon, Teamrun und Cityrun": {"race": "Z\u00fcrich Marathon, Teamrun und Cityrun", "longitude": 8.541694, "latitude": 47.3768866, "date": {"dim. 20.04.2008": {"weekday": "sunday", "year": 2008, "categories": {"M40": {"pace": 372000000000, "rank": 793, "distance": 42, "time": 15725.2}}, "day": 20, "month": 4, "livingplace": "Wollerau"}}, "location": "Z\u00fcrich"}, "Z\u00fcrcher Silvesterlauf, Z\u00fcrich": {"race": "Z\u00fcrcher Silvesterlauf, Z\u00fcrich", "longitude": 8.541694, "latitude": 47.3768866, "date": {"dim. 14.12.2008": {"weekday": "sunday", "year": 2008, "categories": {"MenAK2-8": {"pace": 348000000000, "rank": 1210, "distance": 9, "time": 2994.1}}, "day": 14, "month": 12, "livingplace": "Wollerau"}}, "location": "Z\u00fcrich"}, "Kerzerslauf": {"race": "Kerzerslauf", "longitude": 7.1954365, "latitude": 46.97488999999999, "date": {"sam. 15.03.2008": {"weekday": "saturday", "year": 2008, "categories": {"15/M40": {"pace": 331000000000, "rank": 526, "distance": 15, "time": 4965.9}}, "day": 15, "month": 3, "livingplace": "Wollerau"}}, "location": "Kerzers"}, "Walliseller Lauf, Wallisellen": {"race": "Walliseller Lauf, Wallisellen", "date": {"dim. 02.11.2008": {"weekday": "sunday", "year": 2008, "categories": {"M3": {"pace": 350000000000, "rank": 113, "distance": 10, "time": 3329.4}}, "day": 2, "month": 11, "livingplace": "Wollerau"}}, "location": "Wallisellen"}}, "name": "Papin Nicolas", "birth": 1967}