{"sex": "M", "races": {"Laufsporttag Winterthur": {"race": "Laufsporttag Winterthur", "longitude": -75.6037351, "latitude": 39.8088766, "date": {"sam. 03.03.2012": {"weekday": "saturday", "year": 2012, "categories": {"C": {"pace": 227000000000, "rank": 23, "distance": 11, "time": 2500.2}}, "day": 3, "month": 3, "livingplace": "Gockhausen"}}, "location": "Winterthur"}, "SM CS 10km Strasse route + Volkslauf 10km, Uster": {"race": "SM CS 10km Strasse route + Volkslauf 10km, Uster", "longitude": 8.717873899999999, "latitude": 47.3482747, "date": {"sam. 23.03.2013": {"weekday": "saturday", "year": 2013, "categories": {"10-M45": {"pace": 225000000000, "rank": 11, "distance": 10, "time": 2251.6}}, "day": 23, "month": 3, "livingplace": "Gockhausen"}}, "location": "Uster"}, "Bieler Lauftage, Biel Bienne": {"race": "Bieler Lauftage, Biel Bienne", "longitude": 7.2467909, "latitude": 47.1367785, "date": {"ven. 12.06.2009": {"weekday": "friday", "year": 2009, "categories": {"100/M40": {"pace": 339000000000, "rank": 19, "distance": 100, "time": 33997.0}}, "day": 12, "month": 6, "livingplace": "Mold"}}, "location": "Biel/Bienne"}, "GP der Stadt D\u00fcbendorf": {"race": "GP der Stadt D\u00fcbendorf", "longitude": 8.618012799999999, "latitude": 47.3971476, "date": {"sam. 14.04.2012": {"weekday": "saturday", "year": 2012, "categories": {"C": {"pace": 224000000000, "rank": 17, "distance": 10, "time": 2243.7}}, "day": 14, "month": 4, "livingplace": "Gockhausen"}}, "location": "D\u00fcbendorf"}, "Dietiker Neujahrslauf, Dietikon": {"race": "Dietiker Neujahrslauf, Dietikon", "longitude": 8.39977, "latitude": 47.4053885, "date": {"sam. 12.01.2013": {"weekday": "saturday", "year": 2013, "categories": {"C": {"pace": 233000000000, "rank": 33, "distance": 12, "time": 2825.9}}, "day": 12, "month": 1, "livingplace": "Gockhausen"}, "sam. 14.01.2012": {"weekday": "saturday", "year": 2012, "categories": {"C": {"pace": 225000000000, "rank": 25, "distance": 12, "time": 2731.0}}, "day": 14, "month": 1, "livingplace": "Gockhausen"}, "sam. 11.01.2014": {"weekday": "saturday", "year": 2014, "categories": {"C": {"pace": 250000000000, "rank": 45, "distance": 12, "time": 3030.5}}, "day": 11, "month": 1, "livingplace": "Gockhausen"}}, "location": "Dietikon"}, "Z\u00fcrich Marathon, Teamrun und Cityrun": {"race": "Z\u00fcrich Marathon, Teamrun und Cityrun", "longitude": 8.541694, "latitude": 47.3768866, "date": {"dim. 11.04.2010": {"weekday": "sunday", "year": 2010, "categories": {"M40": {"pace": 242000000000, "rank": 20, "distance": 42, "time": 10223.6}}, "day": 11, "month": 4, "livingplace": "Mold"}}, "location": "Z\u00fcrich"}, "Z\u00fcrcher Silvesterlauf, Z\u00fcrich": {"race": "Z\u00fcrcher Silvesterlauf, Z\u00fcrich", "longitude": 8.541694, "latitude": 47.3768866, "date": {"dim. 11.12.2011": {"weekday": "sunday", "year": 2011, "categories": {"8-MenAK2": {"pace": 221000000000, "rank": 25, "distance": 9, "time": 1903.2}}, "day": 11, "month": 12, "livingplace": "Gockhausen"}}, "location": "Z\u00fcrich"}, "Kyburglauf, Kyburg": {"race": "Kyburglauf, Kyburg", "date": {"sam. 12.11.2011": {"weekday": "saturday", "year": 2011, "categories": {"10-HM40": {"pace": 278000000000, "rank": 14, "distance": 10, "time": 2786.2}}, "day": 12, "month": 11, "livingplace": "Gockhausen"}}, "location": "Kyburg"}}, "name": "Pares John", "birth": 1966}