{"sex": "M", "races": {"Tour du Chablais #5 Leysin": {"race": "Tour du Chablais #5 Leysin", "longitude": 6.931504599999999, "latitude": 46.3603257, "date": {"mer. 05.05.2010": {"weekday": "wednesday", "year": 2010, "categories": {"M-M50": {"pace": 319000000000, "rank": 39, "distance": 8, "time": 2696.7}}, "day": 5, "month": 5, "livingplace": "Maxilly sur Leman"}}, "location": "Roche VD"}, "Tour du Chablais #6 Monthey": {"race": "Tour du Chablais #6 Monthey", "longitude": 6.970566, "latitude": 46.3190253, "date": {"mer. 08.05.2013": {"weekday": "wednesday", "year": 2013, "categories": {"M-M50": {"pace": 317000000000, "rank": 73, "distance": 9, "time": 2963.1}}, "day": 8, "month": 5, "livingplace": "Evian les Bains"}}, "location": "Aigle"}, "Tour du Chablais #4 Yvorne": {"race": "Tour du Chablais #4 Yvorne", "date": {"mer. 28.04.2010": {"weekday": "wednesday", "year": 2010, "categories": {"M-M50": {"pace": 315000000000, "rank": 40, "distance": 8, "time": 2613.7}}, "day": 28, "month": 4, "livingplace": "Maxilly sur Leman"}}, "location": "Les Mosses"}, "Tour du Chablais #1 Roche": {"race": "Tour du Chablais #1 Roche", "longitude": 6.9916269, "latitude": 46.2957462, "date": {"mer. 07.04.2010": {"weekday": "wednesday", "year": 2010, "categories": {"M-M50": {"pace": 294000000000, "rank": 46, "distance": 9, "time": 2638.4}}, "day": 7, "month": 4, "livingplace": "Maxilly sur Leman"}}, "location": "Ollon VD"}, "Tour du Chablais #1 Martigny": {"race": "Tour du Chablais #1 Martigny", "longitude": 6.9916269, "latitude": 46.2957462, "date": {"mer. 23.04.2014": {"weekday": "wednesday", "year": 2014, "categories": {"M-M50": {"pace": 313000000000, "rank": 83, "distance": 9, "time": 2666.7}}, "day": 23, "month": 4, "livingplace": "Maxilly sur Leman"}}, "location": "Ollon VD"}, "Tour du Chablais #6 Aigle": {"race": "Tour du Chablais #6 Aigle", "longitude": 6.970566, "latitude": 46.3190253, "date": {"mer. 01.06.2011": {"weekday": "wednesday", "year": 2011, "categories": {"M-M50": {"pace": 301000000000, "rank": 64, "distance": 10, "time": 3078.5}}, "day": 1, "month": 6, "livingplace": "Maxilly sur Leman"}}, "location": "Aigle"}, "20km de Lausanne": {"race": "20km de Lausanne", "longitude": 6.6322734, "latitude": 46.5196535, "date": {"sam. 24.04.2010": {"weekday": "saturday", "year": 2010, "categories": {"20-H50": {"pace": 316000000000, "rank": 126, "distance": 20, "time": 6338.7}}, "day": 24, "month": 4, "livingplace": "Maxilly s/ Leman"}, "sam. 25.04.2015": {"weekday": "saturday", "year": 2015, "categories": {"20-H55": {"pace": 324000000000, "rank": 96, "distance": 20, "time": 6486.0}}, "day": 25, "month": 4, "livingplace": "Maxilly sur Leman"}, "sam. 26.04.2014": {"weekday": "saturday", "year": 2014, "categories": {"20-H55": {"pace": 318000000000, "rank": 67, "distance": 20, "time": 6366.0}}, "day": 26, "month": 4, "livingplace": "Maxilly sur Leman"}}, "location": "Lausanne"}, "Tour du Chablais #6 Mouthey": {"race": "Tour du Chablais #6 Mouthey", "longitude": 6.970566, "latitude": 46.3190253, "date": {"mer. 12.05.2010": {"weekday": "wednesday", "year": 2010, "categories": {"M-M50": {"pace": 288000000000, "rank": 48, "distance": 9, "time": 2654.7}}, "day": 12, "month": 5, "livingplace": "Maxilly sur Leman"}}, "location": "Aigle"}, "Semi-Marathon de la C\u00f4te, Allaman-Nyon": {"race": "Semi-Marathon de la C\u00f4te, Allaman-Nyon", "longitude": 6.2347852, "latitude": 46.3832683, "date": {"dim. 14.09.2014": {"weekday": "sunday", "year": 2014, "categories": {"21-H55": {"pace": 362000000000, "rank": 43, "distance": 21, "time": 7647.1}}, "day": 14, "month": 9, "livingplace": "Maxilly sur Leman"}}, "location": "Nyon"}, "Tour du Chablais #5 Les Mosses": {"race": "Tour du Chablais #5 Les Mosses", "longitude": 6.931504599999999, "latitude": 46.3603257, "date": {"mer. 25.05.2011": {"weekday": "wednesday", "year": 2011, "categories": {"M-M50": {"pace": 331000000000, "rank": 50, "distance": 8, "time": 2648.6}}, "day": 25, "month": 5, "livingplace": "Maxilly sur Leman"}}, "location": "Roche VD"}, "Tour du Chablais #4 Morgins": {"race": "Tour du Chablais #4 Morgins", "date": {"mer. 18.05.2011": {"weekday": "wednesday", "year": 2011, "categories": {"M-M50": {"pace": 340000000000, "rank": 67, "distance": 8, "time": 2839.7}}, "day": 18, "month": 5, "livingplace": "Maxilly sur Leman"}}, "location": "Les Mosses"}, "Tour du Chablais #4 St  Maurice": {"race": "Tour du Chablais #4 St  Maurice", "date": {"mer. 24.04.2013": {"weekday": "wednesday", "year": 2013, "categories": {"M-M50": {"pace": 333000000000, "rank": 69, "distance": 10, "time": 3334.1}}, "day": 24, "month": 4, "livingplace": "Evian les Bains"}}, "location": "Les Mosses"}, "Lausanne Marathon": {"race": "Lausanne Marathon", "longitude": 6.6322734, "latitude": 46.5196535, "date": {"sam. 24.10.2015": {"weekday": "saturday", "year": 2015, "categories": {"42-H50": {"pace": 354000000000, "rank": 99, "distance": 42, "time": 14946.4}}, "day": 24, "month": 10, "livingplace": "Maxilly sur Leman"}, "dim. 27.10.2013": {"weekday": "sunday", "year": 2013, "categories": {"42-H4": {"pace": 340000000000, "rank": 82, "distance": 42, "time": 14378.5}}, "day": 27, "month": 10, "livingplace": "Maxilly sur Leman"}}, "location": "Lausanne"}, "Tour du Chablais #3 Le Bouveret": {"race": "Tour du Chablais #3 Le Bouveret", "longitude": 7.0223787, "latitude": 46.1782231, "date": {"mer. 11.05.2011": {"weekday": "wednesday", "year": 2011, "categories": {"M-M50": {"pace": 311000000000, "rank": 74, "distance": 10, "time": 3116.2}}, "day": 11, "month": 5, "livingplace": "Maxilly sur Leman"}}, "location": "Evionnaz"}, "Tour du Chablais #2 St-Gingolph": {"race": "Tour du Chablais #2 St-Gingolph", "longitude": 6.854975199999999, "latitude": 46.3835529, "date": {"mer. 14.04.2010": {"weekday": "wednesday", "year": 2010, "categories": {"M-M50": {"pace": 341000000000, "rank": 57, "distance": 8, "time": 2854.3}}, "day": 14, "month": 4, "livingplace": "Maxilly sur Leman"}}, "location": "Bouveret"}, "Tour du Chablais #1 Lavey": {"race": "Tour du Chablais #1 Lavey", "longitude": 6.9916269, "latitude": 46.2957462, "date": {"mer. 27.04.2011": {"weekday": "wednesday", "year": 2011, "categories": {"M-M50": {"pace": 313000000000, "rank": 70, "distance": 9, "time": 2819.3}}, "day": 27, "month": 4, "livingplace": "Maxilly sur Leman"}}, "location": "Ollon VD"}}, "name": "Parpillat G\u00e9rard", "birth": 1956}