{"sex": "F", "races": {"Schweizer Frauenlauf Bern": {"race": "Schweizer Frauenlauf Bern", "longitude": 7.4474468, "latitude": 46.9479739, "date": {"dim. 15.06.2014": {"weekday": "sunday", "year": 2014, "categories": {"10-W20": {"pace": 285000000000, "rank": 66, "distance": 10, "time": 2857.9}}, "day": 15, "month": 6, "livingplace": "Rivera"}, "dim. 09.06.2013": {"weekday": "sunday", "year": 2013, "categories": {"10-W20": {"pace": 296000000000, "rank": 118, "distance": 10, "time": 2964.2}}, "day": 9, "month": 6, "livingplace": "Rivera"}}, "location": "Bern"}, "Campionati Svizzeri di Cross, Tenero": {"race": "Campionati Svizzeri di Cross, Tenero", "date": {"sam. 08.03.2008": {"weekday": "saturday", "year": 2008, "categories": {"U18W": {"pace": 283000000000, "rank": 33, "distance": 4, "time": 1133.0}}, "day": 8, "month": 3, "livingplace": "Bellinzona"}}, "location": "Tenero"}, "Kerzerslauf": {"race": "Kerzerslauf", "longitude": 7.1954365, "latitude": 46.97488999999999, "date": {"sam. 21.03.2015": {"weekday": "saturday", "year": 2015, "categories": {"15-F20": {"pace": 292000000000, "rank": 81, "distance": 15, "time": 4384.4}}, "day": 21, "month": 3, "livingplace": "Olten"}}, "location": "Kerzers"}, "Morat-Fribourg": {"race": "Morat-Fribourg", "longitude": 7.120184, "latitude": 46.92922110000001, "date": {"sam. 04.10.2014": {"weekday": "saturday", "year": 2014, "categories": {"17-W20": {"pace": 303000000000, "rank": 65, "distance": 17, "time": 5203.6}}, "day": 4, "month": 10, "livingplace": "Rivera"}}, "location": "Murten"}, "Z\u00fcrcher Silvesterlauf, Z\u00fcrich": {"race": "Z\u00fcrcher Silvesterlauf, Z\u00fcrich", "longitude": 8.541694, "latitude": 47.3768866, "date": {"dim. 14.12.2014": {"weekday": "sunday", "year": 2014, "categories": {"10-F20": {"pace": 281000000000, "rank": 75, "distance": 10, "time": 2814.3}}, "day": 14, "month": 12, "livingplace": "Olten"}}, "location": "Z\u00fcrich"}, "20km de Lausanne": {"race": "20km de Lausanne", "longitude": 6.6322734, "latitude": 46.5196535, "date": {"sam. 25.04.2015": {"weekday": "saturday", "year": 2015, "categories": {"20-F20": {"pace": 299000000000, "rank": 54, "distance": 20, "time": 5993.4}}, "day": 25, "month": 4, "livingplace": "Ganasa"}, "sam. 26.04.2014": {"weekday": "saturday", "year": 2014, "categories": {"20-F20": {"pace": 299000000000, "rank": 29, "distance": 20, "time": 5997.1}}, "day": 26, "month": 4, "livingplace": "Rivera"}}, "location": "Lausanne"}}, "name": "Pawlowski Rachele", "birth": 1992}