{"sex": "M", "races": {"Tour du Chablais #1 Montreux": {"race": "Tour du Chablais #1 Montreux", "longitude": 6.9916269, "latitude": 46.2957462, "date": {"mer. 11.04.2012": {"weekday": "wednesday", "year": 2012, "categories": {"M-M40": {"pace": 264000000000, "rank": 46, "distance": 8, "time": 2010.2}}, "day": 11, "month": 4, "livingplace": "Miex"}}, "location": "Ollon VD"}, "Tour du Chablais #4 Yvorne": {"race": "Tour du Chablais #4 Yvorne", "date": {"mer. 28.04.2010": {"weekday": "wednesday", "year": 2010, "categories": {"M-M40": {"pace": 269000000000, "rank": 53, "distance": 8, "time": 2231.9}}, "day": 28, "month": 4, "livingplace": "Miex"}}, "location": "Les Mosses"}, "Tour du Chablais #1 Roche": {"race": "Tour du Chablais #1 Roche", "longitude": 6.9916269, "latitude": 46.2957462, "date": {"mer. 07.04.2010": {"weekday": "wednesday", "year": 2010, "categories": {"M-M40": {"pace": 248000000000, "rank": 45, "distance": 9, "time": 2222.2}}, "day": 7, "month": 4, "livingplace": "Miex"}}, "location": "Ollon VD"}, "Tour du Chablais #3 Collombey-Muraz": {"race": "Tour du Chablais #3 Collombey-Muraz", "longitude": 7.0223787, "latitude": 46.1782231, "date": {"mer. 25.04.2012": {"weekday": "wednesday", "year": 2012, "categories": {"M-M40": {"pace": 261000000000, "rank": 53, "distance": 9, "time": 2350.9}}, "day": 25, "month": 4, "livingplace": "Miex"}}, "location": "Evionnaz"}, "Tour du Chablais #2 Bex": {"race": "Tour du Chablais #2 Bex", "longitude": 6.854975199999999, "latitude": 46.3835529, "date": {"mer. 18.04.2012": {"weekday": "wednesday", "year": 2012, "categories": {"M-M40": {"pace": 263000000000, "rank": 46, "distance": 8, "time": 2107.7}}, "day": 18, "month": 4, "livingplace": "Miex"}}, "location": "Bouveret"}, "Morat-Fribourg": {"race": "Morat-Fribourg", "longitude": 7.120184, "latitude": 46.92922110000001, "date": {"sam. 04.10.2008": {"weekday": "saturday", "year": 2008, "categories": {"C-M40": {"pace": 277000000000, "rank": 239, "distance": 17, "time": 4760.0}}, "day": 4, "month": 10, "livingplace": "Miex"}}, "location": "Murten"}, "Montreux - Les Rochers de Naye": {"race": "Montreux - Les Rochers de Naye", "longitude": 6.9106799, "latitude": 46.4312213, "date": {"dim. 25.06.2006": {"weekday": "sunday", "year": 2006, "categories": {"V\u00e9t1": {"pace": 424000000000, "rank": 29, "distance": 19, "time": 7976.4}}, "day": 25, "month": 6, "livingplace": "Miex"}}, "location": "Montreux"}, "Tour du Chablais #4 Morgins": {"race": "Tour du Chablais #4 Morgins", "date": {"mer. 18.05.2011": {"weekday": "wednesday", "year": 2011, "categories": {"M-M40": {"pace": 269000000000, "rank": 44, "distance": 8, "time": 2253.9}}, "day": 18, "month": 5, "livingplace": "Miex"}}, "location": "Les Mosses"}, "Tour du Chablais #2 St-Gingolph": {"race": "Tour du Chablais #2 St-Gingolph", "longitude": 6.854975199999999, "latitude": 46.3835529, "date": {"mer. 14.04.2010": {"weekday": "wednesday", "year": 2010, "categories": {"M-M40": {"pace": 269000000000, "rank": 44, "distance": 8, "time": 2248.6}}, "day": 14, "month": 4, "livingplace": "Miex"}}, "location": "Bouveret"}, "Tour du Chablais #5 Les Mosses": {"race": "Tour du Chablais #5 Les Mosses", "longitude": 6.931504599999999, "latitude": 46.3603257, "date": {"mer. 25.05.2011": {"weekday": "wednesday", "year": 2011, "categories": {"M-M40": {"pace": 317000000000, "rank": 83, "distance": 8, "time": 2542.1}}, "day": 25, "month": 5, "livingplace": "Miex"}}, "location": "Roche VD"}, "Tour du Chablais #1 Lavey": {"race": "Tour du Chablais #1 Lavey", "longitude": 6.9916269, "latitude": 46.2957462, "date": {"mer. 27.04.2011": {"weekday": "wednesday", "year": 2011, "categories": {"M-M40": {"pace": 266000000000, "rank": 63, "distance": 9, "time": 2394.6}}, "day": 27, "month": 4, "livingplace": "Miex"}}, "location": "Ollon VD"}, "Tour du Chablais #3 Bex": {"race": "Tour du Chablais #3 Bex", "longitude": 7.0223787, "latitude": 46.1782231, "date": {"mer. 21.04.2010": {"weekday": "wednesday", "year": 2010, "categories": {"M-M40": {"pace": 255000000000, "rank": 38, "distance": 10, "time": 2557.5}}, "day": 21, "month": 4, "livingplace": "Miex"}}, "location": "Evionnaz"}, "Tour du Chablais #3 Le Bouveret": {"race": "Tour du Chablais #3 Le Bouveret", "longitude": 7.0223787, "latitude": 46.1782231, "date": {"mer. 11.05.2011": {"weekday": "wednesday", "year": 2011, "categories": {"M-M40": {"pace": 256000000000, "rank": 46, "distance": 10, "time": 2561.2}}, "day": 11, "month": 5, "livingplace": "Miex"}}, "location": "Evionnaz"}, "Tour du Chablais #2 Rennaz": {"race": "Tour du Chablais #2 Rennaz", "longitude": 6.854975199999999, "latitude": 46.3835529, "date": {"mer. 04.05.2011": {"weekday": "wednesday", "year": 2011, "categories": {"M-M40": {"pace": 261000000000, "rank": 66, "distance": 9, "time": 2442.5}}, "day": 4, "month": 5, "livingplace": "Miex"}}, "location": "Bouveret"}}, "name": "Peiry Christian", "birth": 1965}