{"sex": "M", "races": {"Tour du Chablais #5 Morgins": {"race": "Tour du Chablais #5 Morgins", "longitude": 6.931504599999999, "latitude": 46.3603257, "date": {"mer. 01.05.2013": {"weekday": "wednesday", "year": 2013, "categories": {"M-M20": {"pace": 279000000000, "rank": 94, "distance": 8, "time": 2125.0}}, "day": 1, "month": 5, "livingplace": "Noville"}}, "location": "Roche VD"}, "Tour du Chablais #4 Champ\u00e9ry": {"race": "Tour du Chablais #4 Champ\u00e9ry", "date": {"mer. 02.05.2012": {"weekday": "wednesday", "year": 2012, "categories": {"M-M20": {"pace": 273000000000, "rank": 110, "distance": 8, "time": 2271.9}}, "day": 2, "month": 5, "livingplace": "Noville"}}, "location": "Les Mosses"}, "Tour du Chablais #2 Yvorne": {"race": "Tour du Chablais #2 Yvorne", "longitude": 6.854975199999999, "latitude": 46.3835529, "date": {"mer. 10.04.2013": {"weekday": "wednesday", "year": 2013, "categories": {"M-M20": {"pace": 280000000000, "rank": 85, "distance": 8, "time": 2246.4}}, "day": 10, "month": 4, "livingplace": "Noville"}}, "location": "Bouveret"}, "Tour du Chablais #6 Monthey": {"race": "Tour du Chablais #6 Monthey", "longitude": 6.970566, "latitude": 46.3190253, "date": {"mer. 08.05.2013": {"weekday": "wednesday", "year": 2013, "categories": {"M-M20": {"pace": 256000000000, "rank": 85, "distance": 9, "time": 2394.5}}, "day": 8, "month": 5, "livingplace": "Noville"}}, "location": "Aigle"}, "Tour du Chablais #5 Bex": {"race": "Tour du Chablais #5 Bex", "longitude": 6.931504599999999, "latitude": 46.3603257, "date": {"mer. 09.05.2012": {"weekday": "wednesday", "year": 2012, "categories": {"M-M20": {"pace": 265000000000, "rank": 89, "distance": 9, "time": 2351.1}}, "day": 9, "month": 5, "livingplace": "Noville"}}, "location": "Roche VD"}, "Tour du Chablais #3 Bouveret": {"race": "Tour du Chablais #3 Bouveret", "longitude": 7.0223787, "latitude": 46.1782231, "date": {"mer. 17.04.2013": {"weekday": "wednesday", "year": 2013, "categories": {"M-M20": {"pace": 265000000000, "rank": 93, "distance": 10, "time": 2657.0}}, "day": 17, "month": 4, "livingplace": "Noville"}}, "location": "Evionnaz"}, "Tour du Chablais #1 Roche": {"race": "Tour du Chablais #1 Roche", "longitude": 6.9916269, "latitude": 46.2957462, "date": {"mer. 03.04.2013": {"weekday": "wednesday", "year": 2013, "categories": {"M-M20": {"pace": 256000000000, "rank": 71, "distance": 9, "time": 2273.0}}, "day": 3, "month": 4, "livingplace": "Noville"}}, "location": "Ollon VD"}, "Tour du Chablais #1 Martigny": {"race": "Tour du Chablais #1 Martigny", "longitude": 6.9916269, "latitude": 46.2957462, "date": {"mer. 23.04.2014": {"weekday": "wednesday", "year": 2014, "categories": {"M-M20": {"pace": 267000000000, "rank": 115, "distance": 9, "time": 2270.6}}, "day": 23, "month": 4, "livingplace": "Noville"}}, "location": "Ollon VD"}, "Tour du Chablais #6 Montreux": {"race": "Tour du Chablais #6 Montreux", "longitude": 6.970566, "latitude": 46.3190253, "date": {"mer. 16.05.2012": {"weekday": "wednesday", "year": 2012, "categories": {"M-M20": {"pace": 260000000000, "rank": 99, "distance": 9, "time": 2408.6}}, "day": 16, "month": 5, "livingplace": "Noville"}}, "location": "Aigle"}, "Tour du Chablais #4 St  Maurice": {"race": "Tour du Chablais #4 St  Maurice", "date": {"mer. 24.04.2013": {"weekday": "wednesday", "year": 2013, "categories": {"M-M20": {"pace": 264000000000, "rank": 84, "distance": 10, "time": 2643.1}}, "day": 24, "month": 4, "livingplace": "Noville"}}, "location": "Les Mosses"}}, "name": "Pellet Yves", "birth": 1980}