{"sex": "M", "races": {"Aegeriseelauf, Ober\u00e4geri": {"race": "Aegeriseelauf, Ober\u00e4geri", "date": {"ven. 18.07.2014": {"weekday": "friday", "year": 2014, "categories": {"Sen3": {"pace": 354000000000, "rank": 220, "distance": 14, "time": 5018.8}}, "day": 18, "month": 7, "livingplace": "Zug"}}, "location": "Ober\u00e4geri"}, "10km de Payerne": {"race": "10km de Payerne", "longitude": 6.9405663, "latitude": 46.8220266, "date": {"sam. 27.03.2010": {"weekday": "saturday", "year": 2010, "categories": {"M35": {"pace": 429000000000, "rank": 48, "distance": 10, "time": 4299.3}}, "day": 27, "month": 3, "livingplace": "Cully"}}, "location": "Payerne"}, "Lucerne Marathon, Luzern": {"race": "Lucerne Marathon, Luzern", "longitude": 8.3093072, "latitude": 47.05016819999999, "date": {"dim. 31.10.2010": {"weekday": "sunday", "year": 2010, "categories": {"H-M30": {"pace": 384000000000, "rank": 968, "distance": 21, "time": 8114.9}}, "day": 31, "month": 10, "livingplace": "Cully"}}, "location": "Luzern"}, "Morat-Fribourg": {"race": "Morat-Fribourg", "longitude": 7.120184, "latitude": 46.92922110000001, "date": {"sam. 02.10.2010": {"weekday": "saturday", "year": 2010, "categories": {"17-M20": {"pace": 427000000000, "rank": 1942, "distance": 17, "time": 7337.3}}, "day": 2, "month": 10, "livingplace": "Cully"}}, "location": "Murten"}, "Les Traine-Savates, Cheseaux-sur-Lausanne": {"race": "Les Traine-Savates, Cheseaux-sur-Lausanne", "longitude": 6.6047712, "latitude": 46.585452, "date": {"sam. 10.04.2010": {"weekday": "saturday", "year": 2010, "categories": {"Hom Sen": {"pace": 359000000000, "rank": 243, "distance": 10, "time": 3735.6}}, "day": 10, "month": 4, "livingplace": "Cully"}}, "location": "Cheseaux-sur-Lausanne"}, "20km de Lausanne": {"race": "20km de Lausanne", "longitude": 6.6322734, "latitude": 46.5196535, "date": {"sam. 24.04.2010": {"weekday": "saturday", "year": 2010, "categories": {"10-H30": {"pace": 403000000000, "rank": 822, "distance": 10, "time": 4038.1}}, "day": 24, "month": 4, "livingplace": "Cully"}}, "location": "Lausanne"}}, "name": "Penna Rocco Luciano", "birth": 1971}