{"sex": "M", "races": {"Tour du Chablais #5 Leysin": {"race": "Tour du Chablais #5 Leysin", "longitude": 6.931504599999999, "latitude": 46.3603257, "date": {"mer. 05.05.2010": {"weekday": "wednesday", "year": 2010, "categories": {"M-M20": {"pace": 284000000000, "rank": 68, "distance": 8, "time": 2402.2}}, "day": 5, "month": 5, "livingplace": "Blonay"}}, "location": "Roche VD"}, "Tour du Chablais #4 Morgins": {"race": "Tour du Chablais #4 Morgins", "date": {"mer. 18.05.2011": {"weekday": "wednesday", "year": 2011, "categories": {"M-M20": {"pace": 279000000000, "rank": 99, "distance": 8, "time": 2330.2}}, "day": 18, "month": 5, "livingplace": "Blonay"}}, "location": "Les Mosses"}, "Tour du Chablais #4 Yvorne": {"race": "Tour du Chablais #4 Yvorne", "date": {"mer. 28.04.2010": {"weekday": "wednesday", "year": 2010, "categories": {"M-M20": {"pace": 288000000000, "rank": 101, "distance": 8, "time": 2390.9}}, "day": 28, "month": 4, "livingplace": "Blonay"}}, "location": "Les Mosses"}, "Tour du Chablais #1 Roche": {"race": "Tour du Chablais #1 Roche", "longitude": 6.9916269, "latitude": 46.2957462, "date": {"mer. 07.04.2010": {"weekday": "wednesday", "year": 2010, "categories": {"M-M20": {"pace": 264000000000, "rank": 102, "distance": 9, "time": 2365.5}}, "day": 7, "month": 4, "livingplace": "Blonay"}}, "location": "Ollon VD"}, "20km de Lausanne": {"race": "20km de Lausanne", "longitude": 6.6322734, "latitude": 46.5196535, "date": {"sam. 30.04.2011": {"weekday": "saturday", "year": 2011, "categories": {"10-H20": {"pace": 282000000000, "rank": 182, "distance": 10, "time": 2823.9}}, "day": 30, "month": 4, "livingplace": "Merck Serono S.A."}}, "location": "Lausanne"}, "Tour du Chablais #2 St-Gingolph": {"race": "Tour du Chablais #2 St-Gingolph", "longitude": 6.854975199999999, "latitude": 46.3835529, "date": {"mer. 14.04.2010": {"weekday": "wednesday", "year": 2010, "categories": {"M-M20": {"pace": 289000000000, "rank": 89, "distance": 8, "time": 2419.7}}, "day": 14, "month": 4, "livingplace": "Blonay"}}, "location": "Bouveret"}, "Tour du Chablais #5 Les Mosses": {"race": "Tour du Chablais #5 Les Mosses", "longitude": 6.931504599999999, "latitude": 46.3603257, "date": {"mer. 25.05.2011": {"weekday": "wednesday", "year": 2011, "categories": {"M-M20": {"pace": 282000000000, "rank": 99, "distance": 8, "time": 2257.3}}, "day": 25, "month": 5, "livingplace": "Blonay"}}, "location": "Roche VD"}, "Tour du Chablais #1 Lavey": {"race": "Tour du Chablais #1 Lavey", "longitude": 6.9916269, "latitude": 46.2957462, "date": {"mer. 27.04.2011": {"weekday": "wednesday", "year": 2011, "categories": {"M-M20": {"pace": 282000000000, "rank": 135, "distance": 9, "time": 2543.1}}, "day": 27, "month": 4, "livingplace": "Blonay"}}, "location": "Ollon VD"}, "Tour du Chablais #3 Bex": {"race": "Tour du Chablais #3 Bex", "longitude": 7.0223787, "latitude": 46.1782231, "date": {"mer. 21.04.2010": {"weekday": "wednesday", "year": 2010, "categories": {"M-M20": {"pace": 272000000000, "rank": 88, "distance": 10, "time": 2725.9}}, "day": 21, "month": 4, "livingplace": "Blonay"}}, "location": "Evionnaz"}, "Tour du Chablais #3 Le Bouveret": {"race": "Tour du Chablais #3 Le Bouveret", "longitude": 7.0223787, "latitude": 46.1782231, "date": {"mer. 11.05.2011": {"weekday": "wednesday", "year": 2011, "categories": {"M-M20": {"pace": 272000000000, "rank": 142, "distance": 10, "time": 2725.2}}, "day": 11, "month": 5, "livingplace": "Blonay"}}, "location": "Evionnaz"}, "Tour du Chablais #6 Mouthey": {"race": "Tour du Chablais #6 Mouthey", "longitude": 6.970566, "latitude": 46.3190253, "date": {"mer. 12.05.2010": {"weekday": "wednesday", "year": 2010, "categories": {"M-M20": {"pace": 253000000000, "rank": 86, "distance": 9, "time": 2328.9}}, "day": 12, "month": 5, "livingplace": "Blonay"}}, "location": "Aigle"}, "Tour du Chablais #2 Rennaz": {"race": "Tour du Chablais #2 Rennaz", "longitude": 6.854975199999999, "latitude": 46.3835529, "date": {"mer. 04.05.2011": {"weekday": "wednesday", "year": 2011, "categories": {"M-M20": {"pace": 267000000000, "rank": 116, "distance": 9, "time": 2497.8}}, "day": 4, "month": 5, "livingplace": "Blonay"}}, "location": "Bouveret"}}, "name": "Perilleux Arnaud", "birth": 1985}