{"sex": "F", "races": {"Tour du Chablais #5 Les Mosses": {"race": "Tour du Chablais #5 Les Mosses", "longitude": 6.931504599999999, "latitude": 46.3603257, "date": {"mer. 25.05.2011": {"weekday": "wednesday", "year": 2011, "categories": {"F-F20": {"pace": 365000000000, "rank": 73, "distance": 8, "time": 2924.9}}, "day": 25, "month": 5, "livingplace": "Leysin"}}, "location": "Roche VD"}, "Tour du Chablais #1 Lavey": {"race": "Tour du Chablais #1 Lavey", "longitude": 6.9916269, "latitude": 46.2957462, "date": {"mer. 27.04.2011": {"weekday": "wednesday", "year": 2011, "categories": {"F-F20": {"pace": 337000000000, "rank": 66, "distance": 9, "time": 3034.3}}, "day": 27, "month": 4, "livingplace": "Leysin"}}, "location": "Ollon VD"}, "Tour du Chablais #3 Le Bouveret": {"race": "Tour du Chablais #3 Le Bouveret", "longitude": 7.0223787, "latitude": 46.1782231, "date": {"mer. 11.05.2011": {"weekday": "wednesday", "year": 2011, "categories": {"F-F20": {"pace": 323000000000, "rank": 68, "distance": 10, "time": 3239.4}}, "day": 11, "month": 5, "livingplace": "Leysin"}}, "location": "Evionnaz"}, "Tour du Chablais #2 Rennaz": {"race": "Tour du Chablais #2 Rennaz", "longitude": 6.854975199999999, "latitude": 46.3835529, "date": {"mer. 04.05.2011": {"weekday": "wednesday", "year": 2011, "categories": {"F-F20": {"pace": 320000000000, "rank": 55, "distance": 9, "time": 2998.5}}, "day": 4, "month": 5, "livingplace": "Leysin"}}, "location": "Bouveret"}, "Tour du Chablais #6 Aigle": {"race": "Tour du Chablais #6 Aigle", "longitude": 6.970566, "latitude": 46.3190253, "date": {"mer. 01.06.2011": {"weekday": "wednesday", "year": 2011, "categories": {"F-F20": {"pace": 321000000000, "rank": 80, "distance": 10, "time": 3275.8}}, "day": 1, "month": 6, "livingplace": "Leysin"}}, "location": "Aigle"}, "Tour du Chablais #4 Morgins": {"race": "Tour du Chablais #4 Morgins", "date": {"mer. 18.05.2011": {"weekday": "wednesday", "year": 2011, "categories": {"F-F20": {"pace": 351000000000, "rank": 72, "distance": 8, "time": 2935.2}}, "day": 18, "month": 5, "livingplace": "Leysin"}}, "location": "Les Mosses"}, "Tour du Chablais #6 Mouthey": {"race": "Tour du Chablais #6 Mouthey", "longitude": 6.970566, "latitude": 46.3190253, "date": {"mer. 12.05.2010": {"weekday": "wednesday", "year": 2010, "categories": {"F-F20": {"pace": 345000000000, "rank": 91, "distance": 9, "time": 3173.1}}, "day": 12, "month": 5, "livingplace": "Leysin"}}, "location": "Aigle"}}, "name": "Pernet Nataskha", "birth": 1986}