{"sex": "M", "races": {"Corrida Bulloise, Bulle": {"race": "Corrida Bulloise, Bulle", "longitude": 7.057726799999999, "latitude": 46.6154512, "date": {"sam. 19.11.2011": {"weekday": "saturday", "year": 2011, "categories": {"EH": {"pace": 176000000000, "rank": 6, "distance": 8, "time": 1439.2}}, "day": 19, "month": 11, "livingplace": "Au"}, "sam. 17.11.2012": {"weekday": "saturday", "year": 2012, "categories": {"Elite H": {"pace": 174000000000, "rank": 8, "distance": 8, "time": 1420.3}}, "day": 17, "month": 11, "livingplace": "Au"}}, "location": "Bulle"}, "Liestaler Stadtlauf": {"race": "Liestaler Stadtlauf", "longitude": 7.7334272, "latitude": 47.4866143, "date": {"mer. 29.08.2012": {"weekday": "wednesday", "year": 2012, "categories": {"M20": {"pace": 206000000000, "rank": 1, "distance": 12, "time": 2472.7}}, "day": 29, "month": 8, "livingplace": "Munchenstein"}}, "location": "Liestal"}, "Basler Stadtlauf": {"race": "Basler Stadtlauf", "longitude": 7.5885761, "latitude": 47.5595986, "date": {"sam. 24.11.2012": {"weekday": "saturday", "year": 2012, "categories": {"EliteM": {"pace": 173000000000, "rank": 6, "distance": 10, "time": 1648.7}}, "day": 24, "month": 11, "livingplace": "Au"}}, "location": "Basel"}, "ASICS Bremgarter Reusslauf": {"race": "ASICS Bremgarter Reusslauf", "longitude": 8.3397905, "latitude": 47.34917739999999, "date": {"sam. 25.02.2012": {"weekday": "saturday", "year": 2012, "categories": {"M20": {"pace": 177000000000, "rank": 1, "distance": 11, "time": 1947.6}}, "day": 25, "month": 2, "livingplace": "Basel"}, "sam. 23.02.2013": {"weekday": "saturday", "year": 2013, "categories": {"11-M30": {"pace": 182000000000, "rank": 1, "distance": 11, "time": 2011.5}}, "day": 23, "month": 2, "livingplace": "Basel"}}, "location": "Bremgarten AG"}, "Thuner Stadtlauf, Thun": {"race": "Thuner Stadtlauf, Thun", "longitude": 7.6279881, "latitude": 46.7579868, "date": {"dim. 28.08.2011": {"weekday": "sunday", "year": 2011, "categories": {"10-M20": {"pace": 192000000000, "rank": 1, "distance": 10, "time": 1920.9}}, "day": 28, "month": 8, "livingplace": "Basel"}}, "location": "Thun"}, "Lausanne Marathon": {"race": "Lausanne Marathon", "longitude": 6.6322734, "latitude": 46.5196535, "date": {"dim. 28.10.2012": {"weekday": "sunday", "year": 2012, "categories": {"21-H1": {"pace": 191000000000, "rank": 6, "distance": 21, "time": 4037.8}}, "day": 28, "month": 10, "livingplace": "Munchenstein"}}, "location": "Lausanne"}, "crossrun, Therwil": {"race": "crossrun, Therwil", "longitude": 7.5532808, "latitude": 47.4990611, "date": {"dim. 15.08.2010": {"weekday": "sunday", "year": 2010, "categories": {"M20": {"pace": 209000000000, "rank": 1, "distance": 10, "time": 2090.9}}, "day": 15, "month": 8, "livingplace": "Munchenstein"}}, "location": "Therwil"}, "Jungfrau Minirun + Minimarathon, Interlaken": {"race": "Jungfrau Minirun + Minimarathon, Interlaken", "date": {"ven. 10.09.2010": {"weekday": "friday", "year": 2010, "categories": {"M-Meile": {"pace": 170000000000, "rank": 2, "distance": 2, "time": 274.4}}, "day": 10, "month": 9, "livingplace": "Au"}}, "location": "Interlaken"}}, "name": "Perrett Clint", "birth": 1983}