{"sex": "F", "races": {"Tour du Chablais #4 Morgins": {"race": "Tour du Chablais #4 Morgins", "date": {"mer. 18.05.2011": {"weekday": "wednesday", "year": 2011, "categories": {"F-F20": {"pace": 374000000000, "rank": 94, "distance": 8, "time": 3124.7}}, "day": 18, "month": 5, "livingplace": "Monthey"}}, "location": "Les Mosses"}, "Tour du Chablais #4 Yvorne": {"race": "Tour du Chablais #4 Yvorne", "date": {"mer. 28.04.2010": {"weekday": "wednesday", "year": 2010, "categories": {"F-F20": {"pace": 359000000000, "rank": 72, "distance": 8, "time": 2979.7}}, "day": 28, "month": 4, "livingplace": "Monthey"}}, "location": "Les Mosses"}, "Tour du Chablais #1 Roche": {"race": "Tour du Chablais #1 Roche", "longitude": 6.9916269, "latitude": 46.2957462, "date": {"mer. 07.04.2010": {"weekday": "wednesday", "year": 2010, "categories": {"F-F20": {"pace": 329000000000, "rank": 81, "distance": 9, "time": 2946.7}}, "day": 7, "month": 4, "livingplace": "Monthey"}}, "location": "Ollon VD"}, "Morat-Fribourg": {"race": "Morat-Fribourg", "longitude": 7.120184, "latitude": 46.92922110000001, "date": {"sam. 02.10.2010": {"weekday": "saturday", "year": 2010, "categories": {"17-W35": {"pace": 385000000000, "rank": 201, "distance": 17, "time": 6627.1}}, "day": 2, "month": 10, "livingplace": "Monthey"}}, "location": "Murten"}, "Tour du Chablais #6 Aigle": {"race": "Tour du Chablais #6 Aigle", "longitude": 6.970566, "latitude": 46.3190253, "date": {"mer. 01.06.2011": {"weekday": "wednesday", "year": 2011, "categories": {"F-F20": {"pace": 332000000000, "rank": 97, "distance": 10, "time": 3392.5}}, "day": 1, "month": 6, "livingplace": "Monthey"}}, "location": "Aigle"}, "20km de Lausanne": {"race": "20km de Lausanne", "longitude": 6.6322734, "latitude": 46.5196535, "date": {"sam. 24.04.2010": {"weekday": "saturday", "year": 2010, "categories": {"10-F30": {"pace": 353000000000, "rank": 251, "distance": 10, "time": 3539.0}}, "day": 24, "month": 4, "livingplace": "Monthey"}}, "location": "Lausanne"}, "Tour du Chablais #2 St-Gingolph": {"race": "Tour du Chablais #2 St-Gingolph", "longitude": 6.854975199999999, "latitude": 46.3835529, "date": {"mer. 14.04.2010": {"weekday": "wednesday", "year": 2010, "categories": {"F-F20": {"pace": 357000000000, "rank": 66, "distance": 8, "time": 2985.6}}, "day": 14, "month": 4, "livingplace": "Monthey"}}, "location": "Bouveret"}, "Schweizer Frauenlauf Bern": {"race": "Schweizer Frauenlauf Bern", "longitude": 7.4474468, "latitude": 46.9479739, "date": {"dim. 13.06.2010": {"weekday": "sunday", "year": 2010, "categories": {"10-W35": {"pace": 349000000000, "rank": 276, "distance": 10, "time": 3499.0}}, "day": 13, "month": 6, "livingplace": "Monthey"}}, "location": "Bern"}, "Tour du Chablais #5 Les Mosses": {"race": "Tour du Chablais #5 Les Mosses", "longitude": 6.931504599999999, "latitude": 46.3603257, "date": {"mer. 25.05.2011": {"weekday": "wednesday", "year": 2011, "categories": {"F-F20": {"pace": 386000000000, "rank": 91, "distance": 8, "time": 3088.3}}, "day": 25, "month": 5, "livingplace": "Monthey"}}, "location": "Roche VD"}, "Tour du Chablais #1 Lavey": {"race": "Tour du Chablais #1 Lavey", "longitude": 6.9916269, "latitude": 46.2957462, "date": {"mer. 27.04.2011": {"weekday": "wednesday", "year": 2011, "categories": {"F-F20": {"pace": 333000000000, "rank": 64, "distance": 9, "time": 2999.1}}, "day": 27, "month": 4, "livingplace": "Monthey"}}, "location": "Ollon VD"}, "Tour du Chablais #3 Bex": {"race": "Tour du Chablais #3 Bex", "longitude": 7.0223787, "latitude": 46.1782231, "date": {"mer. 21.04.2010": {"weekday": "wednesday", "year": 2010, "categories": {"F-F20": {"pace": 346000000000, "rank": 90, "distance": 10, "time": 3460.8}}, "day": 21, "month": 4, "livingplace": "Monthey"}}, "location": "Evionnaz"}, "Tour du Chablais #3 Le Bouveret": {"race": "Tour du Chablais #3 Le Bouveret", "longitude": 7.0223787, "latitude": 46.1782231, "date": {"mer. 11.05.2011": {"weekday": "wednesday", "year": 2011, "categories": {"F-F20": {"pace": 354000000000, "rank": 100, "distance": 10, "time": 3544.7}}, "day": 11, "month": 5, "livingplace": "Monthey"}}, "location": "Evionnaz"}, "Tour du Chablais #2 Rennaz": {"race": "Tour du Chablais #2 Rennaz", "longitude": 6.854975199999999, "latitude": 46.3835529, "date": {"mer. 04.05.2011": {"weekday": "wednesday", "year": 2011, "categories": {"F-F20": {"pace": 339000000000, "rank": 81, "distance": 9, "time": 3175.3}}, "day": 4, "month": 5, "livingplace": "Monthey"}}, "location": "Bouveret"}}, "name": "Perrier Nadine", "birth": 1975}