{"sex": "M", "races": {"Tour du Chablais #4 Champ\u00e9ry": {"race": "Tour du Chablais #4 Champ\u00e9ry", "date": {"mer. 02.05.2012": {"weekday": "wednesday", "year": 2012, "categories": {"M-M20": {"pace": 210000000000, "rank": 9, "distance": 8, "time": 1750.3}}, "day": 2, "month": 5, "livingplace": "Monthey"}}, "location": "Les Mosses"}, "10km de Payerne": {"race": "10km de Payerne", "longitude": 6.9405663, "latitude": 46.8220266, "date": {"sam. 28.03.2009": {"weekday": "saturday", "year": 2009, "categories": {"M Elite": {"pace": 210000000000, "rank": 35, "distance": 10, "time": 2101.7}}, "day": 28, "month": 3, "livingplace": "Monthey"}}, "location": "Payerne"}, "Tour du Chablais #2 Yvorne": {"race": "Tour du Chablais #2 Yvorne", "longitude": 6.854975199999999, "latitude": 46.3835529, "date": {"mer. 10.04.2013": {"weekday": "wednesday", "year": 2013, "categories": {"M-M20": {"pace": 227000000000, "rank": 8, "distance": 8, "time": 1816.2}}, "day": 10, "month": 4, "livingplace": "Monthey"}}, "location": "Bouveret"}, "Tour du Chablais #4 Yvorne": {"race": "Tour du Chablais #4 Yvorne", "date": {"mer. 28.04.2010": {"weekday": "wednesday", "year": 2010, "categories": {"M-M20": {"pace": 216000000000, "rank": 6, "distance": 8, "time": 1795.6}}, "day": 28, "month": 4, "livingplace": "Monthey"}}, "location": "Les Mosses"}, "Tour du Chablais #5 Leysin": {"race": "Tour du Chablais #5 Leysin", "longitude": 6.931504599999999, "latitude": 46.3603257, "date": {"mer. 05.05.2010": {"weekday": "wednesday", "year": 2010, "categories": {"M-M20": {"pace": 225000000000, "rank": 7, "distance": 8, "time": 1901.6}}, "day": 5, "month": 5, "livingplace": "Monthey"}}, "location": "Roche VD"}, "Tour du Chablais #1 Roche": {"race": "Tour du Chablais #1 Roche", "longitude": 6.9916269, "latitude": 46.2957462, "date": {"mer. 07.04.2010": {"weekday": "wednesday", "year": 2010, "categories": {"M-M20": {"pace": 205000000000, "rank": 7, "distance": 9, "time": 1836.2}}, "day": 7, "month": 4, "livingplace": "Monthey"}}, "location": "Ollon VD"}, "Kerzerslauf": {"race": "Kerzerslauf", "longitude": 7.1954365, "latitude": 46.97488999999999, "date": {"sam. 17.03.2012": {"weekday": "saturday", "year": 2012, "categories": {"15-M20": {"pace": 224000000000, "rank": 44, "distance": 15, "time": 3361.9}}, "day": 17, "month": 3, "livingplace": "Monthey"}}, "location": "Kerzers"}, "Tour du Chablais #5 Bex": {"race": "Tour du Chablais #5 Bex", "longitude": 6.931504599999999, "latitude": 46.3603257, "date": {"mer. 09.05.2012": {"weekday": "wednesday", "year": 2012, "categories": {"M-M20": {"pace": 206000000000, "rank": 9, "distance": 9, "time": 1833.1}}, "day": 9, "month": 5, "livingplace": "Monthey"}}, "location": "Roche VD"}, "Montreux - Les Rochers de Naye": {"race": "Montreux - Les Rochers de Naye", "longitude": 6.9106799, "latitude": 46.4312213, "date": {"dim. 05.07.2015": {"weekday": "sunday", "year": 2015, "categories": {"M-HElite": {"pace": 364000000000, "rank": 22, "distance": 19, "time": 6858.3}}, "day": 5, "month": 7, "livingplace": "Monthey"}}, "location": "Montreux"}, "20km de Lausanne": {"race": "20km de Lausanne", "longitude": 6.6322734, "latitude": 46.5196535, "date": {"sam. 25.04.2009": {"weekday": "saturday", "year": 2009, "categories": {"20-H20": {"pace": 222000000000, "rank": 13, "distance": 20, "time": 4450.4}}, "day": 25, "month": 4, "livingplace": "Monthey"}, "sam. 30.04.2011": {"weekday": "saturday", "year": 2011, "categories": {"20-H30": {"pace": 220000000000, "rank": 13, "distance": 20, "time": 4406.9}}, "day": 30, "month": 4, "livingplace": "Monthey"}}, "location": "Lausanne"}, "Tour du Chablais #6 Mouthey": {"race": "Tour du Chablais #6 Mouthey", "longitude": 6.970566, "latitude": 46.3190253, "date": {"mer. 12.05.2010": {"weekday": "wednesday", "year": 2010, "categories": {"M-M20": {"pace": 206000000000, "rank": 14, "distance": 9, "time": 1896.4}}, "day": 12, "month": 5, "livingplace": "Monthey"}}, "location": "Aigle"}, "Tour du Chablais #5 Morgins": {"race": "Tour du Chablais #5 Morgins", "longitude": 6.931504599999999, "latitude": 46.3603257, "date": {"mer. 01.05.2013": {"weekday": "wednesday", "year": 2013, "categories": {"M-M20": {"pace": 221000000000, "rank": 9, "distance": 8, "time": 1683.4}}, "day": 1, "month": 5, "livingplace": "Monthey"}}, "location": "Roche VD"}, "Glacier 3000 Run, Gstaad": {"race": "Glacier 3000 Run, Gstaad", "longitude": 7.2865728, "latitude": 46.4717588, "date": {"sam. 10.08.2013": {"weekday": "saturday", "year": 2013, "categories": {"M30": {"pace": 422000000000, "rank": 19, "distance": 26, "time": 10979.8}}, "day": 10, "month": 8, "livingplace": "Monthey"}}, "location": "Gstaad"}, "Zermatt Marathon, Zermatt": {"race": "Zermatt Marathon, Zermatt", "date": {"sam. 06.07.2013": {"weekday": "saturday", "year": 2013, "categories": {"M-M30": {"pace": 357000000000, "rank": 19, "distance": 42, "time": 15085.4}}, "day": 6, "month": 7, "livingplace": "Monthey"}}, "location": "Zermatt"}, "Les Traine-Savates, Cheseaux-sur-Lausanne": {"race": "Les Traine-Savates, Cheseaux-sur-Lausanne", "longitude": 6.6047712, "latitude": 46.585452, "date": {"sam. 09.04.2011": {"weekday": "saturday", "year": 2011, "categories": {"10-M20": {"pace": 213000000000, "rank": 10, "distance": 10, "time": 2218.0}}, "day": 9, "month": 4, "livingplace": "Monthey"}}, "location": "Cheseaux-sur-Lausanne"}, "Sierre-Zinal, Sierre": {"race": "Sierre-Zinal, Sierre", "longitude": 7.533536199999999, "latitude": 46.29413110000001, "date": {"dim. 12.08.2012": {"weekday": "sunday", "year": 2012, "categories": {"Elites": {"pace": 379000000000, "rank": 70, "distance": 31, "time": 11757.4}}, "day": 12, "month": 8, "livingplace": "Monthey"}}, "location": "Sierre"}, "Tour du Chablais #3 Bex": {"race": "Tour du Chablais #3 Bex", "longitude": 7.0223787, "latitude": 46.1782231, "date": {"mer. 21.04.2010": {"weekday": "wednesday", "year": 2010, "categories": {"M-M20": {"pace": 211000000000, "rank": 8, "distance": 10, "time": 2114.8}}, "day": 21, "month": 4, "livingplace": "Monthey"}}, "location": "Evionnaz"}, "Tour du Chablais #3 Le Bouveret": {"race": "Tour du Chablais #3 Le Bouveret", "longitude": 7.0223787, "latitude": 46.1782231, "date": {"mer. 11.05.2011": {"weekday": "wednesday", "year": 2011, "categories": {"M-M20": {"pace": 211000000000, "rank": 12, "distance": 10, "time": 2111.2}}, "day": 11, "month": 5, "livingplace": "Monthey"}}, "location": "Evionnaz"}, "Tour du Chablais #2 St-Gingolph": {"race": "Tour du Chablais #2 St-Gingolph", "longitude": 6.854975199999999, "latitude": 46.3835529, "date": {"mer. 14.04.2010": {"weekday": "wednesday", "year": 2010, "categories": {"M-M20": {"pace": 219000000000, "rank": 7, "distance": 8, "time": 1829.4}}, "day": 14, "month": 4, "livingplace": "Monthey"}}, "location": "Bouveret"}, "Lausanne Marathon": {"race": "Lausanne Marathon", "longitude": 6.6322734, "latitude": 46.5196535, "date": {"dim. 31.10.2010": {"weekday": "sunday", "year": 2010, "categories": {"21-H1": {"pace": 223000000000, "rank": 14, "distance": 21, "time": 4718.6}}, "day": 31, "month": 10, "livingplace": "Monthey"}}, "location": "Lausanne"}}, "name": "Perrier Nicolas", "birth": 1981}