{"sex": "M", "races": {"Tour du Chablais #1 Montreux": {"race": "Tour du Chablais #1 Montreux", "longitude": 6.9916269, "latitude": 46.2957462, "date": {"mer. 11.04.2012": {"weekday": "wednesday", "year": 2012, "categories": {"M-M20": {"pace": 293000000000, "rank": 124, "distance": 8, "time": 2232.2}}, "day": 11, "month": 4, "livingplace": "Monthey"}}, "location": "Ollon VD"}, "Tour du Chablais #2 Yvorne": {"race": "Tour du Chablais #2 Yvorne", "longitude": 6.854975199999999, "latitude": 46.3835529, "date": {"mer. 10.04.2013": {"weekday": "wednesday", "year": 2013, "categories": {"M-M20": {"pace": 319000000000, "rank": 165, "distance": 8, "time": 2554.2}}, "day": 10, "month": 4, "livingplace": "Monthey"}}, "location": "Bouveret"}, "Tour du Chablais #6 Monthey": {"race": "Tour du Chablais #6 Monthey", "longitude": 6.970566, "latitude": 46.3190253, "date": {"mer. 08.05.2013": {"weekday": "wednesday", "year": 2013, "categories": {"M-M20": {"pace": 269000000000, "rank": 113, "distance": 9, "time": 2510.8}}, "day": 8, "month": 5, "livingplace": "Monthey"}}, "location": "Aigle"}, "Tour du Chablais #2 Bex": {"race": "Tour du Chablais #2 Bex", "longitude": 6.854975199999999, "latitude": 46.3835529, "date": {"mer. 18.04.2012": {"weekday": "wednesday", "year": 2012, "categories": {"M-M20": {"pace": 297000000000, "rank": 150, "distance": 8, "time": 2379.6}}, "day": 18, "month": 4, "livingplace": "Monthey"}}, "location": "Bouveret"}, "Tour du Chablais #1 Roche": {"race": "Tour du Chablais #1 Roche", "longitude": 6.9916269, "latitude": 46.2957462, "date": {"mer. 03.04.2013": {"weekday": "wednesday", "year": 2013, "categories": {"M-M20": {"pace": 284000000000, "rank": 141, "distance": 9, "time": 2519.5}}, "day": 3, "month": 4, "livingplace": "Monthey"}}, "location": "Ollon VD"}, "Tour du Chablais #1 Martigny": {"race": "Tour du Chablais #1 Martigny", "longitude": 6.9916269, "latitude": 46.2957462, "date": {"mer. 23.04.2014": {"weekday": "wednesday", "year": 2014, "categories": {"M-M20": {"pace": 269000000000, "rank": 122, "distance": 9, "time": 2291.3}}, "day": 23, "month": 4, "livingplace": "Monthey"}}, "location": "Ollon VD"}, "Tour du Chablais #6 Montreux": {"race": "Tour du Chablais #6 Montreux", "longitude": 6.970566, "latitude": 46.3190253, "date": {"mer. 16.05.2012": {"weekday": "wednesday", "year": 2012, "categories": {"M-M20": {"pace": 274000000000, "rank": 130, "distance": 9, "time": 2540.9}}, "day": 16, "month": 5, "livingplace": "Monthey"}}, "location": "Aigle"}, "Tour du Chablais #6 Aigle": {"race": "Tour du Chablais #6 Aigle", "longitude": 6.970566, "latitude": 46.3190253, "date": {"mer. 01.06.2011": {"weekday": "wednesday", "year": 2011, "categories": {"M-M20": {"pace": 271000000000, "rank": 130, "distance": 10, "time": 2765.3}}, "day": 1, "month": 6, "livingplace": "Monthey"}}, "location": "Aigle"}, "Tour du Chablais #4 Champ\u00e9ry": {"race": "Tour du Chablais #4 Champ\u00e9ry", "date": {"mer. 02.05.2012": {"weekday": "wednesday", "year": 2012, "categories": {"M-M20": {"pace": 284000000000, "rank": 128, "distance": 8, "time": 2362.4}}, "day": 2, "month": 5, "livingplace": "Monthey"}}, "location": "Les Mosses"}, "Tour du Chablais #5 Les Mosses": {"race": "Tour du Chablais #5 Les Mosses", "longitude": 6.931504599999999, "latitude": 46.3603257, "date": {"mer. 25.05.2011": {"weekday": "wednesday", "year": 2011, "categories": {"M-M20": {"pace": 309000000000, "rank": 148, "distance": 8, "time": 2475.5}}, "day": 25, "month": 5, "livingplace": "Monthey"}}, "location": "Roche VD"}, "Tour du Chablais #1 Lavey": {"race": "Tour du Chablais #1 Lavey", "longitude": 6.9916269, "latitude": 46.2957462, "date": {"mer. 27.04.2011": {"weekday": "wednesday", "year": 2011, "categories": {"M-M20": {"pace": 284000000000, "rank": 144, "distance": 9, "time": 2564.1}}, "day": 27, "month": 4, "livingplace": "Monthey"}}, "location": "Ollon VD"}, "Tour du Chablais #5 Morgins": {"race": "Tour du Chablais #5 Morgins", "longitude": 6.931504599999999, "latitude": 46.3603257, "date": {"mer. 01.05.2013": {"weekday": "wednesday", "year": 2013, "categories": {"M-M20": {"pace": 289000000000, "rank": 113, "distance": 8, "time": 2203.5}}, "day": 1, "month": 5, "livingplace": "Monthey"}}, "location": "Roche VD"}, "Tour du Chablais #3 Le Bouveret": {"race": "Tour du Chablais #3 Le Bouveret", "longitude": 7.0223787, "latitude": 46.1782231, "date": {"mer. 11.05.2011": {"weekday": "wednesday", "year": 2011, "categories": {"M-M20": {"pace": 272000000000, "rank": 144, "distance": 10, "time": 2727.9}}, "day": 11, "month": 5, "livingplace": "Monthey"}}, "location": "Evionnaz"}, "Tour du Chablais #3 Collombey-Muraz": {"race": "Tour du Chablais #3 Collombey-Muraz", "longitude": 7.0223787, "latitude": 46.1782231, "date": {"mer. 25.04.2012": {"weekday": "wednesday", "year": 2012, "categories": {"M-M20": {"pace": 282000000000, "rank": 120, "distance": 9, "time": 2536.0}}, "day": 25, "month": 4, "livingplace": "Monthey"}}, "location": "Evionnaz"}, "Tour du Chablais #4 St  Maurice": {"race": "Tour du Chablais #4 St  Maurice", "date": {"mer. 24.04.2013": {"weekday": "wednesday", "year": 2013, "categories": {"M-M20": {"pace": 295000000000, "rank": 152, "distance": 10, "time": 2952.6}}, "day": 24, "month": 4, "livingplace": "Monthey"}}, "location": "Les Mosses"}, "Tour du Chablais #2 Rennaz": {"race": "Tour du Chablais #2 Rennaz", "longitude": 6.854975199999999, "latitude": 46.3835529, "date": {"mer. 04.05.2011": {"weekday": "wednesday", "year": 2011, "categories": {"M-M20": {"pace": 265000000000, "rank": 112, "distance": 9, "time": 2485.3}}, "day": 4, "month": 5, "livingplace": "Monthey"}}, "location": "Bouveret"}}, "name": "Perrin David", "birth": 1980}