{"sex": "F", "races": {"Tour du Pays de Vaud #3 - Chavornay": {"race": "Tour du Pays de Vaud #3 - Chavornay", "longitude": 6.641183, "latitude": 46.7784736, "date": {"mer. 28.08.2013": {"weekday": "wednesday", "year": 2013, "categories": {"D-Sen3": {"pace": 287000000000, "rank": 3, "distance": 9, "time": 2559.3}}, "day": 28, "month": 8, "livingplace": "Daillens"}}, "location": "Yverdon-les-Bains"}, "Tour du Pays de Vaud #3, Chavornay": {"race": "Tour du Pays de Vaud #3, Chavornay", "longitude": 6.641183, "latitude": 46.7784736, "date": {"mer. 27.08.2014": {"weekday": "wednesday", "year": 2014, "categories": {"D-Sen3": {"pace": 310000000000, "rank": 3, "distance": 9, "time": 2671.6}}, "day": 27, "month": 8, "livingplace": "Daillens"}}, "location": "Yverdon-les-Bains"}, "Tour du Chablais #1 Lavey": {"race": "Tour du Chablais #1 Lavey", "longitude": 6.9916269, "latitude": 46.2957462, "date": {"mer. 27.04.2011": {"weekday": "wednesday", "year": 2011, "categories": {"F-F40": {"pace": 298000000000, "rank": 22, "distance": 9, "time": 2684.4}}, "day": 27, "month": 4, "livingplace": "Daillens"}}, "location": "Ollon VD"}, "Tour du Pays de Vaud #4 - La Sarraz": {"race": "Tour du Pays de Vaud #4 - La Sarraz", "longitude": 6.5707689, "latitude": 46.7088129, "date": {"mer. 29.08.2012": {"weekday": "wednesday", "year": 2012, "categories": {"D-Sen3": {"pace": 297000000000, "rank": 8, "distance": 9, "time": 2526.8}}, "day": 29, "month": 8, "livingplace": "Daillens"}}, "location": "Chavornay"}, "Morat-Fribourg": {"race": "Morat-Fribourg", "longitude": 7.120184, "latitude": 46.92922110000001, "date": {"dim. 06.10.2002": {"weekday": "sunday", "year": 2002, "categories": {"W40": {"pace": 298000000000, "rank": 25, "distance": 17, "time": 5126.7}}, "day": 6, "month": 10, "livingplace": "Renens"}}, "location": "Murten"}, "Jungfrau-Marathon, Interlaken": {"race": "Jungfrau-Marathon, Interlaken", "date": {"sam. 08.09.2007": {"weekday": "saturday", "year": 2007, "categories": {"F45": {"pace": 450000000000, "rank": 56, "distance": 42, "time": 19011.5}}, "day": 8, "month": 9, "livingplace": "Daillens"}}, "location": "Interlaken"}, "20km de Lausanne": {"race": "20km de Lausanne", "longitude": 6.6322734, "latitude": 46.5196535, "date": {"sam. 30.04.2011": {"weekday": "saturday", "year": 2011, "categories": {"10-F45": {"pace": 294000000000, "rank": 11, "distance": 10, "time": 2942.0}}, "day": 30, "month": 4, "livingplace": "Daillens"}}, "location": "Lausanne"}, "Les Traine-Savates, Cheseaux-sur-Lausanne": {"race": "Les Traine-Savates, Cheseaux-sur-Lausanne", "longitude": 6.6047712, "latitude": 46.585452, "date": {"sam. 13.04.2013": {"weekday": "saturday", "year": 2013, "categories": {"10-W50": {"pace": 293000000000, "rank": 10, "distance": 10, "time": 3024.8}}, "day": 13, "month": 4, "livingplace": "Daillens"}, "sam. 14.04.2012": {"weekday": "saturday", "year": 2012, "categories": {"10-W50": {"pace": 290000000000, "rank": 9, "distance": 10, "time": 3023.8}}, "day": 14, "month": 4, "livingplace": "Daillens"}, "sam. 09.04.2011": {"weekday": "saturday", "year": 2011, "categories": {"10-W40": {"pace": 296000000000, "rank": 22, "distance": 10, "time": 3083.3}}, "day": 9, "month": 4, "livingplace": "Daillens"}}, "location": "Cheseaux-sur-Lausanne"}}, "name": "Persoz Florence", "birth": 1962}