{"sex": "M", "races": {"Tour du Chablais #5 Morgins": {"race": "Tour du Chablais #5 Morgins", "longitude": 6.931504599999999, "latitude": 46.3603257, "date": {"mer. 01.05.2013": {"weekday": "wednesday", "year": 2013, "categories": {"M-M20": {"pace": 274000000000, "rank": 81, "distance": 8, "time": 2086.7}}, "day": 1, "month": 5, "livingplace": "Aigle"}}, "location": "Roche VD"}, "Tour du Chablais #2 Yvorne": {"race": "Tour du Chablais #2 Yvorne", "longitude": 6.854975199999999, "latitude": 46.3835529, "date": {"mer. 10.04.2013": {"weekday": "wednesday", "year": 2013, "categories": {"M-M20": {"pace": 303000000000, "rank": 138, "distance": 8, "time": 2428.4}}, "day": 10, "month": 4, "livingplace": "Aigle"}}, "location": "Bouveret"}, "Tour du Chablais #4 St  Maurice": {"race": "Tour du Chablais #4 St  Maurice", "date": {"mer. 24.04.2013": {"weekday": "wednesday", "year": 2013, "categories": {"M-M20": {"pace": 283000000000, "rank": 127, "distance": 10, "time": 2832.9}}, "day": 24, "month": 4, "livingplace": "Aigle"}}, "location": "Les Mosses"}, "Tour du Chablais #6 Monthey": {"race": "Tour du Chablais #6 Monthey", "longitude": 6.970566, "latitude": 46.3190253, "date": {"mer. 08.05.2013": {"weekday": "wednesday", "year": 2013, "categories": {"M-M20": {"pace": 254000000000, "rank": 77, "distance": 9, "time": 2370.6}}, "day": 8, "month": 5, "livingplace": "Aigle"}}, "location": "Aigle"}, "Tour du Chablais #3 Bouveret": {"race": "Tour du Chablais #3 Bouveret", "longitude": 7.0223787, "latitude": 46.1782231, "date": {"mer. 17.04.2013": {"weekday": "wednesday", "year": 2013, "categories": {"M-M20": {"pace": 271000000000, "rank": 107, "distance": 10, "time": 2719.8}}, "day": 17, "month": 4, "livingplace": "Aigle"}}, "location": "Evionnaz"}, "Tour du Chablais #1 Roche": {"race": "Tour du Chablais #1 Roche", "longitude": 6.9916269, "latitude": 46.2957462, "date": {"mer. 03.04.2013": {"weekday": "wednesday", "year": 2013, "categories": {"M-M20": {"pace": 265000000000, "rank": 102, "distance": 9, "time": 2355.6}}, "day": 3, "month": 4, "livingplace": "Aigle"}}, "location": "Ollon VD"}, "Tour du Chablais #1 Martigny": {"race": "Tour du Chablais #1 Martigny", "longitude": 6.9916269, "latitude": 46.2957462, "date": {"mer. 23.04.2014": {"weekday": "wednesday", "year": 2014, "categories": {"M-M20": {"pace": 295000000000, "rank": 186, "distance": 9, "time": 2511.0}}, "day": 23, "month": 4, "livingplace": "Aigle"}}, "location": "Ollon VD"}, "Lausanne Marathon": {"race": "Lausanne Marathon", "longitude": 6.6322734, "latitude": 46.5196535, "date": {"dim. 26.10.2014": {"weekday": "sunday", "year": 2014, "categories": {"21-H20": {"pace": 316000000000, "rank": 384, "distance": 21, "time": 6674.1}}, "day": 26, "month": 10, "livingplace": "Aigle"}, "sam. 24.10.2015": {"weekday": "saturday", "year": 2015, "categories": {"21-H20": {"pace": 313000000000, "rank": 336, "distance": 21, "time": 6619.8}}, "day": 24, "month": 10, "livingplace": "Aigle"}}, "location": "Lausanne"}, "20km de Lausanne": {"race": "20km de Lausanne", "longitude": 6.6322734, "latitude": 46.5196535, "date": {"sam. 25.04.2015": {"weekday": "saturday", "year": 2015, "categories": {"10-H20": {"pace": 269000000000, "rank": 237, "distance": 10, "time": 2691.2}}, "day": 25, "month": 4, "livingplace": "Aigle"}, "sam. 27.04.2013": {"weekday": "saturday", "year": 2013, "categories": {"10-H20": {"pace": 273000000000, "rank": 195, "distance": 10, "time": 2730.9}}, "day": 27, "month": 4, "livingplace": "Aigle"}, "sam. 26.04.2014": {"weekday": "saturday", "year": 2014, "categories": {"10-H20": {"pace": 294000000000, "rank": 330, "distance": 10, "time": 2942.4}}, "day": 26, "month": 4, "livingplace": "Aigle"}}, "location": "Lausanne"}}, "name": "Pesse Florent", "birth": 1990}