{"sex": "M", "races": {"Basler Stadtlauf": {"race": "Basler Stadtlauf", "longitude": 7.5885761, "latitude": 47.5595986, "date": {"sam. 27.11.2004": {"weekday": "saturday", "year": 2004, "categories": {"M": {"pace": 282000000000, "rank": 327, "distance": 6, "time": 1555.0}}, "day": 27, "month": 11, "livingplace": "Basel"}}, "location": "Basel"}, "Zermatt Marathon, Zermatt": {"race": "Zermatt Marathon, Zermatt", "date": {"sam. 04.07.2015": {"weekday": "saturday", "year": 2015, "categories": {"H-M45": {"pace": 432000000000, "rank": 7, "distance": 21, "time": 9130.7}}, "day": 4, "month": 7, "livingplace": "Basel"}}, "location": "Zermatt"}, "Bieler Lauftage, Biel Bienne": {"race": "Bieler Lauftage, Biel Bienne", "longitude": 7.2467909, "latitude": 47.1367785, "date": {"ven. 15.06.2007": {"weekday": "friday", "year": 2007, "categories": {"H/M35": {"pace": 277000000000, "rank": 9, "distance": 21, "time": 5845.0}}, "day": 15, "month": 6, "livingplace": "Basel"}}, "location": "Biel/Bienne"}, "Birslauf (Herbst), Basel": {"race": "Birslauf (Herbst), Basel", "longitude": 7.5885761, "latitude": 47.5595986, "date": {"sam. 08.09.2007": {"weekday": "saturday", "year": 2007, "categories": {"M": {"pace": 252000000000, "rank": 87, "distance": 10, "time": 2522.7}}, "day": 8, "month": 9, "livingplace": "Basel"}}, "location": "Basel"}, "Z\u00fcrich Marathon, Teamrun und Cityrun": {"race": "Z\u00fcrich Marathon, Teamrun und Cityrun", "longitude": 8.541694, "latitude": 47.3768866, "date": {"dim. 03.04.2005": {"weekday": "sunday", "year": 2005, "categories": {"M30": {"pace": 316000000000, "rank": 868, "distance": 42, "time": 13346.7}}, "day": 3, "month": 4, "livingplace": "Basel"}, "dim. 04.04.2004": {"weekday": "sunday", "year": 2004, "categories": {"M30": {"pace": 322000000000, "rank": 1011, "distance": 42, "time": 13589.3}}, "day": 4, "month": 4, "livingplace": "Riehen"}}, "location": "Z\u00fcrich"}, "Morat-Fribourg": {"race": "Morat-Fribourg", "longitude": 7.120184, "latitude": 46.92922110000001, "date": {"dim. 06.10.2002": {"weekday": "sunday", "year": 2002, "categories": {"M20": {"pace": 292000000000, "rank": 1110, "distance": 17, "time": 5017.2}}, "day": 6, "month": 10, "livingplace": "Riehen"}}, "location": "Murten"}, "Basler Marathon-Tage": {"race": "Basler Marathon-Tage", "longitude": 7.5885761, "latitude": 47.5595986, "date": {"sam. 27.10.2007": {"weekday": "saturday", "year": 2007, "categories": {"HM/M30": {"pace": 252000000000, "rank": 25, "distance": 21, "time": 5321.5}}, "day": 27, "month": 10, "livingplace": "Basel"}}, "location": "Basel"}, "20km de Lausanne": {"race": "20km de Lausanne", "longitude": 6.6322734, "latitude": 46.5196535, "date": {"sam. 26.04.2003": {"weekday": "saturday", "year": 2003, "categories": {"11": {"pace": 297000000000, "rank": 558, "distance": 20, "time": 5947.0}}, "day": 26, "month": 4, "livingplace": "Riehen"}}, "location": "Lausanne"}}, "name": "Pfister Dominique", "birth": 1968}