{"sex": "M", "races": {"BCN Tour #4 Fleurier": {"race": "BCN Tour #4 Fleurier", "longitude": 6.832783800000001, "latitude": 47.1034892, "date": {"mer. 15.05.2013": {"weekday": "wednesday", "year": 2013, "categories": {"HS2": {"pace": 224000000000, "rank": 5, "distance": 9, "time": 1942.9}}, "day": 15, "month": 5, "livingplace": "Bevaix"}}, "location": "La Chaux-de-Fonds"}, "Tour du Pays de Vaud #5 - La Sarraz": {"race": "Tour du Pays de Vaud #5 - La Sarraz", "longitude": 6.539251200000001, "latitude": 46.5993131, "date": {"mer. 08.09.2010": {"weekday": "wednesday", "year": 2010, "categories": {"HSen2": {"pace": 217000000000, "rank": 1, "distance": 9, "time": 1976.7}}, "day": 8, "month": 9, "livingplace": "Bevaix"}}, "location": "Penthaz"}, "BCN Tour La Chaux-de-Fonds": {"race": "BCN Tour La Chaux-de-Fonds", "longitude": 6.832783800000001, "latitude": 47.1034892, "date": {"mer. 11.05.2011": {"weekday": "wednesday", "year": 2011, "categories": {"HS2": {"pace": 262000000000, "rank": 8, "distance": 11, "time": 2812.3}}, "day": 11, "month": 5, "livingplace": "Bevaix"}, "mer. 23.05.2012": {"weekday": "wednesday", "year": 2012, "categories": {"HS2": {"pace": 236000000000, "rank": 11, "distance": 11, "time": 2557.1}}, "day": 23, "month": 5, "livingplace": "Bevaix"}}, "location": "La Chaux-de-Fonds"}, "Course p\u00e9destre Thyon-Dixence, Thyon": {"race": "Course p\u00e9destre Thyon-Dixence, Thyon", "date": {"dim. 02.08.2015": {"weekday": "sunday", "year": 2015, "categories": {"V\u00e9ter 1": {"pace": 342000000000, "rank": 12, "distance": 16, "time": 5595.4}}, "day": 2, "month": 8, "livingplace": "Bevaix"}, "dim. 05.08.2012": {"weekday": "sunday", "year": 2012, "categories": {"V\u00e9ter 1": {"pace": 340000000000, "rank": 7, "distance": 16, "time": 5565.9}}, "day": 5, "month": 8, "livingplace": "Bevaix"}, "dim. 03.08.2014": {"weekday": "sunday", "year": 2014, "categories": {"V\u00e9ter 1": {"pace": 339000000000, "rank": 10, "distance": 16, "time": 5552.6}}, "day": 3, "month": 8, "livingplace": "Bevaix"}, "dim. 04.08.2013": {"weekday": "sunday", "year": 2013, "categories": {"V\u00e9ter 1": {"pace": 332000000000, "rank": 12, "distance": 16, "time": 5443.8}}, "day": 4, "month": 8, "livingplace": "Bevaix"}, "dim. 01.08.2010": {"weekday": "sunday", "year": 2010, "categories": {"V1": {"pace": 346000000000, "rank": 10, "distance": 16, "time": 5659.1}}, "day": 1, "month": 8, "livingplace": "Bevaix"}}, "location": "Thyon-Les Collons"}, "BCN Tour #3 Dombresson": {"race": "BCN Tour #3 Dombresson", "longitude": 6.733554799999999, "latitude": 46.999113, "date": {"mer. 08.05.2013": {"weekday": "wednesday", "year": 2013, "categories": {"HS2": {"pace": 223000000000, "rank": 11, "distance": 10, "time": 2211.7}}, "day": 8, "month": 5, "livingplace": "Bevaix"}}, "location": "Les Ponts-de-Martel"}, "Tour du Pays de Vaud etape 5 - La Sarraz": {"race": "Tour du Pays de Vaud etape 5 - La Sarraz", "longitude": 6.539251200000001, "latitude": 46.5993131, "date": {"mer. 09.09.2009": {"weekday": "wednesday", "year": 2009, "categories": {"HS1": {"pace": 213000000000, "rank": 7, "distance": 9, "time": 1790.0}}, "day": 9, "month": 9, "livingplace": "Bevaix"}}, "location": "Penthaz"}, "BCN Tour Couvet": {"race": "BCN Tour Couvet", "longitude": 6.9175754, "latitude": 47.0624261, "date": {"mer. 02.05.2012": {"weekday": "wednesday", "year": 2012, "categories": {"HS2": {"pace": 231000000000, "rank": 5, "distance": 11, "time": 2581.8}}, "day": 2, "month": 5, "livingplace": "Bevaix"}}, "location": "Ch\u00e9zard-St-Martin"}, "Kerzerslauf": {"race": "Kerzerslauf", "longitude": 7.1954365, "latitude": 46.97488999999999, "date": {"sam. 20.03.2004": {"weekday": "saturday", "year": 2004, "categories": {"M20": {"pace": 245000000000, "rank": 162, "distance": 15, "time": 3677.6}}, "day": 20, "month": 3, "livingplace": "Bevaix"}, "sam. 19.03.2011": {"weekday": "saturday", "year": 2011, "categories": {"15-M40": {"pace": 225000000000, "rank": 22, "distance": 15, "time": 3377.6}}, "day": 19, "month": 3, "livingplace": "Bevaix"}, "sam. 15.03.2008": {"weekday": "saturday", "year": 2008, "categories": {"15/M35": {"pace": 233000000000, "rank": 41, "distance": 15, "time": 3496.0}}, "day": 15, "month": 3, "livingplace": "Bevaix"}, "sam. 17.03.2007": {"weekday": "saturday", "year": 2007, "categories": {"M35": {"pace": 229000000000, "rank": 43, "distance": 15, "time": 3443.5}}, "day": 17, "month": 3, "livingplace": "Bevaix"}, "sam. 18.03.2006": {"weekday": "saturday", "year": 2006, "categories": {"M35": {"pace": 224000000000, "rank": 20, "distance": 15, "time": 3372.7}}, "day": 18, "month": 3, "livingplace": "Bevaix"}, "sam. 20.03.2010": {"weekday": "saturday", "year": 2010, "categories": {"15-M40": {"pace": 222000000000, "rank": 11, "distance": 15, "time": 3331.8}}, "day": 20, "month": 3, "livingplace": "Bevaix"}, "sam. 19.03.2005": {"weekday": "saturday", "year": 2005, "categories": {"M35": {"pace": 242000000000, "rank": 48, "distance": 15, "time": 3637.8}}, "day": 19, "month": 3, "livingplace": "Bevaix"}}, "location": "Kerzers"}, "BCN Tour #6 Neuch\u00e2tel": {"race": "BCN Tour #6 Neuch\u00e2tel", "longitude": 6.9292732, "latitude": 46.9899874, "date": {"mer. 29.05.2013": {"weekday": "wednesday", "year": 2013, "categories": {"HS2": {"pace": 231000000000, "rank": 7, "distance": 11, "time": 2551.6}}, "day": 29, "month": 5, "livingplace": "Bevaix"}}, "location": "Neuch\u00e2tel"}, "Groupe E Tour Fribourg #5 Fribourg": {"race": "Groupe E Tour Fribourg #5 Fribourg", "longitude": 7.131657799999999, "latitude": 46.8128615, "date": {"mer. 18.09.2013": {"weekday": "wednesday", "year": 2013, "categories": {"HS2": {"pace": 219000000000, "rank": 3, "distance": 10, "time": 2198.6}}, "day": 18, "month": 9, "livingplace": "Bevaix"}}, "location": "Givisiez"}, "BCN Tour #5 Colombier": {"race": "BCN Tour #5 Colombier", "longitude": 6.6324944, "latitude": 46.9262933, "date": {"mer. 22.05.2013": {"weekday": "wednesday", "year": 2013, "categories": {"HS2": {"pace": 211000000000, "rank": 7, "distance": 11, "time": 2222.2}}, "day": 22, "month": 5, "livingplace": "Bevaix"}}, "location": "Couvet"}, "Tour du Pays de Vaud #1, Penthaz": {"race": "Tour du Pays de Vaud #1, Penthaz", "longitude": 6.539251200000001, "latitude": 46.5993131, "date": {"mer. 13.08.2014": {"weekday": "wednesday", "year": 2014, "categories": {"H-Sen2": {"pace": 216000000000, "rank": 1, "distance": 9, "time": 1843.2}}, "day": 13, "month": 8, "livingplace": "Bevaix"}}, "location": "Penthaz"}, "BCN Tour Neuch\u00e2tel": {"race": "BCN Tour Neuch\u00e2tel", "longitude": 6.9292732, "latitude": 46.9899874, "date": {"mer. 25.05.2011": {"weekday": "wednesday", "year": 2011, "categories": {"HS2": {"pace": 233000000000, "rank": 8, "distance": 11, "time": 2661.2}}, "day": 25, "month": 5, "livingplace": "Bevaix"}, "mer. 26.05.2010": {"weekday": "wednesday", "year": 2010, "categories": {"HS2": {"pace": 234000000000, "rank": 2, "distance": 10, "time": 2274.4}}, "day": 26, "month": 5, "livingplace": "Bevaix"}, "mer. 30.05.2012": {"weekday": "wednesday", "year": 2012, "categories": {"HS2": {"pace": 240000000000, "rank": 10, "distance": 11, "time": 2689.6}}, "day": 30, "month": 5, "livingplace": "Bevaix"}}, "location": "Neuch\u00e2tel"}, "Sierre-Zinal, Sierre": {"race": "Sierre-Zinal, Sierre", "longitude": 7.533536199999999, "latitude": 46.29413110000001, "date": {"dim. 09.08.2015": {"weekday": "sunday", "year": 2015, "categories": {"V\u00e9t_I": {"pace": 407000000000, "rank": 29, "distance": 31, "time": 12641.9}}, "day": 9, "month": 8, "livingplace": "Bevaix"}, "dim. 11.08.2013": {"weekday": "sunday", "year": 2013, "categories": {"V\u00e9t_I": {"pace": 407000000000, "rank": 27, "distance": 31, "time": 12639.7}}, "day": 11, "month": 8, "livingplace": "Bevaix"}}, "location": "Sierre"}, "Grand Prix Craft, Neuch\u00e2tel": {"race": "Grand Prix Craft, Neuch\u00e2tel", "longitude": 6.9292732, "latitude": 46.9899874, "date": {"dim. 17.12.2006": {"weekday": "sunday", "year": 2006, "categories": {"HS1": {"pace": 208000000000, "rank": 11, "distance": 7, "time": 1458.8}}, "day": 17, "month": 12, "livingplace": "Bevaix"}}, "location": "Neuch\u00e2tel"}, "BCN Tour Les Ponts-de-Martel": {"race": "BCN Tour Les Ponts-de-Martel", "longitude": 6.733554799999999, "latitude": 46.999113, "date": {"mer. 09.05.2012": {"weekday": "wednesday", "year": 2012, "categories": {"HS2": {"pace": 231000000000, "rank": 6, "distance": 10, "time": 2381.7}}, "day": 9, "month": 5, "livingplace": "Bevaix"}}, "location": "Les Ponts-de-Martel"}, "BCN Tour Colombier": {"race": "BCN Tour Colombier", "longitude": 6.8589727, "latitude": 46.9668714, "date": {"mer. 21.04.2010": {"weekday": "wednesday", "year": 2010, "categories": {"HS2": {"pace": 245000000000, "rank": 2, "distance": 10, "time": 2451.1}}, "day": 21, "month": 4, "livingplace": "Bevaix"}, "mer. 16.05.2012": {"weekday": "wednesday", "year": 2012, "categories": {"HS2": {"pace": 227000000000, "rank": 7, "distance": 11, "time": 2454.9}}, "day": 16, "month": 5, "livingplace": "Bevaix"}, "mer. 23.04.2008": {"weekday": "wednesday", "year": 2008, "categories": {"HS1": {"pace": 236000000000, "rank": 12, "distance": 10, "time": 2416.7}}, "day": 23, "month": 4, "livingplace": "Medecins du Monde"}}, "location": "Colombier NE"}, "BCN Tour Le Landeron": {"race": "BCN Tour Le Landeron", "longitude": 6.8589727, "latitude": 46.9668714, "date": {"mer. 22.04.2009": {"weekday": "wednesday", "year": 2009, "categories": {"HS1": {"pace": 232000000000, "rank": 16, "distance": 11, "time": 2577.3}}, "day": 22, "month": 4, "livingplace": "Medecins du Monde"}}, "location": "Colombier NE"}, "BCN Tour Auvernier": {"race": "BCN Tour Auvernier", "longitude": 6.8589727, "latitude": 46.9668714, "date": {"mer. 20.04.2011": {"weekday": "wednesday", "year": 2011, "categories": {"HS2": {"pace": 253000000000, "rank": 25, "distance": 11, "time": 2733.5}}, "day": 20, "month": 4, "livingplace": "Bevaix"}}, "location": "Colombier NE"}, "BCN Tour Les Ponts de Martel": {"race": "BCN Tour Les Ponts de Martel", "longitude": 6.6324944, "latitude": 46.9262933, "date": {"mer. 18.05.2011": {"weekday": "wednesday", "year": 2011, "categories": {"HS2": {"pace": 235000000000, "rank": 10, "distance": 13, "time": 3014.9}}, "day": 18, "month": 5, "livingplace": "Bevaix"}}, "location": "Couvet"}, "BCN Tour #1 Corcelles": {"race": "BCN Tour #1 Corcelles", "longitude": 6.8589727, "latitude": 46.9668714, "date": {"mer. 24.04.2013": {"weekday": "wednesday", "year": 2013, "categories": {"HS2": {"pace": 225000000000, "rank": 10, "distance": 10, "time": 2206.4}}, "day": 24, "month": 4, "livingplace": "Bevaix"}}, "location": "Colombier NE"}, "BCN Tour M\u00f4tier": {"race": "BCN Tour M\u00f4tier", "longitude": 6.6324944, "latitude": 46.9262933, "date": {"mer. 19.05.2010": {"weekday": "wednesday", "year": 2010, "categories": {"HS2": {"pace": 217000000000, "rank": 2, "distance": 10, "time": 2156.2}}, "day": 19, "month": 5, "livingplace": "Bevaix"}}, "location": "Couvet"}, "Groupe E Tour Fribourg #2 Kerzers": {"race": "Groupe E Tour Fribourg #2 Kerzers", "longitude": 7.1654493, "latitude": 46.6175845, "date": {"mer. 28.08.2013": {"weekday": "wednesday", "year": 2013, "categories": {"HS2": {"pace": 222000000000, "rank": 2, "distance": 12, "time": 2637.8}}, "day": 28, "month": 8, "livingplace": "Bevaix"}}, "location": "Charmey (Gruy\u00e8re)"}, "Groupe E Tour Fribourg #5, Givisiez": {"race": "Groupe E Tour Fribourg #5, Givisiez", "longitude": 7.131657799999999, "latitude": 46.8128615, "date": {"mer. 17.09.2014": {"weekday": "wednesday", "year": 2014, "categories": {"H-Sen2": {"pace": 231000000000, "rank": 2, "distance": 10, "time": 2375.7}}, "day": 17, "month": 9, "livingplace": "Bevaix"}}, "location": "Givisiez"}, "D\u00e9fi Val-de-Travers, Couvet": {"race": "D\u00e9fi Val-de-Travers, Couvet", "longitude": 6.6324944, "latitude": 46.9262933, "date": {"sam. 19.06.2010": {"weekday": "saturday", "year": 2010, "categories": {"21-HSen2": {"pace": 268000000000, "rank": 1, "distance": 20, "time": 5297.2}}, "day": 19, "month": 6, "livingplace": "Bevaix"}}, "location": "Couvet"}, "Morat-Fribourg": {"race": "Morat-Fribourg", "longitude": 7.120184, "latitude": 46.92922110000001, "date": {"dim. 05.10.2003": {"weekday": "sunday", "year": 2003, "categories": {"M20": {"pace": 249000000000, "rank": 287, "distance": 17, "time": 4282.6}}, "day": 5, "month": 10, "livingplace": "Bevaix"}, "sam. 05.10.2013": {"weekday": "saturday", "year": 2013, "categories": {"17-M40": {"pace": 231000000000, "rank": 15, "distance": 17, "time": 4035.3}}, "day": 5, "month": 10, "livingplace": "Bevaix"}, "sam. 06.10.2012": {"weekday": "saturday", "year": 2012, "categories": {"17-M40": {"pace": 230000000000, "rank": 12, "distance": 17, "time": 4026.5}}, "day": 6, "month": 10, "livingplace": "Bevaix"}, "sam. 06.10.2007": {"weekday": "saturday", "year": 2007, "categories": {"C/M20": {"pace": 239000000000, "rank": 86, "distance": 17, "time": 4109.0}}, "day": 6, "month": 10, "livingplace": "Bevaix"}, "sam. 01.10.2011": {"weekday": "saturday", "year": 2011, "categories": {"17-M40": {"pace": 231000000000, "rank": 18, "distance": 17, "time": 3974.3}}, "day": 1, "month": 10, "livingplace": "Bevaix"}, "sam. 02.10.2010": {"weekday": "saturday", "year": 2010, "categories": {"17-M40": {"pace": 235000000000, "rank": 13, "distance": 17, "time": 4036.7}}, "day": 2, "month": 10, "livingplace": "Bevaix"}}, "location": "Murten"}, "BCN Tour Cornaux": {"race": "BCN Tour Cornaux", "longitude": 6.8589727, "latitude": 46.9668714, "date": {"mer. 25.04.2012": {"weekday": "wednesday", "year": 2012, "categories": {"HS2": {"pace": 245000000000, "rank": 5, "distance": 11, "time": 2702.5}}, "day": 25, "month": 4, "livingplace": "Bevaix"}}, "location": "Colombier NE"}, "10km Schweizer Meisterschaften Lyss": {"race": "10km Schweizer Meisterschaften Lyss", "longitude": 7.3077022, "latitude": 47.0746504, "date": {"sam. 31.03.2012": {"weekday": "saturday", "year": 2012, "categories": {"10-M40": {"pace": 213000000000, "rank": 12, "distance": 10, "time": 2134.5}}, "day": 31, "month": 3, "livingplace": "Bevaix"}}, "location": "Lyss"}, "BCN Tour Ponts-de-Martel": {"race": "BCN Tour Ponts-de-Martel", "longitude": 6.9175754, "latitude": 47.0624261, "date": {"mer. 28.04.2010": {"weekday": "wednesday", "year": 2010, "categories": {"HS2": {"pace": 229000000000, "rank": 3, "distance": 11, "time": 2569.2}}, "day": 28, "month": 4, "livingplace": "Bevaix"}}, "location": "Ch\u00e9zard-St-Martin"}, "BCN Tour #2 La Chaux-de-Fonds": {"race": "BCN Tour #2 La Chaux-de-Fonds", "longitude": 6.9175754, "latitude": 47.0624261, "date": {"mer. 01.05.2013": {"weekday": "wednesday", "year": 2013, "categories": {"HS2": {"pace": 223000000000, "rank": 10, "distance": 11, "time": 2387.9}}, "day": 1, "month": 5, "livingplace": "Bevaix"}}, "location": "Ch\u00e9zard-St-Martin"}, "BCN Tour Le Locle": {"race": "BCN Tour Le Locle", "longitude": 6.733554799999999, "latitude": 46.999113, "date": {"mer. 05.05.2010": {"weekday": "wednesday", "year": 2010, "categories": {"HS2": {"pace": 223000000000, "rank": 2, "distance": 11, "time": 2430.9}}, "day": 5, "month": 5, "livingplace": "Bevaix"}}, "location": "Les Ponts-de-Martel"}, "BCN Tour Boudry": {"race": "BCN Tour Boudry", "longitude": 6.8589727, "latitude": 46.9668714, "date": {"mer. 26.04.2006": {"weekday": "wednesday", "year": 2006, "categories": {"HS1": {"pace": 229000000000, "rank": 7, "distance": 10, "time": 2337.1}}, "day": 26, "month": 4, "livingplace": "Bevaix"}}, "location": "Colombier NE"}, "Groupe E Tour Fribourg #4 Montagny": {"race": "Groupe E Tour Fribourg #4 Montagny", "longitude": 6.877722, "latitude": 46.6585092, "date": {"mer. 11.09.2013": {"weekday": "wednesday", "year": 2013, "categories": {"HS2": {"pace": 220000000000, "rank": 3, "distance": 10, "time": 2157.5}}, "day": 11, "month": 9, "livingplace": "Bevaix"}}, "location": "Siviriez"}, "Lausanne Marathon": {"race": "Lausanne Marathon", "longitude": 6.6322734, "latitude": 46.5196535, "date": {"dim. 28.10.2012": {"weekday": "sunday", "year": 2012, "categories": {"10-H3": {"pace": 208000000000, "rank": 3, "distance": 10, "time": 2081.9}}, "day": 28, "month": 10, "livingplace": "Bevaix"}}, "location": "Lausanne"}, "BCN Tour La Br\u00e9vine": {"race": "BCN Tour La Br\u00e9vine", "longitude": 6.733554799999999, "latitude": 46.999113, "date": {"mer. 04.05.2011": {"weekday": "wednesday", "year": 2011, "categories": {"HS2": {"pace": 231000000000, "rank": 7, "distance": 10, "time": 2317.3}}, "day": 4, "month": 5, "livingplace": "Bevaix"}}, "location": "Les Ponts-de-Martel"}, "BCN Tour La Chaux-de-fonds": {"race": "BCN Tour La Chaux-de-fonds", "longitude": 6.832783800000001, "latitude": 47.1034892, "date": {"mer. 12.05.2010": {"weekday": "wednesday", "year": 2010, "categories": {"HS2": {"pace": 280000000000, "rank": 5, "distance": 11, "time": 3006.5}}, "day": 12, "month": 5, "livingplace": "Bevaix"}}, "location": "La Chaux-de-Fonds"}}, "name": "Pfund Nicolas", "birth": 1970}