{"sex": "M", "races": {"Tour du Chablais #5 Leysin": {"race": "Tour du Chablais #5 Leysin", "longitude": 6.931504599999999, "latitude": 46.3603257, "date": {"mer. 05.05.2010": {"weekday": "wednesday", "year": 2010, "categories": {"M-M50": {"pace": 339000000000, "rank": 53, "distance": 8, "time": 2868.6}}, "day": 5, "month": 5, "livingplace": "Amphion les Bains"}}, "location": "Roche VD"}, "Tour du Chablais #2 Yvorne": {"race": "Tour du Chablais #2 Yvorne", "longitude": 6.854975199999999, "latitude": 46.3835529, "date": {"mer. 10.04.2013": {"weekday": "wednesday", "year": 2013, "categories": {"M-M60": {"pace": 377000000000, "rank": 27, "distance": 8, "time": 3016.4}}, "day": 10, "month": 4, "livingplace": "Amphion les Bains"}}, "location": "Bouveret"}, "Tour du Chablais #4 Yvorne": {"race": "Tour du Chablais #4 Yvorne", "date": {"mer. 28.04.2010": {"weekday": "wednesday", "year": 2010, "categories": {"M-M50": {"pace": 342000000000, "rank": 57, "distance": 8, "time": 2838.9}}, "day": 28, "month": 4, "livingplace": "Amphion les Bains"}}, "location": "Les Mosses"}, "Tour du Chablais #1 Roche": {"race": "Tour du Chablais #1 Roche", "longitude": 6.9916269, "latitude": 46.2957462, "date": {"mer. 07.04.2010": {"weekday": "wednesday", "year": 2010, "categories": {"M-M50": {"pace": 308000000000, "rank": 60, "distance": 9, "time": 2760.5}}, "day": 7, "month": 4, "livingplace": "Amphion les Bains"}}, "location": "Ollon VD"}, "Morat-Fribourg": {"race": "Morat-Fribourg", "longitude": 7.120184, "latitude": 46.92922110000001, "date": {"sam. 04.10.2014": {"weekday": "saturday", "year": 2014, "categories": {"17-M60": {"pace": 366000000000, "rank": 113, "distance": 17, "time": 6293.6}}, "day": 4, "month": 10, "livingplace": "Publier"}}, "location": "Murten"}, "Tour du Chablais #6 Mouthey": {"race": "Tour du Chablais #6 Mouthey", "longitude": 6.970566, "latitude": 46.3190253, "date": {"mer. 12.05.2010": {"weekday": "wednesday", "year": 2010, "categories": {"M-M50": {"pace": 315000000000, "rank": 68, "distance": 9, "time": 2900.4}}, "day": 12, "month": 5, "livingplace": "Amphion les Bains"}}, "location": "Aigle"}, "Tour du Chablais #5 Les Mosses": {"race": "Tour du Chablais #5 Les Mosses", "longitude": 6.931504599999999, "latitude": 46.3603257, "date": {"mer. 25.05.2011": {"weekday": "wednesday", "year": 2011, "categories": {"M-M50": {"pace": 381000000000, "rank": 74, "distance": 8, "time": 3055.6}}, "day": 25, "month": 5, "livingplace": "Amphion les Bains"}}, "location": "Roche VD"}, "Tour du Chablais #1 Lavey": {"race": "Tour du Chablais #1 Lavey", "longitude": 6.9916269, "latitude": 46.2957462, "date": {"mer. 27.04.2011": {"weekday": "wednesday", "year": 2011, "categories": {"M-M50": {"pace": 314000000000, "rank": 72, "distance": 9, "time": 2831.3}}, "day": 27, "month": 4, "livingplace": "Amphion les Bains"}}, "location": "Ollon VD"}, "Tour du Chablais #3 Bex": {"race": "Tour du Chablais #3 Bex", "longitude": 7.0223787, "latitude": 46.1782231, "date": {"mer. 21.04.2010": {"weekday": "wednesday", "year": 2010, "categories": {"M-M50": {"pace": 318000000000, "rank": 64, "distance": 10, "time": 3184.8}}, "day": 21, "month": 4, "livingplace": "Amphion les Bains"}}, "location": "Evionnaz"}, "Tour du Chablais #3 Le Bouveret": {"race": "Tour du Chablais #3 Le Bouveret", "longitude": 7.0223787, "latitude": 46.1782231, "date": {"mer. 11.05.2011": {"weekday": "wednesday", "year": 2011, "categories": {"M-M50": {"pace": 335000000000, "rank": 86, "distance": 10, "time": 3353.4}}, "day": 11, "month": 5, "livingplace": "Amphion les Bains"}}, "location": "Evionnaz"}, "Tour du Chablais #2 St-Gingolph": {"race": "Tour du Chablais #2 St-Gingolph", "longitude": 6.854975199999999, "latitude": 46.3835529, "date": {"mer. 14.04.2010": {"weekday": "wednesday", "year": 2010, "categories": {"M-M50": {"pace": 342000000000, "rank": 59, "distance": 8, "time": 2861.3}}, "day": 14, "month": 4, "livingplace": "Amphion les Bains"}}, "location": "Bouveret"}, "Lausanne Marathon": {"race": "Lausanne Marathon", "longitude": 6.6322734, "latitude": 46.5196535, "date": {"sam. 24.10.2015": {"weekday": "saturday", "year": 2015, "categories": {"42-H60": {"pace": 404000000000, "rank": 30, "distance": 42, "time": 17062.1}}, "day": 24, "month": 10, "livingplace": "Publier"}}, "location": "Lausanne"}, "Tour du Chablais #2 Rennaz": {"race": "Tour du Chablais #2 Rennaz", "longitude": 6.854975199999999, "latitude": 46.3835529, "date": {"mer. 04.05.2011": {"weekday": "wednesday", "year": 2011, "categories": {"M-M50": {"pace": 317000000000, "rank": 79, "distance": 9, "time": 2968.0}}, "day": 4, "month": 5, "livingplace": "Amphion les Bains"}}, "location": "Bouveret"}}, "name": "Pioton Alain", "birth": 1952}