{"sex": "M", "races": {"Rheinfall-Lauf, Neuhausen": {"race": "Rheinfall-Lauf, Neuhausen", "longitude": 8.6126098, "latitude": 47.6837423, "date": {"dim. 18.08.2013": {"weekday": "sunday", "year": 2013, "categories": {"R-M30": {"pace": 309000000000, "rank": 21, "distance": 7, "time": 2166.1}}, "day": 18, "month": 8, "livingplace": "Lausanne"}}, "location": "Neuhausen am Rheinfall"}, "Eiger Ultra Trail, Grindelwald": {"race": "Eiger Ultra Trail, Grindelwald", "longitude": 8.0413962, "latitude": 46.624164, "date": {"sam. 18.07.2015": {"weekday": "saturday", "year": 2015, "categories": {"C-H": {"pace": 482000000000, "rank": 58, "distance": 16, "time": 7717.3}}, "day": 18, "month": 7, "livingplace": "Lausanne"}}, "location": "Grindelwald"}, "Sempacherseelauf, Sursee": {"race": "Sempacherseelauf, Sursee", "date": {"sam. 11.05.2013": {"weekday": "saturday", "year": 2013, "categories": {"21M30": {"pace": 295000000000, "rank": 111, "distance": 21, "time": 6235.2}}, "day": 11, "month": 5, "livingplace": "Lausanne"}}, "location": "Sursee"}, "Maratona Ticino, Tenero": {"race": "Maratona Ticino, Tenero", "date": {"dim. 10.11.2013": {"weekday": "sunday", "year": 2013, "categories": {"10-M20": {"pace": 284000000000, "rank": 52, "distance": 10, "time": 2841.4}}, "day": 10, "month": 11, "livingplace": "Lausanne"}}, "location": "Tenero"}, "Tour de Presinge": {"race": "Tour de Presinge", "longitude": 6.2535283, "latitude": 46.21860299999999, "date": {"dim. 17.03.2013": {"weekday": "sunday", "year": 2013, "categories": {"10-H1": {"pace": 266000000000, "rank": 37, "distance": 10, "time": 2664.2}}, "day": 17, "month": 3, "livingplace": "Lausanne"}}, "location": "Presinge"}, "Lausanne Marathon": {"race": "Lausanne Marathon", "longitude": 6.6322734, "latitude": 46.5196535, "date": {"sam. 24.10.2015": {"weekday": "saturday", "year": 2015, "categories": {"21-H30": {"pace": 320000000000, "rank": 532, "distance": 21, "time": 6771.0}}, "day": 24, "month": 10, "livingplace": "Lausanne"}}, "location": "Lausanne"}, "Basler Stadtlauf": {"race": "Basler Stadtlauf", "longitude": 7.5885761, "latitude": 47.5595986, "date": {"sam. 30.11.2013": {"weekday": "saturday", "year": 2013, "categories": {"M30": {"pace": 282000000000, "rank": 237, "distance": 6, "time": 1555.8}}, "day": 30, "month": 11, "livingplace": "Lausanne"}}, "location": "Basel"}}, "name": "Pipe Chris", "birth": 1979}