{"sex": "M", "races": {"BCN Tour #4 Fleurier": {"race": "BCN Tour #4 Fleurier", "longitude": 6.832783800000001, "latitude": 47.1034892, "date": {"mer. 15.05.2013": {"weekday": "wednesday", "year": 2013, "categories": {"HS1": {"pace": 270000000000, "rank": 73, "distance": 9, "time": 2338.6}}, "day": 15, "month": 5, "livingplace": "Neuchatel"}}, "location": "La Chaux-de-Fonds"}, "BCN Tour Les Ponts de Martel": {"race": "BCN Tour Les Ponts de Martel", "longitude": 6.6324944, "latitude": 46.9262933, "date": {"mer. 18.05.2011": {"weekday": "wednesday", "year": 2011, "categories": {"HS1": {"pace": 305000000000, "rank": 121, "distance": 13, "time": 3916.1}}, "day": 18, "month": 5, "livingplace": "Neuchatel"}}, "location": "Couvet"}, "BCN Tour #1 Corcelles": {"race": "BCN Tour #1 Corcelles", "longitude": 6.8589727, "latitude": 46.9668714, "date": {"mer. 24.04.2013": {"weekday": "wednesday", "year": 2013, "categories": {"HS1": {"pace": 278000000000, "rank": 89, "distance": 10, "time": 2724.8}}, "day": 24, "month": 4, "livingplace": "Neuchatel"}}, "location": "Colombier NE"}, "BCN Tour La Chaux-de-Fonds": {"race": "BCN Tour La Chaux-de-Fonds", "longitude": 6.832783800000001, "latitude": 47.1034892, "date": {"mer. 11.05.2011": {"weekday": "wednesday", "year": 2011, "categories": {"HS1": {"pace": 348000000000, "rank": 150, "distance": 11, "time": 3728.3}}, "day": 11, "month": 5, "livingplace": "Neuchatel"}, "mer. 23.05.2012": {"weekday": "wednesday", "year": 2012, "categories": {"HS1": {"pace": 314000000000, "rank": 174, "distance": 11, "time": 3399.8}}, "day": 23, "month": 5, "livingplace": "Neuchatel"}}, "location": "La Chaux-de-Fonds"}, "BCN Tour Auvernier": {"race": "BCN Tour Auvernier", "longitude": 6.8589727, "latitude": 46.9668714, "date": {"mer. 20.04.2011": {"weekday": "wednesday", "year": 2011, "categories": {"HS1": {"pace": 332000000000, "rank": 170, "distance": 11, "time": 3585.9}}, "day": 20, "month": 4, "livingplace": "Neuchatel"}}, "location": "Colombier NE"}, "BCN Tour #3 Dombresson": {"race": "BCN Tour #3 Dombresson", "longitude": 6.733554799999999, "latitude": 46.999113, "date": {"mer. 08.05.2013": {"weekday": "wednesday", "year": 2013, "categories": {"HS1": {"pace": 263000000000, "rank": 74, "distance": 10, "time": 2610.2}}, "day": 8, "month": 5, "livingplace": "Neuchatel"}}, "location": "Les Ponts-de-Martel"}, "BCN Tour Fontaine Cernier": {"race": "BCN Tour Fontaine Cernier", "longitude": 6.9175754, "latitude": 47.0624261, "date": {"mer. 27.04.2011": {"weekday": "wednesday", "year": 2011, "categories": {"HS1": {"pace": 294000000000, "rank": 150, "distance": 10, "time": 3034.2}}, "day": 27, "month": 4, "livingplace": "Neuchatel"}}, "location": "Ch\u00e9zard-St-Martin"}, "BCN Tour Couvet": {"race": "BCN Tour Couvet", "longitude": 6.9175754, "latitude": 47.0624261, "date": {"mer. 02.05.2012": {"weekday": "wednesday", "year": 2012, "categories": {"HS1": {"pace": 339000000000, "rank": 199, "distance": 11, "time": 3782.9}}, "day": 2, "month": 5, "livingplace": "Neuchatel"}}, "location": "Ch\u00e9zard-St-Martin"}, "BCN Tour #5 Colombier": {"race": "BCN Tour #5 Colombier", "longitude": 6.6324944, "latitude": 46.9262933, "date": {"mer. 22.05.2013": {"weekday": "wednesday", "year": 2013, "categories": {"HS1": {"pace": 252000000000, "rank": 77, "distance": 11, "time": 2651.0}}, "day": 22, "month": 5, "livingplace": "Neuchatel"}}, "location": "Couvet"}, "BCN Tour Cornaux": {"race": "BCN Tour Cornaux", "longitude": 6.8589727, "latitude": 46.9668714, "date": {"mer. 25.04.2012": {"weekday": "wednesday", "year": 2012, "categories": {"HS1": {"pace": 366000000000, "rank": 186, "distance": 11, "time": 4025.7}}, "day": 25, "month": 4, "livingplace": "Neuchatel"}}, "location": "Colombier NE"}, "Lausanne Marathon": {"race": "Lausanne Marathon", "longitude": 6.6322734, "latitude": 46.5196535, "date": {"dim. 26.10.2014": {"weekday": "sunday", "year": 2014, "categories": {"21-H30": {"pace": 274000000000, "rank": 183, "distance": 21, "time": 5798.2}}, "day": 26, "month": 10, "livingplace": "Neuchatel"}, "dim. 28.10.2012": {"weekday": "sunday", "year": 2012, "categories": {"21-H2": {"pace": 322000000000, "rank": 610, "distance": 21, "time": 6796.7}}, "day": 28, "month": 10, "livingplace": "Neuchatel"}, "dim. 27.10.2013": {"weekday": "sunday", "year": 2013, "categories": {"10-H2": {"pace": 258000000000, "rank": 102, "distance": 10, "time": 2583.2}}, "day": 27, "month": 10, "livingplace": "Neuchatel"}}, "location": "Lausanne"}, "BCN Tour #2 La Chaux-de-Fonds": {"race": "BCN Tour #2 La Chaux-de-Fonds", "longitude": 6.9175754, "latitude": 47.0624261, "date": {"mer. 01.05.2013": {"weekday": "wednesday", "year": 2013, "categories": {"HS1": {"pace": 276000000000, "rank": 112, "distance": 11, "time": 2959.4}}, "day": 1, "month": 5, "livingplace": "Neuchatel"}}, "location": "Ch\u00e9zard-St-Martin"}, "BCN Tour Neuch\u00e2tel": {"race": "BCN Tour Neuch\u00e2tel", "longitude": 6.9292732, "latitude": 46.9899874, "date": {"mer. 25.05.2011": {"weekday": "wednesday", "year": 2011, "categories": {"HS1": {"pace": 317000000000, "rank": 159, "distance": 11, "time": 3614.8}}, "day": 25, "month": 5, "livingplace": "Neuchatel"}, "mer. 30.05.2012": {"weekday": "wednesday", "year": 2012, "categories": {"HS1": {"pace": 329000000000, "rank": 169, "distance": 11, "time": 3692.2}}, "day": 30, "month": 5, "livingplace": "Neuchatel"}}, "location": "Neuch\u00e2tel"}, "BCN Tour #6 Neuch\u00e2tel": {"race": "BCN Tour #6 Neuch\u00e2tel", "longitude": 6.9292732, "latitude": 46.9899874, "date": {"mer. 29.05.2013": {"weekday": "wednesday", "year": 2013, "categories": {"HS1": {"pace": 276000000000, "rank": 69, "distance": 11, "time": 3041.4}}, "day": 29, "month": 5, "livingplace": "Neuchatel"}}, "location": "Neuch\u00e2tel"}, "BCN Tour Les Ponts-de-Martel": {"race": "BCN Tour Les Ponts-de-Martel", "longitude": 6.733554799999999, "latitude": 46.999113, "date": {"mer. 09.05.2012": {"weekday": "wednesday", "year": 2012, "categories": {"HS1": {"pace": 324000000000, "rank": 173, "distance": 10, "time": 3341.8}}, "day": 9, "month": 5, "livingplace": "Neuchatel"}}, "location": "Les Ponts-de-Martel"}, "BCN Tour Colombier": {"race": "BCN Tour Colombier", "longitude": 6.832783800000001, "latitude": 47.1034892, "date": {"mer. 16.05.2012": {"weekday": "wednesday", "year": 2012, "categories": {"HS1": {"pace": 315000000000, "rank": 180, "distance": 11, "time": 3408.9}}, "day": 16, "month": 5, "livingplace": "Neuchatel"}}, "location": "La Chaux-de-Fonds"}, "BCN Tour La Br\u00e9vine": {"race": "BCN Tour La Br\u00e9vine", "longitude": 6.733554799999999, "latitude": 46.999113, "date": {"mer. 04.05.2011": {"weekday": "wednesday", "year": 2011, "categories": {"HS1": {"pace": 304000000000, "rank": 127, "distance": 10, "time": 3043.2}}, "day": 4, "month": 5, "livingplace": "Neuchatel"}}, "location": "Les Ponts-de-Martel"}, "Course p\u00e9destre Thyon-Dixence, Thyon": {"race": "Course p\u00e9destre Thyon-Dixence, Thyon", "date": {"dim. 05.08.2012": {"weekday": "sunday", "year": 2012, "categories": {"HomElite": {"pace": 448000000000, "rank": 83, "distance": 16, "time": 7328.0}}, "day": 5, "month": 8, "livingplace": "Neuchatel"}}, "location": "Thyon-Les Collons"}}, "name": "Pittet Jacques", "birth": 1978}