{"sex": "M", "races": {"BCN Tour #4 Fleurier": {"race": "BCN Tour #4 Fleurier", "longitude": 6.832783800000001, "latitude": 47.1034892, "date": {"mer. 15.05.2013": {"weekday": "wednesday", "year": 2013, "categories": {"HS2": {"pace": 285000000000, "rank": 84, "distance": 9, "time": 2465.7}}, "day": 15, "month": 5, "livingplace": "Couvet"}}, "location": "La Chaux-de-Fonds"}, "BCN Tour #5 Colombier": {"race": "BCN Tour #5 Colombier", "longitude": 6.6324944, "latitude": 46.9262933, "date": {"mer. 22.05.2013": {"weekday": "wednesday", "year": 2013, "categories": {"HS2": {"pace": 274000000000, "rank": 143, "distance": 11, "time": 2881.8}}, "day": 22, "month": 5, "livingplace": "Couvet"}}, "location": "Couvet"}, "BCN Tour #1 Corcelles": {"race": "BCN Tour #1 Corcelles", "longitude": 6.8589727, "latitude": 46.9668714, "date": {"mer. 24.04.2013": {"weekday": "wednesday", "year": 2013, "categories": {"HS2": {"pace": 291000000000, "rank": 122, "distance": 10, "time": 2856.9}}, "day": 24, "month": 4, "livingplace": "Couvet"}}, "location": "Colombier NE"}, "La Trotteuse-Tissot, La Chaux-de-Fonds": {"race": "La Trotteuse-Tissot, La Chaux-de-Fonds", "longitude": 6.832783800000001, "latitude": 47.1034892, "date": {"sam. 12.12.2015": {"weekday": "saturday", "year": 2015, "categories": {"GC-H40": {"pace": 272000000000, "rank": 77, "distance": 8, "time": 2177.1}}, "day": 12, "month": 12, "livingplace": "Couvet"}, "sam. 14.12.2013": {"weekday": "saturday", "year": 2013, "categories": {"GC-H40": {"pace": 292000000000, "rank": 91, "distance": 8, "time": 2343.3}}, "day": 14, "month": 12, "livingplace": "Couvet"}, "sam. 13.12.2014": {"weekday": "saturday", "year": 2014, "categories": {"GC-H40": {"pace": 271000000000, "rank": 68, "distance": 8, "time": 2171.4}}, "day": 13, "month": 12, "livingplace": "Les Pitouilles"}}, "location": "La Chaux-de-Fonds"}, "BCN Tour #2 La Chaux-de-Fonds": {"race": "BCN Tour #2 La Chaux-de-Fonds", "longitude": 6.9175754, "latitude": 47.0624261, "date": {"mer. 01.05.2013": {"weekday": "wednesday", "year": 2013, "categories": {"HS2": {"pace": 284000000000, "rank": 125, "distance": 11, "time": 3046.7}}, "day": 1, "month": 5, "livingplace": "Couvet"}}, "location": "Ch\u00e9zard-St-Martin"}, "Morat-Fribourg": {"race": "Morat-Fribourg", "longitude": 7.120184, "latitude": 46.92922110000001, "date": {"sam. 01.10.2011": {"weekday": "saturday", "year": 2011, "categories": {"17-M40": {"pace": 306000000000, "rank": 369, "distance": 17, "time": 5269.3}}, "day": 1, "month": 10, "livingplace": "Couvet"}}, "location": "Murten"}, "Jungfrau-Marathon, Interlaken": {"race": "Jungfrau-Marathon, Interlaken", "date": {"sam. 10.09.2011": {"weekday": "saturday", "year": 2011, "categories": {"M40": {"pace": 481000000000, "rank": 405, "distance": 42, "time": 20323.8}}, "day": 10, "month": 9, "livingplace": "Couvet"}}, "location": "Interlaken"}}, "name": "Pittet St\u00e9phane", "birth": 1968}