{"sex": "M", "races": {"Tour du Chablais #5 Leysin": {"race": "Tour du Chablais #5 Leysin", "longitude": 6.931504599999999, "latitude": 46.3603257, "date": {"mer. 05.05.2010": {"weekday": "wednesday", "year": 2010, "categories": {"M-M40": {"pace": 299000000000, "rank": 64, "distance": 8, "time": 2534.5}}, "day": 5, "month": 5, "livingplace": "Levron"}}, "location": "Roche VD"}, "Tour du Chablais #4 Yvorne": {"race": "Tour du Chablais #4 Yvorne", "date": {"mer. 28.04.2010": {"weekday": "wednesday", "year": 2010, "categories": {"M-M40": {"pace": 299000000000, "rank": 98, "distance": 8, "time": 2482.8}}, "day": 28, "month": 4, "livingplace": "Levron"}}, "location": "Les Mosses"}, "Tour du Chablais #3 Bex": {"race": "Tour du Chablais #3 Bex", "longitude": 7.0223787, "latitude": 46.1782231, "date": {"mer. 21.04.2010": {"weekday": "wednesday", "year": 2010, "categories": {"M-M40": {"pace": 281000000000, "rank": 86, "distance": 10, "time": 2814.3}}, "day": 21, "month": 4, "livingplace": "Levron"}}, "location": "Evionnaz"}, "Tour du Chablais #1 Roche": {"race": "Tour du Chablais #1 Roche", "longitude": 6.9916269, "latitude": 46.2957462, "date": {"mer. 07.04.2010": {"weekday": "wednesday", "year": 2010, "categories": {"M-M40": {"pace": 312000000000, "rank": 153, "distance": 9, "time": 2793.3}}, "day": 7, "month": 4, "livingplace": "Levron"}}, "location": "Ollon VD"}, "Tour du Chablais #2 St-Gingolph": {"race": "Tour du Chablais #2 St-Gingolph", "longitude": 6.854975199999999, "latitude": 46.3835529, "date": {"mer. 14.04.2010": {"weekday": "wednesday", "year": 2010, "categories": {"M-M40": {"pace": 311000000000, "rank": 109, "distance": 8, "time": 2597.2}}, "day": 14, "month": 4, "livingplace": "Levron"}}, "location": "Bouveret"}, "Tour du Chablais #6 Mouthey": {"race": "Tour du Chablais #6 Mouthey", "longitude": 6.970566, "latitude": 46.3190253, "date": {"mer. 12.05.2010": {"weekday": "wednesday", "year": 2010, "categories": {"M-M40": {"pace": 262000000000, "rank": 75, "distance": 9, "time": 2413.7}}, "day": 12, "month": 5, "livingplace": "Levron"}}, "location": "Aigle"}}, "name": "Plan Eric", "birth": 1965}