{"sex": "M", "races": {"Int Greifenseelauf, Uster": {"race": "Int Greifenseelauf, Uster", "longitude": 8.717873899999999, "latitude": 47.3482747, "date": {"sam. 20.09.2008": {"weekday": "saturday", "year": 2008, "categories": {"H-M20": {"pace": 303000000000, "rank": 362, "distance": 21, "time": 6407.7}}, "day": 20, "month": 9, "livingplace": "Stafa"}}, "location": "Uster"}, "Z\u00fcrich Marathon, Teamrun und Cityrun": {"race": "Z\u00fcrich Marathon, Teamrun und Cityrun", "longitude": 8.541694, "latitude": 47.3768866, "date": {"dim. 17.04.2011": {"weekday": "sunday", "year": 2011, "categories": {"42-M30": {"pace": 316000000000, "rank": 356, "distance": 42, "time": 13369.1}}, "day": 17, "month": 4, "livingplace": "Zurich"}}, "location": "Z\u00fcrich"}, "Winterthur Marathon": {"race": "Winterthur Marathon", "longitude": -75.6037351, "latitude": 39.8088766, "date": {"dim. 24.05.2009": {"weekday": "sunday", "year": 2009, "categories": {"HM20": {"pace": 333000000000, "rank": 86, "distance": 21, "time": 7037.1}}, "day": 24, "month": 5, "livingplace": "Stafa"}}, "location": "Winterthur"}, "Hallwilerseelauf, Beinwil am See": {"race": "Hallwilerseelauf, Beinwil am See", "date": {"sam. 11.10.2014": {"weekday": "saturday", "year": 2014, "categories": {"21-M30": {"pace": 346000000000, "rank": 592, "distance": 21, "time": 7301.5}}, "day": 11, "month": 10, "livingplace": "Liebefeld"}}, "location": "Beinwil am See"}, "Thuner Stadtlauf, Thun": {"race": "Thuner Stadtlauf, Thun", "longitude": 7.6279881, "latitude": 46.7579868, "date": {"dim. 28.08.2011": {"weekday": "sunday", "year": 2011, "categories": {"10-M30": {"pace": 382000000000, "rank": 132, "distance": 10, "time": 3827.2}}, "day": 28, "month": 8, "livingplace": "Zurich"}}, "location": "Thun"}, "Lucerne Marathon, Luzern": {"race": "Lucerne Marathon, Luzern", "longitude": 8.3093072, "latitude": 47.05016819999999, "date": {"dim. 25.10.2009": {"weekday": "sunday", "year": 2009, "categories": {"H-M20": {"pace": 285000000000, "rank": 176, "distance": 21, "time": 6033.2}}, "day": 25, "month": 10, "livingplace": "Stafa"}}, "location": "Luzern"}, "Z\u00fcrcher Silvesterlauf, Z\u00fcrich": {"race": "Z\u00fcrcher Silvesterlauf, Z\u00fcrich", "longitude": 8.541694, "latitude": 47.3768866, "date": {"dim. 14.12.2008": {"weekday": "sunday", "year": 2008, "categories": {"MenHK-8": {"pace": 352000000000, "rank": 652, "distance": 9, "time": 3031.5}}, "day": 14, "month": 12, "livingplace": "Stafa"}, "dim. 12.12.2010": {"weekday": "sunday", "year": 2010, "categories": {"8-MenAK1": {"pace": 267000000000, "rank": 329, "distance": 9, "time": 2299.8}}, "day": 12, "month": 12, "livingplace": "Zurich"}, "dim. 13.12.2009": {"weekday": "sunday", "year": 2009, "categories": {"8-MenHK": {"pace": 256000000000, "rank": 193, "distance": 9, "time": 2203.8}}, "day": 13, "month": 12, "livingplace": "Zurich"}}, "location": "Z\u00fcrich"}}, "name": "Pl\u00fcss Fabian", "birth": 1980}