{"sex": "M", "races": {"Course de l'Escalade, Gen\u00e8ve": {"race": "Course de l'Escalade, Gen\u00e8ve", "longitude": 6.1431577, "latitude": 46.2043907, "date": {"sam. 01.12.2012": {"weekday": "saturday", "year": 2012, "categories": {"Esc-Hom6": {"pace": 309000000000, "rank": 6, "distance": 7, "time": 2243.6}}, "day": 1, "month": 12, "livingplace": "Noes"}, "sam. 04.12.2010": {"weekday": "saturday", "year": 2010, "categories": {"H-H6": {"pace": 273000000000, "rank": 7, "distance": 7, "time": 1982.4}}, "day": 4, "month": 12, "livingplace": "Noes"}, "sam. 07.12.2013": {"weekday": "saturday", "year": 2013, "categories": {"Esc-Hom6": {"pace": 316000000000, "rank": 14, "distance": 7, "time": 2297.3}}, "day": 7, "month": 12, "livingplace": "Noes"}}, "location": "Gen\u00e8ve"}, "Tour du Chablais #5 Leysin": {"race": "Tour du Chablais #5 Leysin", "longitude": 6.931504599999999, "latitude": 46.3603257, "date": {"mer. 05.05.2010": {"weekday": "wednesday", "year": 2010, "categories": {"M-M60": {"pace": 315000000000, "rank": 15, "distance": 8, "time": 2667.5}}, "day": 5, "month": 5, "livingplace": "Noes"}}, "location": "Roche VD"}, "Tour du Chablais #2 Bex": {"race": "Tour du Chablais #2 Bex", "longitude": 6.854975199999999, "latitude": 46.3835529, "date": {"mer. 18.04.2012": {"weekday": "wednesday", "year": 2012, "categories": {"M-M60": {"pace": 322000000000, "rank": 19, "distance": 8, "time": 2581.3}}, "day": 18, "month": 4, "livingplace": "Noes"}}, "location": "Bouveret"}, "Tour du Chablais #6 Montreux": {"race": "Tour du Chablais #6 Montreux", "longitude": 6.970566, "latitude": 46.3190253, "date": {"mer. 16.05.2012": {"weekday": "wednesday", "year": 2012, "categories": {"M-M60": {"pace": 301000000000, "rank": 15, "distance": 9, "time": 2787.0}}, "day": 16, "month": 5, "livingplace": "Noes"}}, "location": "Aigle"}, "Tour du Chablais #4 Morgins": {"race": "Tour du Chablais #4 Morgins", "date": {"mer. 18.05.2011": {"weekday": "wednesday", "year": 2011, "categories": {"M-M60": {"pace": 323000000000, "rank": 18, "distance": 8, "time": 2702.7}}, "day": 18, "month": 5, "livingplace": "Noes"}}, "location": "Les Mosses"}, "Montreux - Les Rochers de Naye": {"race": "Montreux - Les Rochers de Naye", "longitude": 6.9106799, "latitude": 46.4312213, "date": {"dim. 30.06.2002": {"weekday": "sunday", "year": 2002, "categories": {"V\u00e9t3": {"pace": 443000000000, "rank": 1, "distance": 20, "time": 9009.5}}, "day": 30, "month": 6, "livingplace": "Noes"}}, "location": "Montreux"}, "Tour du Chablais #1 Montreux": {"race": "Tour du Chablais #1 Montreux", "longitude": 6.9916269, "latitude": 46.2957462, "date": {"mer. 11.04.2012": {"weekday": "wednesday", "year": 2012, "categories": {"M-M60": {"pace": 329000000000, "rank": 21, "distance": 8, "time": 2505.9}}, "day": 11, "month": 4, "livingplace": "Noes"}}, "location": "Ollon VD"}, "Tour du Chablais #5 Bex": {"race": "Tour du Chablais #5 Bex", "longitude": 6.931504599999999, "latitude": 46.3603257, "date": {"mer. 09.05.2012": {"weekday": "wednesday", "year": 2012, "categories": {"M-M60": {"pace": 306000000000, "rank": 15, "distance": 9, "time": 2716.1}}, "day": 9, "month": 5, "livingplace": "Noes"}}, "location": "Roche VD"}, "Tour du Chablais #3 Bex": {"race": "Tour du Chablais #3 Bex", "longitude": 7.0223787, "latitude": 46.1782231, "date": {"mer. 21.04.2010": {"weekday": "wednesday", "year": 2010, "categories": {"M-M60": {"pace": 283000000000, "rank": 13, "distance": 10, "time": 2832.5}}, "day": 21, "month": 4, "livingplace": "Noes"}}, "location": "Evionnaz"}, "Tour du Chablais #2 St-Gingolph": {"race": "Tour du Chablais #2 St-Gingolph", "longitude": 6.854975199999999, "latitude": 46.3835529, "date": {"mer. 14.04.2010": {"weekday": "wednesday", "year": 2010, "categories": {"M-M60": {"pace": 300000000000, "rank": 13, "distance": 8, "time": 2505.6}}, "day": 14, "month": 4, "livingplace": "Noes"}}, "location": "Bouveret"}, "Les Traine-Savates, Cheseaux-sur-Lausanne": {"race": "Les Traine-Savates, Cheseaux-sur-Lausanne", "longitude": 6.6047712, "latitude": 46.585452, "date": {"sam. 04.04.2009": {"weekday": "saturday", "year": 2009, "categories": {"Hom V3": {"pace": 286000000000, "rank": 7, "distance": 10, "time": 2981.3}}, "day": 4, "month": 4, "livingplace": "Noes"}, "sam. 10.04.2010": {"weekday": "saturday", "year": 2010, "categories": {"Hom V3": {"pace": 282000000000, "rank": 8, "distance": 10, "time": 2938.5}}, "day": 10, "month": 4, "livingplace": "Noes"}, "sam. 14.04.2012": {"weekday": "saturday", "year": 2012, "categories": {"10-M60": {"pace": 314000000000, "rank": 23, "distance": 10, "time": 3274.8}}, "day": 14, "month": 4, "livingplace": "Noes"}, "sam. 09.04.2011": {"weekday": "saturday", "year": 2011, "categories": {"10-M60": {"pace": 299000000000, "rank": 13, "distance": 10, "time": 3109.9}}, "day": 9, "month": 4, "livingplace": "Noes"}, "sam. 12.04.2014": {"weekday": "saturday", "year": 2014, "categories": {"10-M60": {"pace": 315000000000, "rank": 23, "distance": 10, "time": 3250.2}}, "day": 12, "month": 4, "livingplace": "Noes"}}, "location": "Cheseaux-sur-Lausanne"}, "Tour du Chablais #2 Rennaz": {"race": "Tour du Chablais #2 Rennaz", "longitude": 6.854975199999999, "latitude": 46.3835529, "date": {"mer. 04.05.2011": {"weekday": "wednesday", "year": 2011, "categories": {"M-M60": {"pace": 296000000000, "rank": 18, "distance": 9, "time": 2774.5}}, "day": 4, "month": 5, "livingplace": "Noes"}}, "location": "Bouveret"}, "Tour du Chablais #4 Champ\u00e9ry": {"race": "Tour du Chablais #4 Champ\u00e9ry", "date": {"mer. 02.05.2012": {"weekday": "wednesday", "year": 2012, "categories": {"M-M60": {"pace": 306000000000, "rank": 11, "distance": 8, "time": 2540.5}}, "day": 2, "month": 5, "livingplace": "Noes"}}, "location": "Les Mosses"}, "Course Titz\u00e9 de no\u00ebl Sion": {"race": "Course Titz\u00e9 de no\u00ebl Sion", "longitude": 7.360625999999999, "latitude": 46.2331221, "date": {"sam. 15.12.2001": {"weekday": "saturday", "year": 2001, "categories": {"53": {"pace": 252000000000, "rank": 18, "distance": 7, "time": 1855.5}}, "day": 15, "month": 12, "livingplace": "Sierre"}}, "location": "Sion"}, "Tour du Chablais #4 Yvorne": {"race": "Tour du Chablais #4 Yvorne", "date": {"mer. 28.04.2010": {"weekday": "wednesday", "year": 2010, "categories": {"M-M60": {"pace": 296000000000, "rank": 12, "distance": 8, "time": 2458.3}}, "day": 28, "month": 4, "livingplace": "Noes"}}, "location": "Les Mosses"}, "Tour du Chablais #1 Roche": {"race": "Tour du Chablais #1 Roche", "longitude": 6.9916269, "latitude": 46.2957462, "date": {"mer. 07.04.2010": {"weekday": "wednesday", "year": 2010, "categories": {"M-M60": {"pace": 280000000000, "rank": 13, "distance": 9, "time": 2514.1}}, "day": 7, "month": 4, "livingplace": "Noes"}}, "location": "Ollon VD"}, "Tour du Chablais #3 Collombey-Muraz": {"race": "Tour du Chablais #3 Collombey-Muraz", "longitude": 7.0223787, "latitude": 46.1782231, "date": {"mer. 25.04.2012": {"weekday": "wednesday", "year": 2012, "categories": {"M-M60": {"pace": 311000000000, "rank": 19, "distance": 9, "time": 2799.7}}, "day": 25, "month": 4, "livingplace": "Noes"}}, "location": "Evionnaz"}, "Morat-Fribourg": {"race": "Morat-Fribourg", "longitude": 7.120184, "latitude": 46.92922110000001, "date": {"sam. 06.10.2007": {"weekday": "saturday", "year": 2007, "categories": {"C/M65": {"pace": 317000000000, "rank": 19, "distance": 17, "time": 5458.0}}, "day": 6, "month": 10, "livingplace": "Noes"}, "dim. 05.10.2003": {"weekday": "sunday", "year": 2003, "categories": {"M60": {"pace": 290000000000, "rank": 22, "distance": 17, "time": 4979.8}}, "day": 5, "month": 10, "livingplace": "Noes"}, "sam. 01.10.2011": {"weekday": "saturday", "year": 2011, "categories": {"17-M70": {"pace": 336000000000, "rank": 13, "distance": 17, "time": 5786.2}}, "day": 1, "month": 10, "livingplace": "Noes"}, "sam. 02.10.2010": {"weekday": "saturday", "year": 2010, "categories": {"17-M70": {"pace": 314000000000, "rank": 6, "distance": 17, "time": 5406.4}}, "day": 2, "month": 10, "livingplace": "Noes"}, "sam. 04.10.2008": {"weekday": "saturday", "year": 2008, "categories": {"C-M65": {"pace": 313000000000, "rank": 17, "distance": 17, "time": 5389.2}}, "day": 4, "month": 10, "livingplace": "Noes"}}, "location": "Murten"}, "Tour du Chablais #6 Aigle": {"race": "Tour du Chablais #6 Aigle", "longitude": 6.970566, "latitude": 46.3190253, "date": {"mer. 01.06.2011": {"weekday": "wednesday", "year": 2011, "categories": {"M-M60": {"pace": 291000000000, "rank": 15, "distance": 10, "time": 2975.3}}, "day": 1, "month": 6, "livingplace": "Noes"}}, "location": "Aigle"}, "Tour du Chablais #6 Mouthey": {"race": "Tour du Chablais #6 Mouthey", "longitude": 6.970566, "latitude": 46.3190253, "date": {"mer. 12.05.2010": {"weekday": "wednesday", "year": 2010, "categories": {"M-M60": {"pace": 277000000000, "rank": 12, "distance": 9, "time": 2555.7}}, "day": 12, "month": 5, "livingplace": "Noes"}}, "location": "Aigle"}, "Tour du Chablais #5 Les Mosses": {"race": "Tour du Chablais #5 Les Mosses", "longitude": 6.931504599999999, "latitude": 46.3603257, "date": {"mer. 25.05.2011": {"weekday": "wednesday", "year": 2011, "categories": {"M-M60": {"pace": 317000000000, "rank": 12, "distance": 8, "time": 2540.3}}, "day": 25, "month": 5, "livingplace": "Noes"}}, "location": "Roche VD"}, "Tour du Chablais #1 Lavey": {"race": "Tour du Chablais #1 Lavey", "longitude": 6.9916269, "latitude": 46.2957462, "date": {"mer. 27.04.2011": {"weekday": "wednesday", "year": 2011, "categories": {"M-M60": {"pace": 308000000000, "rank": 18, "distance": 9, "time": 2778.1}}, "day": 27, "month": 4, "livingplace": "Noes"}}, "location": "Ollon VD"}, "Tour du Chablais #3 Le Bouveret": {"race": "Tour du Chablais #3 Le Bouveret", "longitude": 7.0223787, "latitude": 46.1782231, "date": {"mer. 11.05.2011": {"weekday": "wednesday", "year": 2011, "categories": {"M-M60": {"pace": 294000000000, "rank": 18, "distance": 10, "time": 2940.4}}, "day": 11, "month": 5, "livingplace": "Noes"}}, "location": "Evionnaz"}, "Tour du Chablais #1 Martigny": {"race": "Tour du Chablais #1 Martigny", "longitude": 6.9916269, "latitude": 46.2957462, "date": {"mer. 23.04.2014": {"weekday": "wednesday", "year": 2014, "categories": {"M-M60": {"pace": 310000000000, "rank": 25, "distance": 9, "time": 2642.3}}, "day": 23, "month": 4, "livingplace": "Noes"}}, "location": "Ollon VD"}}, "name": "Pollmann Erwin", "birth": 1940}