{"sex": "M", "races": {"Tour du Chablais #1 Montreux": {"race": "Tour du Chablais #1 Montreux", "longitude": 6.9916269, "latitude": 46.2957462, "date": {"mer. 11.04.2012": {"weekday": "wednesday", "year": 2012, "categories": {"M-M40": {"pace": 405000000000, "rank": 163, "distance": 8, "time": 3082.5}}, "day": 11, "month": 4, "livingplace": "Martigny"}}, "location": "Ollon VD"}, "Tour du Chablais #2 Yvorne": {"race": "Tour du Chablais #2 Yvorne", "longitude": 6.854975199999999, "latitude": 46.3835529, "date": {"mer. 10.04.2013": {"weekday": "wednesday", "year": 2013, "categories": {"M-M40": {"pace": 388000000000, "rank": 140, "distance": 8, "time": 3107.2}}, "day": 10, "month": 4, "livingplace": "Martigny"}}, "location": "Bouveret"}, "Tour du Chablais #6 Monthey": {"race": "Tour du Chablais #6 Monthey", "longitude": 6.970566, "latitude": 46.3190253, "date": {"mer. 08.05.2013": {"weekday": "wednesday", "year": 2013, "categories": {"M-M40": {"pace": 355000000000, "rank": 154, "distance": 9, "time": 3318.9}}, "day": 8, "month": 5, "livingplace": "Martigny"}}, "location": "Aigle"}, "Tour du Chablais #2 Bex": {"race": "Tour du Chablais #2 Bex", "longitude": 6.854975199999999, "latitude": 46.3835529, "date": {"mer. 18.04.2012": {"weekday": "wednesday", "year": 2012, "categories": {"M-M40": {"pace": 407000000000, "rank": 162, "distance": 8, "time": 3260.5}}, "day": 18, "month": 4, "livingplace": "Martigny"}}, "location": "Bouveret"}, "Tour du Chablais #3 Bouveret": {"race": "Tour du Chablais #3 Bouveret", "longitude": 7.0223787, "latitude": 46.1782231, "date": {"mer. 17.04.2013": {"weekday": "wednesday", "year": 2013, "categories": {"M-M40": {"pace": 369000000000, "rank": 147, "distance": 10, "time": 3698.0}}, "day": 17, "month": 4, "livingplace": "Martigny"}}, "location": "Evionnaz"}, "Tour du Chablais #1 Roche": {"race": "Tour du Chablais #1 Roche", "longitude": 6.9916269, "latitude": 46.2957462, "date": {"mer. 03.04.2013": {"weekday": "wednesday", "year": 2013, "categories": {"M-M40": {"pace": 339000000000, "rank": 136, "distance": 9, "time": 3006.1}}, "day": 3, "month": 4, "livingplace": "Martigny"}}, "location": "Ollon VD"}, "Tour du Chablais #1 Martigny": {"race": "Tour du Chablais #1 Martigny", "longitude": 6.9916269, "latitude": 46.2957462, "date": {"mer. 23.04.2014": {"weekday": "wednesday", "year": 2014, "categories": {"M-M40": {"pace": 400000000000, "rank": 156, "distance": 9, "time": 3406.2}}, "day": 23, "month": 4, "livingplace": "Martigny"}}, "location": "Ollon VD"}, "Tour du Chablais #6 Montreux": {"race": "Tour du Chablais #6 Montreux", "longitude": 6.970566, "latitude": 46.3190253, "date": {"mer. 16.05.2012": {"weekday": "wednesday", "year": 2012, "categories": {"M-M40": {"pace": 360000000000, "rank": 169, "distance": 9, "time": 3330.7}}, "day": 16, "month": 5, "livingplace": "Martigny"}}, "location": "Aigle"}, "Tour du Chablais #6 Aigle": {"race": "Tour du Chablais #6 Aigle", "longitude": 6.970566, "latitude": 46.3190253, "date": {"mer. 01.06.2011": {"weekday": "wednesday", "year": 2011, "categories": {"M-M40": {"pace": 333000000000, "rank": 149, "distance": 10, "time": 3397.1}}, "day": 1, "month": 6, "livingplace": "Martigny Gare CFF"}}, "location": "Aigle"}, "Tour du Chablais #2 St-Gingolph": {"race": "Tour du Chablais #2 St-Gingolph", "longitude": 6.854975199999999, "latitude": 46.3835529, "date": {"mer. 14.04.2010": {"weekday": "wednesday", "year": 2010, "categories": {"M-M40": {"pace": 376000000000, "rank": 177, "distance": 8, "time": 3144.9}}, "day": 14, "month": 4, "livingplace": "Martigny"}}, "location": "Bouveret"}, "Tour du Chablais #4 Champ\u00e9ry": {"race": "Tour du Chablais #4 Champ\u00e9ry", "date": {"mer. 02.05.2012": {"weekday": "wednesday", "year": 2012, "categories": {"M-M40": {"pace": 383000000000, "rank": 143, "distance": 8, "time": 3187.1}}, "day": 2, "month": 5, "livingplace": "Martigny"}}, "location": "Les Mosses"}, "Tour du Chablais #5 Bex": {"race": "Tour du Chablais #5 Bex", "longitude": 6.931504599999999, "latitude": 46.3603257, "date": {"mer. 09.05.2012": {"weekday": "wednesday", "year": 2012, "categories": {"M-M40": {"pace": 388000000000, "rank": 128, "distance": 9, "time": 3441.4}}, "day": 9, "month": 5, "livingplace": "Martigny"}}, "location": "Roche VD"}, "Tour du Chablais #5 Morgins": {"race": "Tour du Chablais #5 Morgins", "longitude": 6.931504599999999, "latitude": 46.3603257, "date": {"mer. 01.05.2013": {"weekday": "wednesday", "year": 2013, "categories": {"M-M40": {"pace": 389000000000, "rank": 124, "distance": 8, "time": 2963.7}}, "day": 1, "month": 5, "livingplace": "Martigny"}}, "location": "Roche VD"}, "Tour du Chablais #4 St  Maurice": {"race": "Tour du Chablais #4 St  Maurice", "date": {"mer. 24.04.2013": {"weekday": "wednesday", "year": 2013, "categories": {"M-M40": {"pace": 372000000000, "rank": 150, "distance": 10, "time": 3728.7}}, "day": 24, "month": 4, "livingplace": "Martigny"}}, "location": "Les Mosses"}, "Tour du Chablais #3 Collombey-Muraz": {"race": "Tour du Chablais #3 Collombey-Muraz", "longitude": 7.0223787, "latitude": 46.1782231, "date": {"mer. 25.04.2012": {"weekday": "wednesday", "year": 2012, "categories": {"M-M40": {"pace": 358000000000, "rank": 140, "distance": 9, "time": 3217.9}}, "day": 25, "month": 4, "livingplace": "Martigny"}}, "location": "Evionnaz"}}, "name": "Raboud Michel", "birth": 1970}