{"sex": "F", "races": {"Tour du Chablais #1 Montreux": {"race": "Tour du Chablais #1 Montreux", "longitude": 6.9916269, "latitude": 46.2957462, "date": {"mer. 11.04.2012": {"weekday": "wednesday", "year": 2012, "categories": {"F-F20": {"pace": 304000000000, "rank": 26, "distance": 8, "time": 2316.7}}, "day": 11, "month": 4, "livingplace": "Gryon"}}, "location": "Ollon VD"}, "Schweizer Frauenlauf Bern": {"race": "Schweizer Frauenlauf Bern", "longitude": 7.4474468, "latitude": 46.9479739, "date": {"dim. 19.06.2011": {"weekday": "sunday", "year": 2011, "categories": {"10-Jun": {"pace": 290000000000, "rank": 7, "distance": 10, "time": 2901.0}}, "day": 19, "month": 6, "livingplace": "Gryon"}}, "location": "Bern"}, "Tour du Chablais #4 Champ\u00e9ry": {"race": "Tour du Chablais #4 Champ\u00e9ry", "date": {"mer. 02.05.2012": {"weekday": "wednesday", "year": 2012, "categories": {"F-F20": {"pace": 285000000000, "rank": 19, "distance": 8, "time": 2367.7}}, "day": 2, "month": 5, "livingplace": "Gryon"}}, "location": "Les Mosses"}, "Tour du Chablais #2 Bex": {"race": "Tour du Chablais #2 Bex", "longitude": 6.854975199999999, "latitude": 46.3835529, "date": {"mer. 18.04.2012": {"weekday": "wednesday", "year": 2012, "categories": {"F-F20": {"pace": 288000000000, "rank": 23, "distance": 8, "time": 2305.0}}, "day": 18, "month": 4, "livingplace": "Gryon"}}, "location": "Bouveret"}, "Tour du Chablais #5 Bex": {"race": "Tour du Chablais #5 Bex", "longitude": 6.931504599999999, "latitude": 46.3603257, "date": {"mer. 09.05.2012": {"weekday": "wednesday", "year": 2012, "categories": {"F-F20": {"pace": 273000000000, "rank": 16, "distance": 9, "time": 2424.3}}, "day": 9, "month": 5, "livingplace": "Gryon"}}, "location": "Roche VD"}, "20km de Lausanne": {"race": "20km de Lausanne", "longitude": 6.6322734, "latitude": 46.5196535, "date": {"sam. 28.04.2012": {"weekday": "saturday", "year": 2012, "categories": {"10-F20": {"pace": 296000000000, "rank": 40, "distance": 10, "time": 2965.1}}, "day": 28, "month": 4, "livingplace": "Gryon"}}, "location": "Lausanne"}}, "name": "Radice Ana\u00efs", "birth": 1992}