{"sex": "M", "races": {"Tour du Chablais #5 Leysin": {"race": "Tour du Chablais #5 Leysin", "longitude": 6.931504599999999, "latitude": 46.3603257, "date": {"mer. 05.05.2010": {"weekday": "wednesday", "year": 2010, "categories": {"M-M20": {"pace": 220000000000, "rank": 4, "distance": 8, "time": 1861.9}}, "day": 5, "month": 5, "livingplace": "Charrat"}}, "location": "Roche VD"}, "Course p\u00e9destre Thyon-Dixence, Thyon": {"race": "Course p\u00e9destre Thyon-Dixence, Thyon", "date": {"dim. 02.08.2015": {"weekday": "sunday", "year": 2015, "categories": {"HomElite": {"pace": 296000000000, "rank": 12, "distance": 16, "time": 4840.5}}, "day": 2, "month": 8, "livingplace": "Charrat"}}, "location": "Thyon-Les Collons"}, "Tour du Chablais #5 Bex": {"race": "Tour du Chablais #5 Bex", "longitude": 6.931504599999999, "latitude": 46.3603257, "date": {"mer. 09.05.2012": {"weekday": "wednesday", "year": 2012, "categories": {"M-M20": {"pace": 188000000000, "rank": 2, "distance": 9, "time": 1671.8}}, "day": 9, "month": 5, "livingplace": "Charrat"}}, "location": "Roche VD"}, "Tour du Chablais #4 Morgins": {"race": "Tour du Chablais #4 Morgins", "date": {"mer. 18.05.2011": {"weekday": "wednesday", "year": 2011, "categories": {"M-M20": {"pace": 208000000000, "rank": 1, "distance": 8, "time": 1739.2}}, "day": 18, "month": 5, "livingplace": "Charrat"}}, "location": "Les Mosses"}, "Tour du Chablais #6 Aigle": {"race": "Tour du Chablais #6 Aigle", "longitude": 6.970566, "latitude": 46.3190253, "date": {"mer. 01.06.2011": {"weekday": "wednesday", "year": 2011, "categories": {"M-M20": {"pace": 193000000000, "rank": 3, "distance": 10, "time": 1970.6}}, "day": 1, "month": 6, "livingplace": "Charrat"}}, "location": "Aigle"}, "Zermatt Marathon, Zermatt": {"race": "Zermatt Marathon, Zermatt", "date": {"sam. 04.07.2015": {"weekday": "saturday", "year": 2015, "categories": {"M-M30": {"pace": 303000000000, "rank": 22, "distance": 42, "time": 12795.3}}, "day": 4, "month": 7, "livingplace": "SUI   Switzerland"}}, "location": "Zermatt"}, "Sierre-Zinal, Sierre": {"race": "Sierre-Zinal, Sierre", "longitude": 7.533536199999999, "latitude": 46.29413110000001, "date": {"dim. 12.08.2012": {"weekday": "sunday", "year": 2012, "categories": {"Elites": {"pace": 337000000000, "rank": 23, "distance": 31, "time": 10454.7}}, "day": 12, "month": 8, "livingplace": "Charrat"}, "dim. 11.08.2013": {"weekday": "sunday", "year": 2013, "categories": {"Elites": {"pace": 356000000000, "rank": 39, "distance": 31, "time": 11054.9}}, "day": 11, "month": 8, "livingplace": "Charrat"}}, "location": "Sierre"}, "Tour du Chablais #3 Bex": {"race": "Tour du Chablais #3 Bex", "longitude": 7.0223787, "latitude": 46.1782231, "date": {"mer. 21.04.2010": {"weekday": "wednesday", "year": 2010, "categories": {"M-M20": {"pace": 203000000000, "rank": 3, "distance": 10, "time": 2030.8}}, "day": 21, "month": 4, "livingplace": "Charrat"}}, "location": "Evionnaz"}, "Tour du Chablais #2 St-Gingolph": {"race": "Tour du Chablais #2 St-Gingolph", "longitude": 6.854975199999999, "latitude": 46.3835529, "date": {"mer. 14.04.2010": {"weekday": "wednesday", "year": 2010, "categories": {"M-M20": {"pace": 211000000000, "rank": 4, "distance": 8, "time": 1763.8}}, "day": 14, "month": 4, "livingplace": "Charrat"}}, "location": "Bouveret"}, "Tour du Chablais #2 Rennaz": {"race": "Tour du Chablais #2 Rennaz", "longitude": 6.854975199999999, "latitude": 46.3835529, "date": {"mer. 04.05.2011": {"weekday": "wednesday", "year": 2011, "categories": {"M-M20": {"pace": 196000000000, "rank": 2, "distance": 9, "time": 1841.0}}, "day": 4, "month": 5, "livingplace": "Charrat"}}, "location": "Bouveret"}, "Tour du Chablais #4 Champ\u00e9ry": {"race": "Tour du Chablais #4 Champ\u00e9ry", "date": {"mer. 02.05.2012": {"weekday": "wednesday", "year": 2012, "categories": {"M-M20": {"pace": 192000000000, "rank": 2, "distance": 8, "time": 1596.4}}, "day": 2, "month": 5, "livingplace": "Charrat"}}, "location": "Les Mosses"}, "Tour du Chablais #6 Monthey": {"race": "Tour du Chablais #6 Monthey", "longitude": 6.970566, "latitude": 46.3190253, "date": {"mer. 08.05.2013": {"weekday": "wednesday", "year": 2013, "categories": {"M-M20": {"pace": 193000000000, "rank": 1, "distance": 9, "time": 1804.7}}, "day": 8, "month": 5, "livingplace": "Charrat"}}, "location": "Aigle"}, "Tour du Chablais #4 Yvorne": {"race": "Tour du Chablais #4 Yvorne", "date": {"mer. 28.04.2010": {"weekday": "wednesday", "year": 2010, "categories": {"M-M20": {"pace": 211000000000, "rank": 3, "distance": 8, "time": 1754.5}}, "day": 28, "month": 4, "livingplace": "Charrat"}}, "location": "Les Mosses"}, "10km de Payerne": {"race": "10km de Payerne", "longitude": 6.9405663, "latitude": 46.8220266, "date": {"sam. 27.03.2010": {"weekday": "saturday", "year": 2010, "categories": {"M Elite": {"pace": 200000000000, "rank": 32, "distance": 10, "time": 2001.3}}, "day": 27, "month": 3, "livingplace": "Charrat"}}, "location": "Payerne"}, "Tour du Chablais #1 Roche": {"race": "Tour du Chablais #1 Roche", "longitude": 6.9916269, "latitude": 46.2957462, "date": {"mer. 07.04.2010": {"weekday": "wednesday", "year": 2010, "categories": {"M-M20": {"pace": 196000000000, "rank": 3, "distance": 9, "time": 1758.8}}, "day": 7, "month": 4, "livingplace": "Charrat"}}, "location": "Ollon VD"}, "Montreux - Les Rochers de Naye": {"race": "Montreux - Les Rochers de Naye", "longitude": 6.9106799, "latitude": 46.4312213, "date": {"dim. 11.07.2010": {"weekday": "sunday", "year": 2010, "categories": {"M-Hom": {"pace": 346000000000, "rank": 21, "distance": 19, "time": 6509.7}}, "day": 11, "month": 7, "livingplace": "Charrat"}, "dim. 10.07.2011": {"weekday": "sunday", "year": 2011, "categories": {"M-HElite": {"pace": 304000000000, "rank": 3, "distance": 19, "time": 5722.5}}, "day": 10, "month": 7, "livingplace": "Charrat"}, "dim. 06.07.2014": {"weekday": "sunday", "year": 2014, "categories": {"M-HElite": {"pace": 304000000000, "rank": 6, "distance": 19, "time": 5716.0}}, "day": 6, "month": 7, "livingplace": "Charrat"}}, "location": "Montreux"}, "Tour du Chablais #6 Mouthey": {"race": "Tour du Chablais #6 Mouthey", "longitude": 6.970566, "latitude": 46.3190253, "date": {"mer. 12.05.2010": {"weekday": "wednesday", "year": 2010, "categories": {"M-M20": {"pace": 215000000000, "rank": 20, "distance": 9, "time": 1977.1}}, "day": 12, "month": 5, "livingplace": "Charrat"}}, "location": "Aigle"}, "Glacier 3000 Run, Gstaad": {"race": "Glacier 3000 Run, Gstaad", "longitude": 7.2865728, "latitude": 46.4717588, "date": {"sam. 09.08.2014": {"weekday": "saturday", "year": 2014, "categories": {"M30": {"pace": 354000000000, "rank": 3, "distance": 26, "time": 9224.4}}, "day": 9, "month": 8, "livingplace": "BCVs Mount Asics Team"}}, "location": "Gstaad"}, "Tour du Chablais #5 Les Mosses": {"race": "Tour du Chablais #5 Les Mosses", "longitude": 6.931504599999999, "latitude": 46.3603257, "date": {"mer. 25.05.2011": {"weekday": "wednesday", "year": 2011, "categories": {"M-M20": {"pace": 203000000000, "rank": 1, "distance": 8, "time": 1630.8}}, "day": 25, "month": 5, "livingplace": "Charrat"}}, "location": "Roche VD"}, "Tour du Chablais #1 Lavey": {"race": "Tour du Chablais #1 Lavey", "longitude": 6.9916269, "latitude": 46.2957462, "date": {"mer. 27.04.2011": {"weekday": "wednesday", "year": 2011, "categories": {"M-M20": {"pace": 196000000000, "rank": 2, "distance": 9, "time": 1770.1}}, "day": 27, "month": 4, "livingplace": "Charrat"}}, "location": "Ollon VD"}, "Tour du Chablais #5 Morgins": {"race": "Tour du Chablais #5 Morgins", "longitude": 6.931504599999999, "latitude": 46.3603257, "date": {"mer. 01.05.2013": {"weekday": "wednesday", "year": 2013, "categories": {"M-M20": {"pace": 201000000000, "rank": 2, "distance": 8, "time": 1534.6}}, "day": 1, "month": 5, "livingplace": "Charrat"}}, "location": "Roche VD"}, "Tour du Chablais #3 Le Bouveret": {"race": "Tour du Chablais #3 Le Bouveret", "longitude": 7.0223787, "latitude": 46.1782231, "date": {"mer. 11.05.2011": {"weekday": "wednesday", "year": 2011, "categories": {"M-M20": {"pace": 197000000000, "rank": 1, "distance": 10, "time": 1970.2}}, "day": 11, "month": 5, "livingplace": "Charrat"}}, "location": "Evionnaz"}}, "name": "Ramuz Pierre-Andr\u00e9", "birth": 1978}