{"sex": "F", "races": {"Tour du Chablais #5 Les Mosses": {"race": "Tour du Chablais #5 Les Mosses", "longitude": 6.931504599999999, "latitude": 46.3603257, "date": {"mer. 25.05.2011": {"weekday": "wednesday", "year": 2011, "categories": {"F-F50": {"pace": 313000000000, "rank": 3, "distance": 8, "time": 2507.9}}, "day": 25, "month": 5, "livingplace": "Leytron"}}, "location": "Roche VD"}, "Tour du Chablais #1 Lavey": {"race": "Tour du Chablais #1 Lavey", "longitude": 6.9916269, "latitude": 46.2957462, "date": {"mer. 27.04.2011": {"weekday": "wednesday", "year": 2011, "categories": {"F-F50": {"pace": 305000000000, "rank": 7, "distance": 9, "time": 2745.6}}, "day": 27, "month": 4, "livingplace": "Leytron"}}, "location": "Ollon VD"}, "Tour du Chablais #3 Le Bouveret": {"race": "Tour du Chablais #3 Le Bouveret", "longitude": 7.0223787, "latitude": 46.1782231, "date": {"mer. 11.05.2011": {"weekday": "wednesday", "year": 2011, "categories": {"F-F50": {"pace": 292000000000, "rank": 4, "distance": 10, "time": 2923.4}}, "day": 11, "month": 5, "livingplace": "Leytron"}}, "location": "Evionnaz"}, "Tour du Chablais #6 Aigle": {"race": "Tour du Chablais #6 Aigle", "longitude": 6.970566, "latitude": 46.3190253, "date": {"mer. 01.06.2011": {"weekday": "wednesday", "year": 2011, "categories": {"F-F50": {"pace": 281000000000, "rank": 4, "distance": 10, "time": 2871.0}}, "day": 1, "month": 6, "livingplace": "Leytron"}}, "location": "Aigle"}, "Tour du Chablais #4 Morgins": {"race": "Tour du Chablais #4 Morgins", "date": {"mer. 18.05.2011": {"weekday": "wednesday", "year": 2011, "categories": {"F-F50": {"pace": 315000000000, "rank": 5, "distance": 8, "time": 2636.4}}, "day": 18, "month": 5, "livingplace": "Leytron"}}, "location": "Les Mosses"}, "Tour du Chablais #2 Rennaz": {"race": "Tour du Chablais #2 Rennaz", "longitude": 6.854975199999999, "latitude": 46.3835529, "date": {"mer. 04.05.2011": {"weekday": "wednesday", "year": 2011, "categories": {"F-F50": {"pace": 290000000000, "rank": 5, "distance": 9, "time": 2714.0}}, "day": 4, "month": 5, "livingplace": "Leytron"}}, "location": "Bouveret"}}, "name": "Ramuz Laurentia", "birth": 1957}