{"sex": "M", "races": {"Tour du Chablais #4 Champ\u00e9ry": {"race": "Tour du Chablais #4 Champ\u00e9ry", "date": {"mer. 02.05.2012": {"weekday": "wednesday", "year": 2012, "categories": {"M-M40": {"pace": 289000000000, "rank": 91, "distance": 8, "time": 2406.1}}, "day": 2, "month": 5, "livingplace": "Corcelles le Jorat"}}, "location": "Les Mosses"}, "Tour du Chablais #2 Bex": {"race": "Tour du Chablais #2 Bex", "longitude": 6.854975199999999, "latitude": 46.3835529, "date": {"mer. 18.04.2012": {"weekday": "wednesday", "year": 2012, "categories": {"M-M40": {"pace": 288000000000, "rank": 96, "distance": 8, "time": 2308.3}}, "day": 18, "month": 4, "livingplace": "Corcelles le Jorat"}}, "location": "Bouveret"}, "Tour du Chablais #6 Montreux": {"race": "Tour du Chablais #6 Montreux", "longitude": 6.970566, "latitude": 46.3190253, "date": {"mer. 16.05.2012": {"weekday": "wednesday", "year": 2012, "categories": {"M-M40": {"pace": 290000000000, "rank": 120, "distance": 9, "time": 2683.1}}, "day": 16, "month": 5, "livingplace": "Corcelles le Jorat"}}, "location": "Aigle"}, "Tour du Chablais #3 Collombey-Muraz": {"race": "Tour du Chablais #3 Collombey-Muraz", "longitude": 7.0223787, "latitude": 46.1782231, "date": {"mer. 25.04.2012": {"weekday": "wednesday", "year": 2012, "categories": {"M-M40": {"pace": 285000000000, "rank": 91, "distance": 9, "time": 2562.7}}, "day": 25, "month": 4, "livingplace": "Corcelles le Jorat"}}, "location": "Evionnaz"}, "Tour du pays de Vaud #1 - Mezi\u00e8res": {"race": "Tour du pays de Vaud #1 - Mezi\u00e8res", "longitude": 6.641183, "latitude": 46.7784736, "date": {"mer. 10.08.2011": {"weekday": "wednesday", "year": 2011, "categories": {"H-Sen2": {"pace": 296000000000, "rank": 121, "distance": 9, "time": 2521.6}}, "day": 10, "month": 8, "livingplace": "Corcelles le Jorat"}}, "location": "Yverdon-les-Bains"}, "Morat-Fribourg": {"race": "Morat-Fribourg", "longitude": 7.120184, "latitude": 46.92922110000001, "date": {"sam. 04.10.2014": {"weekday": "saturday", "year": 2014, "categories": {"17-M40": {"pace": 351000000000, "rank": 619, "distance": 17, "time": 6042.9}}, "day": 4, "month": 10, "livingplace": "Corcelles le Jorat"}}, "location": "Murten"}, "20km de Lausanne": {"race": "20km de Lausanne", "longitude": 6.6322734, "latitude": 46.5196535, "date": {"sam. 30.04.2011": {"weekday": "saturday", "year": 2011, "categories": {"20-H40": {"pace": 308000000000, "rank": 277, "distance": 20, "time": 6163.4}}, "day": 30, "month": 4, "livingplace": "Corcelles le Jorat"}}, "location": "Lausanne"}, "Tour du pays de Vaud #5 - Penthaz": {"race": "Tour du pays de Vaud #5 - Penthaz", "longitude": 6.539251200000001, "latitude": 46.5993131, "date": {"mer. 07.09.2011": {"weekday": "wednesday", "year": 2011, "categories": {"H-Sen2": {"pace": 318000000000, "rank": 88, "distance": 8, "time": 2655.8}}, "day": 7, "month": 9, "livingplace": "Corcelles le Jorat"}}, "location": "Penthaz"}, "Tour du pays de Vaud #6 - St  Prex": {"race": "Tour du pays de Vaud #6 - St  Prex", "longitude": 6.458343500000001, "latitude": 46.4829113, "date": {"mer. 14.09.2011": {"weekday": "wednesday", "year": 2011, "categories": {"H-Sen2": {"pace": 301000000000, "rank": 136, "distance": 9, "time": 2590.8}}, "day": 14, "month": 9, "livingplace": "Corcelles le Jorat"}}, "location": "St-Prex"}, "Tour du Chablais #1 Montreux": {"race": "Tour du Chablais #1 Montreux", "longitude": 6.9916269, "latitude": 46.2957462, "date": {"mer. 11.04.2012": {"weekday": "wednesday", "year": 2012, "categories": {"M-M40": {"pace": 309000000000, "rank": 121, "distance": 8, "time": 2348.8}}, "day": 11, "month": 4, "livingplace": "Corcelles le Jorat"}}, "location": "Ollon VD"}, "Tour du Pays de Vaud #2 - Genolier": {"race": "Tour du Pays de Vaud #2 - Genolier", "longitude": 6.7702883, "latitude": 46.5955273, "date": {"mer. 17.08.2011": {"weekday": "wednesday", "year": 2011, "categories": {"H-Sen2": {"pace": 308000000000, "rank": 105, "distance": 9, "time": 2625.9}}, "day": 17, "month": 8, "livingplace": "Corcelles le Jorat"}}, "location": "M\u00e9zi\u00e8res VD"}, "Tour du Chablais #5 Bex": {"race": "Tour du Chablais #5 Bex", "longitude": 6.931504599999999, "latitude": 46.3603257, "date": {"mer. 09.05.2012": {"weekday": "wednesday", "year": 2012, "categories": {"M-M40": {"pace": 280000000000, "rank": 78, "distance": 9, "time": 2486.7}}, "day": 9, "month": 5, "livingplace": "Corcelles le Jorat"}}, "location": "Roche VD"}, "Tour du Pays de Vaud #3 - Mezi\u00e8res": {"race": "Tour du Pays de Vaud #3 - Mezi\u00e8res", "longitude": 6.641183, "latitude": 46.7784736, "date": {"mer. 22.08.2012": {"weekday": "wednesday", "year": 2012, "categories": {"H-Sen2": {"pace": 332000000000, "rank": 111, "distance": 8, "time": 2789.4}}, "day": 22, "month": 8, "livingplace": "Corcelles le Jorat"}}, "location": "Yverdon-les-Bains"}, "Lausanne Marathon": {"race": "Lausanne Marathon", "longitude": 6.6322734, "latitude": 46.5196535, "date": {"dim. 26.10.2014": {"weekday": "sunday", "year": 2014, "categories": {"10-H40": {"pace": 301000000000, "rank": 302, "distance": 10, "time": 3011.8}}, "day": 26, "month": 10, "livingplace": "Corcelles le Jorat"}, "dim. 31.10.2010": {"weekday": "sunday", "year": 2010, "categories": {"10-H3": {"pace": 273000000000, "rank": 145, "distance": 10, "time": 2733.7}}, "day": 31, "month": 10, "livingplace": "Corcelles le Jorat"}, "dim. 30.10.2011": {"weekday": "sunday", "year": 2011, "categories": {"10-H3": {"pace": 288000000000, "rank": 208, "distance": 10, "time": 2882.9}}, "day": 30, "month": 10, "livingplace": "Corcelles le Jorat"}}, "location": "Lausanne"}, "Tour du Pays de Vaud printanier #3 - Yens": {"race": "Tour du Pays de Vaud printanier #3 - Yens", "longitude": 6.5728678, "latitude": 46.7829756, "date": {"mer. 18.06.2014": {"weekday": "wednesday", "year": 2014, "categories": {"H-Sen2": {"pace": 328000000000, "rank": 64, "distance": 9, "time": 2988.6}}, "day": 18, "month": 6, "livingplace": "Corcelles le Jorat"}}, "location": "Champvent"}, "D\u00e9fi du vignoble, Cully": {"race": "D\u00e9fi du vignoble, Cully", "longitude": -122.6066627, "latitude": 45.565921, "date": {"mer. 14.05.2014": {"weekday": "wednesday", "year": 2014, "categories": {"M40": {"pace": 668000000000, "rank": 42, "distance": 4, "time": 2432.2}}, "day": 14, "month": 5, "livingplace": "Corcelles le Jorat"}}, "location": "Cully"}, "Tour du Pays de Vaud printanier #1 Moudon": {"race": "Tour du Pays de Vaud printanier #1 Moudon", "longitude": 6.2347852, "latitude": 46.3832683, "date": {"mer. 29.05.2013": {"weekday": "wednesday", "year": 2013, "categories": {"H-Sen2": {"pace": 328000000000, "rank": 57, "distance": 8, "time": 2806.1}}, "day": 29, "month": 5, "livingplace": "Corcelles le Jorat"}}, "location": "Nyon"}}, "name": "Ramuz Christian", "birth": 1970}