{"sex": "M", "races": {"Course p\u00e9destre Thyon-Dixence, Thyon": {"race": "Course p\u00e9destre Thyon-Dixence, Thyon", "date": {"dim. 07.08.2011": {"weekday": "sunday", "year": 2011, "categories": {"JH": {"pace": 399000000000, "rank": 7, "distance": 16, "time": 6538.2}}, "day": 7, "month": 8, "livingplace": "Bevaix"}}, "location": "Thyon-Les Collons"}, "BCN Tour Neuch\u00e2tel": {"race": "BCN Tour Neuch\u00e2tel", "longitude": 6.9292732, "latitude": 46.9899874, "date": {"mer. 25.05.2011": {"weekday": "wednesday", "year": 2011, "categories": {"HJ": {"pace": 299000000000, "rank": 35, "distance": 11, "time": 3411.5}}, "day": 25, "month": 5, "livingplace": "Bevaix"}, "mer. 26.05.2010": {"weekday": "wednesday", "year": 2010, "categories": {"HJ": {"pace": 273000000000, "rank": 10, "distance": 10, "time": 2655.8}}, "day": 26, "month": 5, "livingplace": "Bevaix"}, "mer. 30.05.2012": {"weekday": "wednesday", "year": 2012, "categories": {"HJ": {"pace": 273000000000, "rank": 12, "distance": 11, "time": 3057.8}}, "day": 30, "month": 5, "livingplace": "Bevaix"}}, "location": "Neuch\u00e2tel"}, "BCN Tour Le Landeron": {"race": "BCN Tour Le Landeron", "longitude": 6.8589727, "latitude": 46.9668714, "date": {"mer. 22.04.2009": {"weekday": "wednesday", "year": 2009, "categories": {"HJ": {"pace": 279000000000, "rank": 12, "distance": 11, "time": 3102.4}}, "day": 22, "month": 4, "livingplace": "Bevaix"}}, "location": "Colombier NE"}, "BCN Tour Boudry": {"race": "BCN Tour Boudry", "longitude": 6.8589727, "latitude": 46.9668714, "date": {"mer. 26.04.2006": {"weekday": "wednesday", "year": 2006, "categories": {"KG3": {"pace": 254000000000, "rank": 26, "distance": 3, "time": 839.7}}, "day": 26, "month": 4, "livingplace": "Bevaix"}}, "location": "Colombier NE"}, "BCN Tour Ponts-de-Martel": {"race": "BCN Tour Ponts-de-Martel", "longitude": 6.9175754, "latitude": 47.0624261, "date": {"mer. 28.04.2010": {"weekday": "wednesday", "year": 2010, "categories": {"HJ": {"pace": 252000000000, "rank": 5, "distance": 11, "time": 2829.5}}, "day": 28, "month": 4, "livingplace": "Bevaix"}}, "location": "Ch\u00e9zard-St-Martin"}, "BCN Tour M\u00f4tier": {"race": "BCN Tour M\u00f4tier", "longitude": 6.6324944, "latitude": 46.9262933, "date": {"mer. 19.05.2010": {"weekday": "wednesday", "year": 2010, "categories": {"HJ": {"pace": 235000000000, "rank": 5, "distance": 10, "time": 2335.3}}, "day": 19, "month": 5, "livingplace": "Bevaix"}}, "location": "Couvet"}, "Kerzerslauf": {"race": "Kerzerslauf", "longitude": 7.1954365, "latitude": 46.97488999999999, "date": {"sam. 20.03.2004": {"weekday": "saturday", "year": 2004, "categories": {"M11": {"pace": 233000000000, "rank": 24, "distance": 1, "time": 327.4}}, "day": 20, "month": 3, "livingplace": "Bevaix"}}, "location": "Kerzers"}, "Morat-Fribourg": {"race": "Morat-Fribourg", "longitude": 7.120184, "latitude": 46.92922110000001, "date": {"dim. 06.10.2002": {"weekday": "sunday", "year": 2002, "categories": {"EMC": {"pace": 279000000000, "rank": 20, "distance": 1, "time": 335.5}}, "day": 6, "month": 10, "livingplace": "Bevaix"}, "dim. 05.10.2003": {"weekday": "sunday", "year": 2003, "categories": {"EMB": {"pace": 268000000000, "rank": 46, "distance": 2, "time": 563.5}}, "day": 5, "month": 10, "livingplace": "Bevaix"}}, "location": "Murten"}, "BCN Tour Colombier": {"race": "BCN Tour Colombier", "longitude": 6.8589727, "latitude": 46.9668714, "date": {"mer. 21.04.2010": {"weekday": "wednesday", "year": 2010, "categories": {"HJ": {"pace": 271000000000, "rank": 5, "distance": 10, "time": 2713.2}}, "day": 21, "month": 4, "livingplace": "Bevaix"}}, "location": "Colombier NE"}, "BCN Tour Le Locle": {"race": "BCN Tour Le Locle", "longitude": 6.733554799999999, "latitude": 46.999113, "date": {"mer. 05.05.2010": {"weekday": "wednesday", "year": 2010, "categories": {"HJ": {"pace": 239000000000, "rank": 3, "distance": 11, "time": 2615.5}}, "day": 5, "month": 5, "livingplace": "Bevaix"}}, "location": "Les Ponts-de-Martel"}, "BCN Tour La Chaux-de-fonds": {"race": "BCN Tour La Chaux-de-fonds", "longitude": 6.832783800000001, "latitude": 47.1034892, "date": {"mer. 12.05.2010": {"weekday": "wednesday", "year": 2010, "categories": {"HJ": {"pace": 306000000000, "rank": 9, "distance": 11, "time": 3279.5}}, "day": 12, "month": 5, "livingplace": "Bevaix"}}, "location": "La Chaux-de-Fonds"}}, "name": "Ravier Jimmy", "birth": 1993}