{"sex": "F", "races": {"Tour du Chablais #6 Montreux": {"race": "Tour du Chablais #6 Montreux", "longitude": 6.970566, "latitude": 46.3190253, "date": {"mer. 16.05.2012": {"weekday": "wednesday", "year": 2012, "categories": {"F-F50": {"pace": 275000000000, "rank": 5, "distance": 9, "time": 2552.4}}, "day": 16, "month": 5, "livingplace": "Aigle"}}, "location": "Aigle"}, "Tour du Chablais #4 Champ\u00e9ry": {"race": "Tour du Chablais #4 Champ\u00e9ry", "date": {"mer. 02.05.2012": {"weekday": "wednesday", "year": 2012, "categories": {"F-F50": {"pace": 288000000000, "rank": 7, "distance": 8, "time": 2395.2}}, "day": 2, "month": 5, "livingplace": "Aigle"}}, "location": "Les Mosses"}, "Tour du Chablais #4 Morgins": {"race": "Tour du Chablais #4 Morgins", "date": {"mer. 18.05.2011": {"weekday": "wednesday", "year": 2011, "categories": {"F-F50": {"pace": 314000000000, "rank": 4, "distance": 8, "time": 2623.4}}, "day": 18, "month": 5, "livingplace": "Aigle"}}, "location": "Les Mosses"}, "Tour du Chablais #4 Yvorne": {"race": "Tour du Chablais #4 Yvorne", "date": {"mer. 28.04.2010": {"weekday": "wednesday", "year": 2010, "categories": {"F-F50": {"pace": 297000000000, "rank": 4, "distance": 8, "time": 2463.1}}, "day": 28, "month": 4, "livingplace": "Aigle"}}, "location": "Les Mosses"}, "Tour du Chablais #1 Roche": {"race": "Tour du Chablais #1 Roche", "longitude": 6.9916269, "latitude": 46.2957462, "date": {"mer. 07.04.2010": {"weekday": "wednesday", "year": 2010, "categories": {"F-F50": {"pace": 276000000000, "rank": 4, "distance": 9, "time": 2471.1}}, "day": 7, "month": 4, "livingplace": "Aigle"}}, "location": "Ollon VD"}, "Tour du Chablais #3 Collombey-Muraz": {"race": "Tour du Chablais #3 Collombey-Muraz", "longitude": 7.0223787, "latitude": 46.1782231, "date": {"mer. 25.04.2012": {"weekday": "wednesday", "year": 2012, "categories": {"F-F50": {"pace": 289000000000, "rank": 6, "distance": 9, "time": 2596.5}}, "day": 25, "month": 4, "livingplace": "Aigle"}}, "location": "Evionnaz"}, "Tour du Chablais #2 Bex": {"race": "Tour du Chablais #2 Bex", "longitude": 6.854975199999999, "latitude": 46.3835529, "date": {"mer. 18.04.2012": {"weekday": "wednesday", "year": 2012, "categories": {"F-F50": {"pace": 287000000000, "rank": 6, "distance": 8, "time": 2301.7}}, "day": 18, "month": 4, "livingplace": "Aigle"}}, "location": "Bouveret"}, "Morat-Fribourg": {"race": "Morat-Fribourg", "longitude": 7.120184, "latitude": 46.92922110000001, "date": {"dim. 05.10.2003": {"weekday": "sunday", "year": 2003, "categories": {"W45": {"pace": 287000000000, "rank": 8, "distance": 17, "time": 4944.4}}, "day": 5, "month": 10, "livingplace": "Aigle"}, "sam. 02.10.2010": {"weekday": "saturday", "year": 2010, "categories": {"17-W50": {"pace": 318000000000, "rank": 20, "distance": 17, "time": 5468.2}}, "day": 2, "month": 10, "livingplace": "Aigle"}}, "location": "Murten"}, "Tour du Chablais #6 Aigle": {"race": "Tour du Chablais #6 Aigle", "longitude": 6.970566, "latitude": 46.3190253, "date": {"mer. 01.06.2011": {"weekday": "wednesday", "year": 2011, "categories": {"F-F50": {"pace": 290000000000, "rank": 5, "distance": 10, "time": 2965.8}}, "day": 1, "month": 6, "livingplace": "Aigle"}}, "location": "Aigle"}, "20km de Lausanne": {"race": "20km de Lausanne", "longitude": 6.6322734, "latitude": 46.5196535, "date": {"sam. 30.04.2011": {"weekday": "saturday", "year": 2011, "categories": {"20-F50": {"pace": 330000000000, "rank": 19, "distance": 20, "time": 6607.8}}, "day": 30, "month": 4, "livingplace": "Aigle"}}, "location": "Lausanne"}, "Tour du Chablais #6 Mouthey": {"race": "Tour du Chablais #6 Mouthey", "longitude": 6.970566, "latitude": 46.3190253, "date": {"mer. 12.05.2010": {"weekday": "wednesday", "year": 2010, "categories": {"F-F50": {"pace": 271000000000, "rank": 4, "distance": 9, "time": 2494.0}}, "day": 12, "month": 5, "livingplace": "Aigle"}}, "location": "Aigle"}, "Tour du Chablais #5 Leysin": {"race": "Tour du Chablais #5 Leysin", "longitude": 6.931504599999999, "latitude": 46.3603257, "date": {"mer. 05.05.2010": {"weekday": "wednesday", "year": 2010, "categories": {"F-F50": {"pace": 305000000000, "rank": 4, "distance": 8, "time": 2583.3}}, "day": 5, "month": 5, "livingplace": "Aigle"}}, "location": "Roche VD"}, "Tour du Chablais #5 Les Mosses": {"race": "Tour du Chablais #5 Les Mosses", "longitude": 6.931504599999999, "latitude": 46.3603257, "date": {"mer. 25.05.2011": {"weekday": "wednesday", "year": 2011, "categories": {"F-F50": {"pace": 319000000000, "rank": 6, "distance": 8, "time": 2555.6}}, "day": 25, "month": 5, "livingplace": "Aigle"}}, "location": "Roche VD"}, "Tour du Chablais #1 Lavey": {"race": "Tour du Chablais #1 Lavey", "longitude": 6.9916269, "latitude": 46.2957462, "date": {"mer. 27.04.2011": {"weekday": "wednesday", "year": 2011, "categories": {"F-F50": {"pace": 289000000000, "rank": 5, "distance": 9, "time": 2603.1}}, "day": 27, "month": 4, "livingplace": "Aigle"}}, "location": "Ollon VD"}, "Tour du Chablais #5 Bex": {"race": "Tour du Chablais #5 Bex", "longitude": 6.931504599999999, "latitude": 46.3603257, "date": {"mer. 09.05.2012": {"weekday": "wednesday", "year": 2012, "categories": {"F-F50": {"pace": 279000000000, "rank": 7, "distance": 9, "time": 2478.2}}, "day": 9, "month": 5, "livingplace": "Aigle"}}, "location": "Roche VD"}, "Tour du Chablais #3 Bex": {"race": "Tour du Chablais #3 Bex", "longitude": 7.0223787, "latitude": 46.1782231, "date": {"mer. 21.04.2010": {"weekday": "wednesday", "year": 2010, "categories": {"F-F50": {"pace": 284000000000, "rank": 5, "distance": 10, "time": 2846.4}}, "day": 21, "month": 4, "livingplace": "Aigle"}}, "location": "Evionnaz"}, "Tour du Chablais #1 Montreux": {"race": "Tour du Chablais #1 Montreux", "longitude": 6.9916269, "latitude": 46.2957462, "date": {"mer. 11.04.2012": {"weekday": "wednesday", "year": 2012, "categories": {"F-F50": {"pace": 308000000000, "rank": 5, "distance": 8, "time": 2346.9}}, "day": 11, "month": 4, "livingplace": "Aigle"}}, "location": "Ollon VD"}, "Tour du Chablais #3 Le Bouveret": {"race": "Tour du Chablais #3 Le Bouveret", "longitude": 7.0223787, "latitude": 46.1782231, "date": {"mer. 11.05.2011": {"weekday": "wednesday", "year": 2011, "categories": {"F-F50": {"pace": 305000000000, "rank": 5, "distance": 10, "time": 3051.7}}, "day": 11, "month": 5, "livingplace": "Aigle"}}, "location": "Evionnaz"}, "Tour du Chablais #2 St-Gingolph": {"race": "Tour du Chablais #2 St-Gingolph", "longitude": 6.854975199999999, "latitude": 46.3835529, "date": {"mer. 14.04.2010": {"weekday": "wednesday", "year": 2010, "categories": {"F-F50": {"pace": 299000000000, "rank": 2, "distance": 8, "time": 2502.5}}, "day": 14, "month": 4, "livingplace": "Aigle"}}, "location": "Bouveret"}, "Tour du Chablais #2 Rennaz": {"race": "Tour du Chablais #2 Rennaz", "longitude": 6.854975199999999, "latitude": 46.3835529, "date": {"mer. 04.05.2011": {"weekday": "wednesday", "year": 2011, "categories": {"F-F50": {"pace": 298000000000, "rank": 6, "distance": 9, "time": 2786.3}}, "day": 4, "month": 5, "livingplace": "Aigle"}}, "location": "Bouveret"}}, "name": "Ravussin-Ischi Isabelle", "birth": 1958}