{"sex": "M", "races": {"BCN Tour #4 Fleurier": {"race": "BCN Tour #4 Fleurier", "longitude": 6.832783800000001, "latitude": 47.1034892, "date": {"mer. 15.05.2013": {"weekday": "wednesday", "year": 2013, "categories": {"HS1": {"pace": 220000000000, "rank": 4, "distance": 9, "time": 1906.1}}, "day": 15, "month": 5, "livingplace": "Fleurier"}}, "location": "La Chaux-de-Fonds"}, "BCN Tour #3 Dombresson": {"race": "BCN Tour #3 Dombresson", "longitude": 6.733554799999999, "latitude": 46.999113, "date": {"mer. 08.05.2013": {"weekday": "wednesday", "year": 2013, "categories": {"HS1": {"pace": 214000000000, "rank": 5, "distance": 10, "time": 2123.0}}, "day": 8, "month": 5, "livingplace": "Fleurier"}}, "location": "Les Ponts-de-Martel"}, "BCN Tour #1 Corcelles": {"race": "BCN Tour #1 Corcelles", "longitude": 6.8589727, "latitude": 46.9668714, "date": {"mer. 24.04.2013": {"weekday": "wednesday", "year": 2013, "categories": {"HS1": {"pace": 222000000000, "rank": 5, "distance": 10, "time": 2177.6}}, "day": 24, "month": 4, "livingplace": "Fleurier"}}, "location": "Colombier NE"}, "La Trotteuse-Tissot, La Chaux-de-Fonds": {"race": "La Trotteuse-Tissot, La Chaux-de-Fonds", "longitude": 6.832783800000001, "latitude": 47.1034892, "date": {"sam. 12.12.2015": {"weekday": "saturday", "year": 2015, "categories": {"GC-H30": {"pace": 199000000000, "rank": 2, "distance": 8, "time": 1592.4}}, "day": 12, "month": 12, "livingplace": "La Chaux de Fonds"}}, "location": "La Chaux-de-Fonds"}, "D\u00e9fi Val-de-Travers, Couvet": {"race": "D\u00e9fi Val-de-Travers, Couvet", "longitude": 6.6324944, "latitude": 46.9262933, "date": {"sam. 19.06.2010": {"weekday": "saturday", "year": 2010, "categories": {"21-Hom": {"pace": 262000000000, "rank": 5, "distance": 20, "time": 5176.1}}, "day": 19, "month": 6, "livingplace": "Fleurier"}}, "location": "Couvet"}, "BCN Tour Boudry": {"race": "BCN Tour Boudry", "longitude": 6.8589727, "latitude": 46.9668714, "date": {"mer. 26.04.2006": {"weekday": "wednesday", "year": 2006, "categories": {"HE": {"pace": 224000000000, "rank": 9, "distance": 10, "time": 2289.6}}, "day": 26, "month": 4, "livingplace": "Fleurier"}}, "location": "Colombier NE"}, "Morat-Fribourg": {"race": "Morat-Fribourg", "longitude": 7.120184, "latitude": 46.92922110000001, "date": {"sam. 03.10.2009": {"weekday": "saturday", "year": 2009, "categories": {"C-M20": {"pace": 233000000000, "rank": 42, "distance": 17, "time": 4012.0}}, "day": 3, "month": 10, "livingplace": "Fleurier"}, "sam. 03.10.2015": {"weekday": "saturday", "year": 2015, "categories": {"17-M20": {"pace": 209000000000, "rank": 16, "distance": 17, "time": 3597.7}}, "day": 3, "month": 10, "livingplace": "La Chaux de Fonds"}}, "location": "Murten"}, "BCN Tour #5 Colombier": {"race": "BCN Tour #5 Colombier", "longitude": 6.6324944, "latitude": 46.9262933, "date": {"mer. 22.05.2013": {"weekday": "wednesday", "year": 2013, "categories": {"HS1": {"pace": 200000000000, "rank": 4, "distance": 11, "time": 2109.5}}, "day": 22, "month": 5, "livingplace": "Fleurier"}}, "location": "Couvet"}, "20km de Lausanne": {"race": "20km de Lausanne", "longitude": 6.6322734, "latitude": 46.5196535, "date": {"sam. 25.04.2015": {"weekday": "saturday", "year": 2015, "categories": {"20-H30": {"pace": 205000000000, "rank": 4, "distance": 20, "time": 4108.0}}, "day": 25, "month": 4, "livingplace": "Les Rugueux"}}, "location": "Lausanne"}, "BCN Tour #2 La Chaux-de-Fonds": {"race": "BCN Tour #2 La Chaux-de-Fonds", "longitude": 6.9175754, "latitude": 47.0624261, "date": {"mer. 01.05.2013": {"weekday": "wednesday", "year": 2013, "categories": {"HS1": {"pace": 212000000000, "rank": 4, "distance": 11, "time": 2273.5}}, "day": 1, "month": 5, "livingplace": "Fleurier"}}, "location": "Ch\u00e9zard-St-Martin"}, "BCN Tour Neuch\u00e2tel": {"race": "BCN Tour Neuch\u00e2tel", "longitude": 6.9292732, "latitude": 46.9899874, "date": {"mer. 26.05.2010": {"weekday": "wednesday", "year": 2010, "categories": {"HE": {"pace": 237000000000, "rank": 7, "distance": 10, "time": 2300.5}}, "day": 26, "month": 5, "livingplace": "Fleurier"}}, "location": "Neuch\u00e2tel"}, "BCN Tour #6 Neuch\u00e2tel": {"race": "BCN Tour #6 Neuch\u00e2tel", "longitude": 6.9292732, "latitude": 46.9899874, "date": {"mer. 29.05.2013": {"weekday": "wednesday", "year": 2013, "categories": {"HS1": {"pace": 218000000000, "rank": 2, "distance": 11, "time": 2400.7}}, "day": 29, "month": 5, "livingplace": "Fleurier"}}, "location": "Neuch\u00e2tel"}, "Lausanne Marathon": {"race": "Lausanne Marathon", "longitude": 6.6322734, "latitude": 46.5196535, "date": {"sam. 24.10.2015": {"weekday": "saturday", "year": 2015, "categories": {"21-H30": {"pace": 204000000000, "rank": 5, "distance": 21, "time": 4324.3}}, "day": 24, "month": 10, "livingplace": "La Chaux de Fonds"}}, "location": "Lausanne"}, "Les Traine-Savates, Cheseaux-sur-Lausanne": {"race": "Les Traine-Savates, Cheseaux-sur-Lausanne", "longitude": 6.6047712, "latitude": 46.585452, "date": {"sam. 04.04.2009": {"weekday": "saturday", "year": 2009, "categories": {"Hom Sen": {"pace": 228000000000, "rank": 24, "distance": 10, "time": 2374.5}}, "day": 4, "month": 4, "livingplace": "Fleurier"}, "sam. 18.04.2015": {"weekday": "saturday", "year": 2015, "categories": {"10-M20": {"pace": 204000000000, "rank": 4, "distance": 10, "time": 2109.2}}, "day": 18, "month": 4, "livingplace": "La Chaux de Fonds"}}, "location": "Cheseaux-sur-Lausanne"}, "Aletsch-Halbmarathon, Bettmeralp": {"race": "Aletsch-Halbmarathon, Bettmeralp", "date": {"dim. 28.06.2015": {"weekday": "sunday", "year": 2015, "categories": {"M20": {"pace": 301000000000, "rank": 9, "distance": 21, "time": 6367.6}}, "day": 28, "month": 6, "livingplace": "Les Rugueux"}}, "location": "Bettmeralp"}}, "name": "Raya Jonathan", "birth": 1982}