{"sex": "M", "races": {"Int Greifenseelauf, Uster": {"race": "Int Greifenseelauf, Uster", "longitude": 8.717873899999999, "latitude": 47.3482747, "date": {"sam. 17.09.2005": {"weekday": "saturday", "year": 2005, "categories": {"K/M20": {"pace": 237000000000, "rank": 10, "distance": 6, "time": 1470.0}}, "day": 17, "month": 9, "livingplace": "Untersiggenthal"}}, "location": "Uster"}, "Glacier 3000 Run, Gstaad": {"race": "Glacier 3000 Run, Gstaad", "longitude": 7.2865728, "latitude": 46.4717588, "date": {"sam. 08.08.2015": {"weekday": "saturday", "year": 2015, "categories": {"M30": {"pace": 567000000000, "rank": 67, "distance": 26, "time": 14751.4}}, "day": 8, "month": 8, "livingplace": "Spiez"}}, "location": "Gstaad"}, "Bl\u00fcemlisalp-Lauf, Reichenbach": {"race": "Bl\u00fcemlisalp-Lauf, Reichenbach", "longitude": 7.6940529, "latitude": 46.6254387, "date": {"dim. 24.05.2015": {"weekday": "sunday", "year": 2015, "categories": {"M30": {"pace": 354000000000, "rank": 50, "distance": 16, "time": 5708.7}}, "day": 24, "month": 5, "livingplace": "Spiez"}, "dim. 25.05.2014": {"weekday": "sunday", "year": 2014, "categories": {"M30": {"pace": 356000000000, "rank": 53, "distance": 16, "time": 5738.5}}, "day": 25, "month": 5, "livingplace": "Spiez"}}, "location": "Reichenbach im Kandertal"}, "Aletsch-Halbmarathon, Bettmeralp": {"race": "Aletsch-Halbmarathon, Bettmeralp", "date": {"dim. 28.06.2015": {"weekday": "sunday", "year": 2015, "categories": {"M20": {"pace": 413000000000, "rank": 146, "distance": 21, "time": 8716.4}}, "day": 28, "month": 6, "livingplace": "Spiez"}}, "location": "Bettmeralp"}, "ASICS Bremgarter Reusslauf": {"race": "ASICS Bremgarter Reusslauf", "longitude": 8.3397905, "latitude": 47.34917739999999, "date": {"sam. 25.02.2006": {"weekday": "saturday", "year": 2006, "categories": {"M20": {"pace": 232000000000, "rank": 50, "distance": 11, "time": 2443.4}}, "day": 25, "month": 2, "livingplace": "Untersiggenthal"}}, "location": "Bremgarten AG"}, "Kerzerslauf": {"race": "Kerzerslauf", "longitude": 7.1954365, "latitude": 46.97488999999999, "date": {"sam. 16.03.2013": {"weekday": "saturday", "year": 2013, "categories": {"15-M20": {"pace": 242000000000, "rank": 109, "distance": 15, "time": 3633.8}}, "day": 16, "month": 3, "livingplace": "Spiez"}}, "location": "Kerzers"}, "Lausanne Marathon": {"race": "Lausanne Marathon", "longitude": 6.6322734, "latitude": 46.5196535, "date": {"dim. 26.10.2014": {"weekday": "sunday", "year": 2014, "categories": {"42-H30": {"pace": 355000000000, "rank": 189, "distance": 42, "time": 14985.3}}, "day": 26, "month": 10, "livingplace": "Spiez"}, "dim. 31.10.2010": {"weekday": "sunday", "year": 2010, "categories": {"42-H1": {"pace": 305000000000, "rank": 47, "distance": 42, "time": 12871.1}}, "day": 31, "month": 10, "livingplace": "Spiez"}, "sam. 24.10.2015": {"weekday": "saturday", "year": 2015, "categories": {"42-H30": {"pace": 300000000000, "rank": 89, "distance": 42, "time": 12681.2}}, "day": 24, "month": 10, "livingplace": "Spiez"}}, "location": "Lausanne"}, "20km de Lausanne": {"race": "20km de Lausanne", "longitude": 6.6322734, "latitude": 46.5196535, "date": {"sam. 26.04.2014": {"weekday": "saturday", "year": 2014, "categories": {"20-H30": {"pace": 259000000000, "rank": 123, "distance": 20, "time": 5180.7}}, "day": 26, "month": 4, "livingplace": "Spiez"}}, "location": "Lausanne"}, "Z\u00fcrcher Silvesterlauf, Z\u00fcrich": {"race": "Z\u00fcrcher Silvesterlauf, Z\u00fcrich", "longitude": 8.541694, "latitude": 47.3768866, "date": {"dim. 15.12.2013": {"weekday": "sunday", "year": 2013, "categories": {"10-M30": {"pace": 237000000000, "rank": 119, "distance": 10, "time": 2375.1}}, "day": 15, "month": 12, "livingplace": "Spiez"}}, "location": "Z\u00fcrich"}}, "name": "Rechsteiner Thomas", "birth": 1982}