{"sex": "M", "races": {"Course de l'Escalade, Gen\u00e8ve": {"race": "Course de l'Escalade, Gen\u00e8ve", "longitude": 6.1431577, "latitude": 46.2043907, "date": {"sam. 05.12.2009": {"weekday": "saturday", "year": 2009, "categories": {"Hommes3": {"pace": 365000000000, "rank": 1778, "distance": 7, "time": 2648.0}}, "day": 5, "month": 12, "livingplace": "Noville"}}, "location": "Gen\u00e8ve"}, "Tour du Chablais #1 Montreux": {"race": "Tour du Chablais #1 Montreux", "longitude": 6.9916269, "latitude": 46.2957462, "date": {"mer. 11.04.2012": {"weekday": "wednesday", "year": 2012, "categories": {"M-M50": {"pace": 406000000000, "rank": 98, "distance": 8, "time": 3087.3}}, "day": 11, "month": 4, "livingplace": "Noville"}}, "location": "Ollon VD"}, "Tour du Chablais #1 Lavey": {"race": "Tour du Chablais #1 Lavey", "longitude": 6.9916269, "latitude": 46.2957462, "date": {"mer. 27.04.2011": {"weekday": "wednesday", "year": 2011, "categories": {"M-M40": {"pace": 370000000000, "rank": 168, "distance": 9, "time": 3330.6}}, "day": 27, "month": 4, "livingplace": "Noville"}}, "location": "Ollon VD"}, "Tour du Chablais #4 Champ\u00e9ry": {"race": "Tour du Chablais #4 Champ\u00e9ry", "date": {"mer. 02.05.2012": {"weekday": "wednesday", "year": 2012, "categories": {"M-M50": {"pace": 386000000000, "rank": 85, "distance": 8, "time": 3205.0}}, "day": 2, "month": 5, "livingplace": "Noville"}}, "location": "Les Mosses"}, "Tour du Chablais #2 Bex": {"race": "Tour du Chablais #2 Bex", "longitude": 6.854975199999999, "latitude": 46.3835529, "date": {"mer. 18.04.2012": {"weekday": "wednesday", "year": 2012, "categories": {"M-M50": {"pace": 368000000000, "rank": 86, "distance": 8, "time": 2951.3}}, "day": 18, "month": 4, "livingplace": "Noville"}}, "location": "Bouveret"}, "Tour du Chablais #3 Le Bouveret": {"race": "Tour du Chablais #3 Le Bouveret", "longitude": 7.0223787, "latitude": 46.1782231, "date": {"mer. 11.05.2011": {"weekday": "wednesday", "year": 2011, "categories": {"M-M40": {"pace": 369000000000, "rank": 175, "distance": 10, "time": 3699.9}}, "day": 11, "month": 5, "livingplace": "Noville"}}, "location": "Evionnaz"}, "Tour du Chablais #5 Bex": {"race": "Tour du Chablais #5 Bex", "longitude": 6.931504599999999, "latitude": 46.3603257, "date": {"mer. 09.05.2012": {"weekday": "wednesday", "year": 2012, "categories": {"M-M50": {"pace": 364000000000, "rank": 78, "distance": 9, "time": 3226.2}}, "day": 9, "month": 5, "livingplace": "Noville"}}, "location": "Roche VD"}, "Tour du Chablais #6 Montreux": {"race": "Tour du Chablais #6 Montreux", "longitude": 6.970566, "latitude": 46.3190253, "date": {"mer. 16.05.2012": {"weekday": "wednesday", "year": 2012, "categories": {"M-M50": {"pace": 347000000000, "rank": 99, "distance": 9, "time": 3210.4}}, "day": 16, "month": 5, "livingplace": "Noville"}}, "location": "Aigle"}}, "name": "Resin Pascal", "birth": 1962}