{"sex": "F", "races": {"Corrida Bulloise, Bulle": {"race": "Corrida Bulloise, Bulle", "longitude": 7.057726799999999, "latitude": 46.6154512, "date": {"sam. 19.11.2011": {"weekday": "saturday", "year": 2011, "categories": {"F20": {"pace": 268000000000, "rank": 32, "distance": 6, "time": 1648.2}}, "day": 19, "month": 11, "livingplace": "Sion"}}, "location": "Bulle"}, "Tour du Chablais #1 Montreux": {"race": "Tour du Chablais #1 Montreux", "longitude": 6.9916269, "latitude": 46.2957462, "date": {"mer. 11.04.2012": {"weekday": "wednesday", "year": 2012, "categories": {"F-F20": {"pace": 274000000000, "rank": 11, "distance": 8, "time": 2085.0}}, "day": 11, "month": 4, "livingplace": "Sion"}}, "location": "Ollon VD"}, "Aletsch-Halbmarathon, Bettmeralp": {"race": "Aletsch-Halbmarathon, Bettmeralp", "date": {"dim. 27.06.2010": {"weekday": "sunday", "year": 2010, "categories": {"F20": {"pace": 457000000000, "rank": 21, "distance": 21, "time": 9601.5}}, "day": 27, "month": 6, "livingplace": "Sion"}}, "location": "Bettmeralp"}, "Schweizer Frauenlauf Bern": {"race": "Schweizer Frauenlauf Bern", "longitude": 7.4474468, "latitude": 46.9479739, "date": {"dim. 10.06.2012": {"weekday": "sunday", "year": 2012, "categories": {"5-W20": {"pace": 248000000000, "rank": 14, "distance": 5, "time": 1242.9}}, "day": 10, "month": 6, "livingplace": "Sion"}}, "location": "Bern"}, "Tour du Chablais #4 Champ\u00e9ry": {"race": "Tour du Chablais #4 Champ\u00e9ry", "date": {"mer. 02.05.2012": {"weekday": "wednesday", "year": 2012, "categories": {"F-F20": {"pace": 265000000000, "rank": 9, "distance": 8, "time": 2201.9}}, "day": 2, "month": 5, "livingplace": "Sion"}}, "location": "Les Mosses"}, "Tour du Chablais #2 Bex": {"race": "Tour du Chablais #2 Bex", "longitude": 6.854975199999999, "latitude": 46.3835529, "date": {"mer. 18.04.2012": {"weekday": "wednesday", "year": 2012, "categories": {"F-F20": {"pace": 267000000000, "rank": 8, "distance": 8, "time": 2140.3}}, "day": 18, "month": 4, "livingplace": "Sion"}}, "location": "Bouveret"}, "Tour du Chablais #5 Bex": {"race": "Tour du Chablais #5 Bex", "longitude": 6.931504599999999, "latitude": 46.3603257, "date": {"mer. 09.05.2012": {"weekday": "wednesday", "year": 2012, "categories": {"F-F20": {"pace": 252000000000, "rank": 11, "distance": 9, "time": 2237.6}}, "day": 9, "month": 5, "livingplace": "Sion"}}, "location": "Roche VD"}, "Tour du Chablais #6 Montreux": {"race": "Tour du Chablais #6 Montreux", "longitude": 6.970566, "latitude": 46.3190253, "date": {"mer. 16.05.2012": {"weekday": "wednesday", "year": 2012, "categories": {"F-F20": {"pace": 256000000000, "rank": 8, "distance": 9, "time": 2373.1}}, "day": 16, "month": 5, "livingplace": "Sion"}}, "location": "Aigle"}, "Tour du Chablais #3 Collombey-Muraz": {"race": "Tour du Chablais #3 Collombey-Muraz", "longitude": 7.0223787, "latitude": 46.1782231, "date": {"mer. 25.04.2012": {"weekday": "wednesday", "year": 2012, "categories": {"F-F20": {"pace": 262000000000, "rank": 8, "distance": 9, "time": 2357.6}}, "day": 25, "month": 4, "livingplace": "Sion"}}, "location": "Evionnaz"}, "20km de Lausanne": {"race": "20km de Lausanne", "longitude": 6.6322734, "latitude": 46.5196535, "date": {"sam. 24.04.2010": {"weekday": "saturday", "year": 2010, "categories": {"10-F20": {"pace": 279000000000, "rank": 11, "distance": 10, "time": 2797.5}}, "day": 24, "month": 4, "livingplace": "Sion"}, "sam. 30.04.2011": {"weekday": "saturday", "year": 2011, "categories": {"20-F20": {"pace": 285000000000, "rank": 7, "distance": 20, "time": 5716.9}}, "day": 30, "month": 4, "livingplace": "Sion"}}, "location": "Lausanne"}, "Jungfrau-Marathon, Interlaken": {"race": "Jungfrau-Marathon, Interlaken", "date": {"sam. 08.09.2012": {"weekday": "saturday", "year": 2012, "categories": {"SA-F20": {"pace": 420000000000, "rank": 126, "distance": 42, "time": 17723.7}}, "day": 8, "month": 9, "livingplace": "Sion"}}, "location": "Interlaken"}}, "name": "Reuse Nour", "birth": 1983}