{"sex": "M", "races": {"Int Greifenseelauf, Uster": {"race": "Int Greifenseelauf, Uster", "longitude": 8.717873899999999, "latitude": 47.3482747, "date": {"sam. 19.09.2009": {"weekday": "saturday", "year": 2009, "categories": {"H-M55": {"pace": 333000000000, "rank": 180, "distance": 21, "time": 7041.8}}, "day": 19, "month": 9, "livingplace": "Hunzenschwil"}}, "location": "Uster"}, "Dreil\u00e4nder-Lauf, Basel": {"race": "Dreil\u00e4nder-Lauf, Basel", "longitude": 7.5885761, "latitude": 47.5595986, "date": {"dim. 16.05.2010": {"weekday": "sunday", "year": 2010, "categories": {"21M60": {"pace": 323000000000, "rank": 10, "distance": 21, "time": 6824.4}}, "day": 16, "month": 5, "livingplace": "Hunzenschwil"}}, "location": "Basel"}, "Winterthur Marathon": {"race": "Winterthur Marathon", "longitude": -75.6037351, "latitude": 39.8088766, "date": {"dim. 29.05.2011": {"weekday": "sunday", "year": 2011, "categories": {"H-M60": {"pace": 332000000000, "rank": 21, "distance": 21, "time": 6975.2}}, "day": 29, "month": 5, "livingplace": "Hunzenschwil"}}, "location": "Winterthur"}, "Badener Limmat-Lauf, Baden": {"race": "Badener Limmat-Lauf, Baden", "longitude": 8.5303972, "latitude": 48.5699281, "date": {"sam. 29.03.2014": {"weekday": "saturday", "year": 2014, "categories": {"M60": {"pace": 350000000000, "rank": 52, "distance": 13, "time": 4609.5}}, "day": 29, "month": 3, "livingplace": "Hunzenschwil"}}, "location": "Baden"}, "Lenzburger Lauf": {"race": "Lenzburger Lauf", "longitude": 8.172154500000001, "latitude": 47.3904443, "date": {"sam. 29.05.2010": {"weekday": "saturday", "year": 2010, "categories": {"11-M60": {"pace": 340000000000, "rank": 13, "distance": 12, "time": 3954.2}}, "day": 29, "month": 5, "livingplace": "Hunzenschwil"}}, "location": "Lenzburg"}, "Hallwilerseelauf, Beinwil am See": {"race": "Hallwilerseelauf, Beinwil am See", "date": {"sam. 13.10.2012": {"weekday": "saturday", "year": 2012, "categories": {"21-M60": {"pace": 363000000000, "rank": 107, "distance": 21, "time": 7679.5}}, "day": 13, "month": 10, "livingplace": "Hunzenschwil"}, "sam. 16.10.2010": {"weekday": "saturday", "year": 2010, "categories": {"21-M60": {"pace": 342000000000, "rank": 84, "distance": 21, "time": 7219.2}}, "day": 16, "month": 10, "livingplace": "Hunzenschwil"}}, "location": "Beinwil am See"}, "ASICS Bremgarter Reusslauf": {"race": "ASICS Bremgarter Reusslauf", "longitude": 8.3397905, "latitude": 47.34917739999999, "date": {"sam. 25.02.2012": {"weekday": "saturday", "year": 2012, "categories": {"M60": {"pace": 321000000000, "rank": 127, "distance": 11, "time": 3538.8}}, "day": 25, "month": 2, "livingplace": "Hunzenschwil"}}, "location": "Bremgarten AG"}, "Lucerne Marathon, Luzern": {"race": "Lucerne Marathon, Luzern", "longitude": 8.3093072, "latitude": 47.05016819999999, "date": {"dim. 25.10.2009": {"weekday": "sunday", "year": 2009, "categories": {"M-M50": {"pace": 372000000000, "rank": 240, "distance": 42, "time": 15734.1}}, "day": 25, "month": 10, "livingplace": "Hunzenschwil"}, "dim. 30.10.2011": {"weekday": "sunday", "year": 2011, "categories": {"H-M60": {"pace": 329000000000, "rank": 77, "distance": 21, "time": 6958.6}}, "day": 30, "month": 10, "livingplace": "Hunzenschwil"}}, "location": "Luzern"}}, "name": "Richner Heinz", "birth": 1950}