{"sex": "M", "races": {"Tour du Chablais #6 Monthey": {"race": "Tour du Chablais #6 Monthey", "longitude": 6.970566, "latitude": 46.3190253, "date": {"mer. 08.05.2013": {"weekday": "wednesday", "year": 2013, "categories": {"M-M20": {"pace": 267000000000, "rank": 109, "distance": 9, "time": 2492.8}}, "day": 8, "month": 5, "livingplace": "Massongex"}}, "location": "Aigle"}, "Tour du Chablais #2 Yvorne": {"race": "Tour du Chablais #2 Yvorne", "longitude": 6.854975199999999, "latitude": 46.3835529, "date": {"mer. 10.04.2013": {"weekday": "wednesday", "year": 2013, "categories": {"M-M20": {"pace": 297000000000, "rank": 124, "distance": 8, "time": 2380.1}}, "day": 10, "month": 4, "livingplace": "Massongex"}}, "location": "Bouveret"}, "Tour du Chablais #4 Yvorne": {"race": "Tour du Chablais #4 Yvorne", "date": {"mer. 28.04.2010": {"weekday": "wednesday", "year": 2010, "categories": {"M-M20": {"pace": 318000000000, "rank": 149, "distance": 8, "time": 2636.3}}, "day": 28, "month": 4, "livingplace": "Massongex"}}, "location": "Les Mosses"}, "Tour du Chablais #3 Bouveret": {"race": "Tour du Chablais #3 Bouveret", "longitude": 7.0223787, "latitude": 46.1782231, "date": {"mer. 17.04.2013": {"weekday": "wednesday", "year": 2013, "categories": {"M-M20": {"pace": 280000000000, "rank": 118, "distance": 10, "time": 2802.6}}, "day": 17, "month": 4, "livingplace": "Massongex"}}, "location": "Evionnaz"}, "Tour du Chablais #1 Roche": {"race": "Tour du Chablais #1 Roche", "longitude": 6.9916269, "latitude": 46.2957462, "date": {"mer. 03.04.2013": {"weekday": "wednesday", "year": 2013, "categories": {"M-M20": {"pace": 278000000000, "rank": 129, "distance": 9, "time": 2469.9}}, "day": 3, "month": 4, "livingplace": "Massongex"}, "mer. 07.04.2010": {"weekday": "wednesday", "year": 2010, "categories": {"M-M20": {"pace": 300000000000, "rank": 169, "distance": 9, "time": 2687.3}}, "day": 7, "month": 4, "livingplace": "Massongex"}}, "location": "Ollon VD"}, "Kerzerslauf": {"race": "Kerzerslauf", "longitude": 7.1954365, "latitude": 46.97488999999999, "date": {"sam. 19.03.2005": {"weekday": "saturday", "year": 2005, "categories": {"M20": {"pace": 309000000000, "rank": 414, "distance": 15, "time": 4641.7}}, "day": 19, "month": 3, "livingplace": "Massongex"}}, "location": "Kerzers"}, "Morat-Fribourg": {"race": "Morat-Fribourg", "longitude": 7.120184, "latitude": 46.92922110000001, "date": {"dim. 05.10.2003": {"weekday": "sunday", "year": 2003, "categories": {"M20": {"pace": 340000000000, "rank": 1805, "distance": 17, "time": 5848.9}}, "day": 5, "month": 10, "livingplace": "Massongex"}}, "location": "Murten"}, "Tour du Chablais #6 Aigle": {"race": "Tour du Chablais #6 Aigle", "longitude": 6.970566, "latitude": 46.3190253, "date": {"mer. 01.06.2011": {"weekday": "wednesday", "year": 2011, "categories": {"M-M20": {"pace": 274000000000, "rank": 139, "distance": 10, "time": 2804.3}}, "day": 1, "month": 6, "livingplace": "Massongex"}}, "location": "Aigle"}, "20km de Lausanne": {"race": "20km de Lausanne", "longitude": 6.6322734, "latitude": 46.5196535, "date": {"sam. 23.04.2005": {"weekday": "saturday", "year": 2005, "categories": {"11": {"pace": 296000000000, "rank": 524, "distance": 20, "time": 5929.9}}, "day": 23, "month": 4, "livingplace": "Massongex"}}, "location": "Lausanne"}, "Tour du Chablais #2 St-Gingolph": {"race": "Tour du Chablais #2 St-Gingolph", "longitude": 6.854975199999999, "latitude": 46.3835529, "date": {"mer. 14.04.2010": {"weekday": "wednesday", "year": 2010, "categories": {"M-M20": {"pace": 319000000000, "rank": 129, "distance": 8, "time": 2665.4}}, "day": 14, "month": 4, "livingplace": "Massongex"}}, "location": "Bouveret"}, "Tour du Chablais #5 Morgins": {"race": "Tour du Chablais #5 Morgins", "longitude": 6.931504599999999, "latitude": 46.3603257, "date": {"mer. 01.05.2013": {"weekday": "wednesday", "year": 2013, "categories": {"M-M20": {"pace": 288000000000, "rank": 110, "distance": 8, "time": 2195.9}}, "day": 1, "month": 5, "livingplace": "Massongex"}}, "location": "Roche VD"}, "Tour du Chablais #5 Les Mosses": {"race": "Tour du Chablais #5 Les Mosses", "longitude": 6.931504599999999, "latitude": 46.3603257, "date": {"mer. 25.05.2011": {"weekday": "wednesday", "year": 2011, "categories": {"M-M20": {"pace": 312000000000, "rank": 156, "distance": 8, "time": 2503.6}}, "day": 25, "month": 5, "livingplace": "Massongex"}}, "location": "Roche VD"}, "Tour du Chablais #1 Lavey": {"race": "Tour du Chablais #1 Lavey", "longitude": 6.9916269, "latitude": 46.2957462, "date": {"mer. 27.04.2011": {"weekday": "wednesday", "year": 2011, "categories": {"M-M20": {"pace": 303000000000, "rank": 179, "distance": 9, "time": 2735.4}}, "day": 27, "month": 4, "livingplace": "Massongex"}}, "location": "Ollon VD"}, "Tour du Chablais #3 Bex": {"race": "Tour du Chablais #3 Bex", "longitude": 7.0223787, "latitude": 46.1782231, "date": {"mer. 21.04.2010": {"weekday": "wednesday", "year": 2010, "categories": {"M-M20": {"pace": 302000000000, "rank": 149, "distance": 10, "time": 3021.6}}, "day": 21, "month": 4, "livingplace": "Massongex"}}, "location": "Evionnaz"}, "Tour du Chablais #4 St  Maurice": {"race": "Tour du Chablais #4 St  Maurice", "date": {"mer. 24.04.2013": {"weekday": "wednesday", "year": 2013, "categories": {"M-M20": {"pace": 276000000000, "rank": 119, "distance": 10, "time": 2766.2}}, "day": 24, "month": 4, "livingplace": "Massongex"}}, "location": "Les Mosses"}, "Tour du Chablais #6 Mouthey": {"race": "Tour du Chablais #6 Mouthey", "longitude": 6.970566, "latitude": 46.3190253, "date": {"mer. 12.05.2010": {"weekday": "wednesday", "year": 2010, "categories": {"M-M20": {"pace": 279000000000, "rank": 142, "distance": 9, "time": 2567.5}}, "day": 12, "month": 5, "livingplace": "Massongex"}}, "location": "Aigle"}, "Tour du Chablais #3 Le Bouveret": {"race": "Tour du Chablais #3 Le Bouveret", "longitude": 7.0223787, "latitude": 46.1782231, "date": {"mer. 11.05.2011": {"weekday": "wednesday", "year": 2011, "categories": {"M-M20": {"pace": 290000000000, "rank": 178, "distance": 10, "time": 2906.7}}, "day": 11, "month": 5, "livingplace": "Massongex"}}, "location": "Evionnaz"}, "Tour du Chablais #2 Rennaz": {"race": "Tour du Chablais #2 Rennaz", "longitude": 6.854975199999999, "latitude": 46.3835529, "date": {"mer. 04.05.2011": {"weekday": "wednesday", "year": 2011, "categories": {"M-M20": {"pace": 295000000000, "rank": 171, "distance": 9, "time": 2758.5}}, "day": 4, "month": 5, "livingplace": "Massongex"}}, "location": "Bouveret"}}, "name": "Richard Julien", "birth": 1977}