{"sex": "M", "races": {"Dreil\u00e4nder-Lauf, Basel": {"race": "Dreil\u00e4nder-Lauf, Basel", "longitude": 7.5885761, "latitude": 47.5595986, "date": {"dim. 25.05.2014": {"weekday": "sunday", "year": 2014, "categories": {"10M50": {"pace": 383000000000, "rank": 27, "distance": 10, "time": 3877.6}}, "day": 25, "month": 5, "livingplace": "Worblaufen"}}, "location": "Basel"}, "Hallwilerseelauf, Beinwil am See": {"race": "Hallwilerseelauf, Beinwil am See", "date": {"sam. 11.10.2014": {"weekday": "saturday", "year": 2014, "categories": {"21-M50": {"pace": 427000000000, "rank": 534, "distance": 21, "time": 9021.8}}, "day": 11, "month": 10, "livingplace": "Worblaufen"}}, "location": "Beinwil am See"}, "Thuner Stadtlauf, Thun": {"race": "Thuner Stadtlauf, Thun", "longitude": 7.6279881, "latitude": 46.7579868, "date": {"sam. 15.08.2015": {"weekday": "saturday", "year": 2015, "categories": {"10-M50": {"pace": 360000000000, "rank": 105, "distance": 10, "time": 3604.8}}, "day": 15, "month": 8, "livingplace": "Worblaufen"}, "dim. 24.08.2014": {"weekday": "sunday", "year": 2014, "categories": {"10-M50": {"pace": 345000000000, "rank": 85, "distance": 11, "time": 3714.2}}, "day": 24, "month": 8, "livingplace": "Worblaufen"}}, "location": "Thun"}, "ASICS Bremgarter Reusslauf": {"race": "ASICS Bremgarter Reusslauf", "longitude": 8.3397905, "latitude": 47.34917739999999, "date": {"sam. 28.02.2015": {"weekday": "saturday", "year": 2015, "categories": {"11-M50": {"pace": 374000000000, "rank": 440, "distance": 11, "time": 4119.7}}, "day": 28, "month": 2, "livingplace": "Worblaufen"}}, "location": "Bremgarten AG"}, "Kerzerslauf": {"race": "Kerzerslauf", "longitude": 7.1954365, "latitude": 46.97488999999999, "date": {"sam. 21.03.2015": {"weekday": "saturday", "year": 2015, "categories": {"15-M50": {"pace": 372000000000, "rank": 467, "distance": 15, "time": 5587.5}}, "day": 21, "month": 3, "livingplace": "Worblaufen"}}, "location": "Kerzers"}, "Z\u00fcrcher Silvesterlauf, Z\u00fcrich": {"race": "Z\u00fcrcher Silvesterlauf, Z\u00fcrich", "longitude": 8.541694, "latitude": 47.3768866, "date": {"dim. 14.12.2014": {"weekday": "sunday", "year": 2014, "categories": {"10-M50": {"pace": 350000000000, "rank": 659, "distance": 10, "time": 3503.6}}, "day": 14, "month": 12, "livingplace": "Worblaufen"}}, "location": "Z\u00fcrich"}, "Basler Stadtlauf": {"race": "Basler Stadtlauf", "longitude": 7.5885761, "latitude": 47.5595986, "date": {"sam. 28.11.2015": {"weekday": "saturday", "year": 2015, "categories": {"M50": {"pace": 350000000000, "rank": 312, "distance": 6, "time": 1925.9}}, "day": 28, "month": 11, "livingplace": "Worblaufen"}, "sam. 29.11.2014": {"weekday": "saturday", "year": 2014, "categories": {"M50": {"pace": 326000000000, "rank": 290, "distance": 6, "time": 1793.2}}, "day": 29, "month": 11, "livingplace": "Worblaufen"}}, "location": "Basel"}, "Luzerner Stadtlauf": {"race": "Luzerner Stadtlauf", "longitude": 8.3093072, "latitude": 47.05016819999999, "date": {"sam. 25.04.2015": {"weekday": "saturday", "year": 2015, "categories": {"K-32": {"pace": 346000000000, "rank": 98, "distance": 6, "time": 1955.8}}, "day": 25, "month": 4, "livingplace": "Worblaufen"}}, "location": "Luzern"}}, "name": "Richener Matthias", "birth": 1961}