{"sex": "F", "races": {"Tour du Chablais #5 Bex": {"race": "Tour du Chablais #5 Bex", "longitude": 6.931504599999999, "latitude": 46.3603257, "date": {"mer. 09.05.2012": {"weekday": "wednesday", "year": 2012, "categories": {"F-F20": {"pace": 274000000000, "rank": 17, "distance": 9, "time": 2432.7}}, "day": 9, "month": 5, "livingplace": "Chesieres"}}, "location": "Roche VD"}, "Tour du Chablais #1 Montreux": {"race": "Tour du Chablais #1 Montreux", "longitude": 6.9916269, "latitude": 46.2957462, "date": {"mer. 11.04.2012": {"weekday": "wednesday", "year": 2012, "categories": {"F-F20": {"pace": 316000000000, "rank": 37, "distance": 8, "time": 2405.6}}, "day": 11, "month": 4, "livingplace": "Chesieres"}}, "location": "Ollon VD"}, "Tour du Chablais #4 Champ\u00e9ry": {"race": "Tour du Chablais #4 Champ\u00e9ry", "date": {"mer. 02.05.2012": {"weekday": "wednesday", "year": 2012, "categories": {"F-F20": {"pace": 280000000000, "rank": 15, "distance": 8, "time": 2329.7}}, "day": 2, "month": 5, "livingplace": "Chesieres"}}, "location": "Les Mosses"}, "Tour du Pays de Vaud #3 - Mezi\u00e8res": {"race": "Tour du Pays de Vaud #3 - Mezi\u00e8res", "longitude": 6.641183, "latitude": 46.7784736, "date": {"mer. 22.08.2012": {"weekday": "wednesday", "year": 2012, "categories": {"D-Dam": {"pace": 320000000000, "rank": 19, "distance": 8, "time": 2692.3}}, "day": 22, "month": 8, "livingplace": "Chesieres"}}, "location": "Yverdon-les-Bains"}, "Tour du Chablais #2 Bex": {"race": "Tour du Chablais #2 Bex", "longitude": 6.854975199999999, "latitude": 46.3835529, "date": {"mer. 18.04.2012": {"weekday": "wednesday", "year": 2012, "categories": {"F-F20": {"pace": 296000000000, "rank": 29, "distance": 8, "time": 2370.1}}, "day": 18, "month": 4, "livingplace": "Chesieres"}}, "location": "Bouveret"}, "Tour du pays de Vaud #1 - Penthaz": {"race": "Tour du pays de Vaud #1 - Penthaz", "longitude": 6.539251200000001, "latitude": 46.5993131, "date": {"mer. 08.08.2012": {"weekday": "wednesday", "year": 2012, "categories": {"D-Dam": {"pace": 308000000000, "rank": 23, "distance": 9, "time": 2630.1}}, "day": 8, "month": 8, "livingplace": "Chesieres"}}, "location": "Penthaz"}, "Tour du Chablais #3 Collombey-Muraz": {"race": "Tour du Chablais #3 Collombey-Muraz", "longitude": 7.0223787, "latitude": 46.1782231, "date": {"mer. 25.04.2012": {"weekday": "wednesday", "year": 2012, "categories": {"F-F20": {"pace": 291000000000, "rank": 29, "distance": 9, "time": 2614.8}}, "day": 25, "month": 4, "livingplace": "Chesieres"}}, "location": "Evionnaz"}}, "name": "Rogenmoser Christelle", "birth": 1984}