{"sex": "F", "races": {"Tour du Pays de Vaud printanier #1 Chavornay": {"race": "Tour du Pays de Vaud printanier #1 Chavornay", "longitude": 6.2347852, "latitude": 46.3832683, "date": {"mer. 30.05.2012": {"weekday": "wednesday", "year": 2012, "categories": {"D-Jun": {"pace": 353000000000, "rank": 6, "distance": 9, "time": 3166.3}}, "day": 30, "month": 5, "livingplace": "Lausanne"}}, "location": "Nyon"}, "Tour du Pays de Vaud printanier #2 Yens": {"race": "Tour du Pays de Vaud printanier #2 Yens", "longitude": 6.7975224, "latitude": 46.6698891, "date": {"mer. 06.06.2012": {"weekday": "wednesday", "year": 2012, "categories": {"D-Jun": {"pace": 343000000000, "rank": 6, "distance": 9, "time": 3125.9}}, "day": 6, "month": 6, "livingplace": "Lausanne"}}, "location": "Moudon"}, "Tour du pays de Vaud #1 - Mezi\u00e8res": {"race": "Tour du pays de Vaud #1 - Mezi\u00e8res", "longitude": 6.641183, "latitude": 46.7784736, "date": {"mer. 10.08.2011": {"weekday": "wednesday", "year": 2011, "categories": {"D-Jun": {"pace": 336000000000, "rank": 10, "distance": 9, "time": 2856.8}}, "day": 10, "month": 8, "livingplace": "Lausanne"}}, "location": "Yverdon-les-Bains"}, "Tour du Pays de Vaud #2 - Genolier": {"race": "Tour du Pays de Vaud #2 - Genolier", "longitude": 6.7702883, "latitude": 46.5955273, "date": {"mer. 17.08.2011": {"weekday": "wednesday", "year": 2011, "categories": {"D-Jun": {"pace": 344000000000, "rank": 8, "distance": 9, "time": 2929.7}}, "day": 17, "month": 8, "livingplace": "Lausanne"}}, "location": "M\u00e9zi\u00e8res VD"}, "Tour du Pays de Vaud #4 - La Sarraz": {"race": "Tour du Pays de Vaud #4 - La Sarraz", "longitude": 6.5707689, "latitude": 46.7088129, "date": {"mer. 29.08.2012": {"weekday": "wednesday", "year": 2012, "categories": {"D-Jun": {"pace": 328000000000, "rank": 5, "distance": 9, "time": 2792.4}}, "day": 29, "month": 8, "livingplace": "Lausanne"}}, "location": "Chavornay"}, "Hallwilerseelauf, Beinwil am See": {"race": "Hallwilerseelauf, Beinwil am See", "date": {"sam. 16.10.2010": {"weekday": "saturday", "year": 2010, "categories": {"10-WJA": {"pace": 305000000000, "rank": 9, "distance": 10, "time": 3059.2}}, "day": 16, "month": 10, "livingplace": "Lausanne"}}, "location": "Beinwil am See"}, "Lausanne Marathon": {"race": "Lausanne Marathon", "longitude": 6.6322734, "latitude": 46.5196535, "date": {"dim. 26.10.2014": {"weekday": "sunday", "year": 2014, "categories": {"10-JunF": {"pace": 331000000000, "rank": 74, "distance": 10, "time": 3316.6}}, "day": 26, "month": 10, "livingplace": "Lausanne"}}, "location": "Lausanne"}, "Course de l'Avent, Yverdon": {"race": "Course de l'Avent, Yverdon", "longitude": 7.161971899999999, "latitude": 46.8064773, "date": {"dim. 28.11.2010": {"weekday": "sunday", "year": 2010, "categories": {"E-F23": {"pace": 296000000000, "rank": 9, "distance": 8, "time": 2292.6}}, "day": 28, "month": 11, "livingplace": "Lausanne"}}, "location": "Fribourg"}, "Morat-Fribourg": {"race": "Morat-Fribourg", "longitude": 7.120184, "latitude": 46.92922110000001, "date": {"sam. 04.10.2008": {"weekday": "saturday", "year": 2008, "categories": {"K-EFA": {"pace": 241000000000, "rank": 23, "distance": 3, "time": 677.2}}, "day": 4, "month": 10, "livingplace": "Lausanne"}}, "location": "Murten"}, "20km de Lausanne": {"race": "20km de Lausanne", "longitude": 6.6322734, "latitude": 46.5196535, "date": {"sam. 25.04.2009": {"weekday": "saturday", "year": 2009, "categories": {"CadF": {"pace": 283000000000, "rank": 38, "distance": 4, "time": 1135.8}}, "day": 25, "month": 4, "livingplace": "Lausanne"}, "sam. 26.04.2014": {"weekday": "saturday", "year": 2014, "categories": {"10-U20W": {"pace": 313000000000, "rank": 26, "distance": 10, "time": 3133.8}}, "day": 26, "month": 4, "livingplace": "Lausanne"}}, "location": "Lausanne"}}, "name": "Roggo Camille", "birth": 1995}