{"sex": "M", "races": {"Corrida Bulloise, Bulle": {"race": "Corrida Bulloise, Bulle", "longitude": 7.057726799999999, "latitude": 46.6154512, "date": {"sam. 15.11.2014": {"weekday": "saturday", "year": 2014, "categories": {"Cad-U16": {"pace": 243000000000, "rank": 24, "distance": 3, "time": 766.3}}, "day": 15, "month": 11, "livingplace": "Les Brenets"}}, "location": "Bulle"}, "BCN Tour Neuch\u00e2tel": {"race": "BCN Tour Neuch\u00e2tel", "longitude": 6.9292732, "latitude": 46.9899874, "date": {"mer. 26.05.2010": {"weekday": "wednesday", "year": 2010, "categories": {"KG2": {"pace": 230000000000, "rank": 32, "distance": 2, "time": 346.2}}, "day": 26, "month": 5, "livingplace": "Les Brenets"}}, "location": "Neuch\u00e2tel"}, "Course p\u00e9destre Thyon-Dixence, Thyon": {"race": "Course p\u00e9destre Thyon-Dixence, Thyon", "date": {"dim. 02.08.2015": {"weekday": "sunday", "year": 2015, "categories": {"JunHom": {"pace": 400000000000, "rank": 5, "distance": 16, "time": 6549.7}}, "day": 2, "month": 8, "livingplace": "Les Brenets"}}, "location": "Thyon-Les Collons"}, "BCN Tour M\u00f4tier": {"race": "BCN Tour M\u00f4tier", "longitude": 6.6324944, "latitude": 46.9262933, "date": {"mer. 19.05.2010": {"weekday": "wednesday", "year": 2010, "categories": {"KG2": {"pace": 267000000000, "rank": 46, "distance": 2, "time": 481.1}}, "day": 19, "month": 5, "livingplace": "Les Brenets"}}, "location": "Couvet"}, "BCN Tour Le Locle": {"race": "BCN Tour Le Locle", "longitude": 6.733554799999999, "latitude": 46.999113, "date": {"mer. 05.05.2010": {"weekday": "wednesday", "year": 2010, "categories": {"KG2": {"pace": 328000000000, "rank": 70, "distance": 2, "time": 591.8}}, "day": 5, "month": 5, "livingplace": "Les Brenets"}}, "location": "Les Ponts-de-Martel"}, "BCN Tour La Chaux-de-fonds": {"race": "BCN Tour La Chaux-de-fonds", "longitude": 6.832783800000001, "latitude": 47.1034892, "date": {"mer. 12.05.2010": {"weekday": "wednesday", "year": 2010, "categories": {"KG2": {"pace": 828000000000, "rank": 62, "distance": 1, "time": 804.1}}, "day": 12, "month": 5, "livingplace": "Les Brenets"}}, "location": "La Chaux-de-Fonds"}}, "name": "Rosselet Sven", "birth": 2000}