{"sex": "F", "races": {"Hallwilerseelauf, Beinwil am See": {"race": "Hallwilerseelauf, Beinwil am See", "date": {"sam. 14.10.2000": {"weekday": "saturday", "year": 2000, "categories": {"67": {"pace": 293000000000, "rank": 1, "distance": 1, "time": 293.3}}, "day": 14, "month": 10, "livingplace": "Welschenrohr"}, "sam. 11.10.2003": {"weekday": "saturday", "year": 2003, "categories": {"83": {"pace": 241000000000, "rank": 10, "distance": 2, "time": 578.5}}, "day": 11, "month": 10, "livingplace": "Welschenrohr"}}, "location": "Beinwil am See"}, "Gossauer Weihnachtslauf": {"race": "Gossauer Weihnachtslauf", "longitude": 9.248852, "latitude": 47.4155608, "date": {"sam. 04.12.2004": {"weekday": "saturday", "year": 2004, "categories": {"13": {"pace": 235000000000, "rank": 15, "distance": 2, "time": 513.7}}, "day": 4, "month": 12, "livingplace": "Welschenrohr"}}, "location": "Gossau SG"}, "Int Greifenseelauf, Uster": {"race": "Int Greifenseelauf, Uster", "longitude": 8.717873899999999, "latitude": 47.3482747, "date": {"sam. 20.09.2003": {"weekday": "saturday", "year": 2003, "categories": {"M/MC": {"pace": 247000000000, "rank": 3, "distance": 3, "time": 840.1}}, "day": 20, "month": 9, "livingplace": "Welschenrohr"}}, "location": "Uster"}, "Pfingstlauf Wohlen AG": {"race": "Pfingstlauf Wohlen AG", "longitude": 8.2768762, "latitude": 47.3493653, "date": {"sam. 03.06.2006": {"weekday": "saturday", "year": 2006, "categories": {"JunF": {"pace": 242000000000, "rank": 1, "distance": 3, "time": 775.3}}, "day": 3, "month": 6, "livingplace": "Welschenrohr"}}, "location": "Wohlen AG"}, "Thuner Stadtlauf, Thun": {"race": "Thuner Stadtlauf, Thun", "longitude": 7.6279881, "latitude": 46.7579868, "date": {"dim. 05.09.2004": {"weekday": "sunday", "year": 2004, "categories": {"JUW3": {"pace": 220000000000, "rank": 1, "distance": 2, "time": 441.6}}, "day": 5, "month": 9, "livingplace": "Welschenrohr"}}, "location": "Thun"}, "Kerzerslauf": {"race": "Kerzerslauf", "longitude": 7.1954365, "latitude": 46.97488999999999, "date": {"sam. 19.03.2005": {"weekday": "saturday", "year": 2005, "categories": {"F14": {"pace": 242000000000, "rank": 11, "distance": 2, "time": 581.1}}, "day": 19, "month": 3, "livingplace": "Welschenrohr"}}, "location": "Kerzers"}}, "name": "Roth Tamara", "birth": 1991}