{"sex": "M", "races": {"Tour du Chablais #4 Champ\u00e9ry": {"race": "Tour du Chablais #4 Champ\u00e9ry", "date": {"mer. 02.05.2012": {"weekday": "wednesday", "year": 2012, "categories": {"M-M40": {"pace": 268000000000, "rank": 62, "distance": 8, "time": 2227.1}}, "day": 2, "month": 5, "livingplace": "Blonay"}}, "location": "Les Mosses"}, "Tour du Chablais #6 Monthey": {"race": "Tour du Chablais #6 Monthey", "longitude": 6.970566, "latitude": 46.3190253, "date": {"mer. 08.05.2013": {"weekday": "wednesday", "year": 2013, "categories": {"M-M50": {"pace": 288000000000, "rank": 46, "distance": 9, "time": 2693.9}}, "day": 8, "month": 5, "livingplace": "Blonay"}}, "location": "Aigle"}, "Tour du Chablais #2 Yvorne": {"race": "Tour du Chablais #2 Yvorne", "longitude": 6.854975199999999, "latitude": 46.3835529, "date": {"mer. 10.04.2013": {"weekday": "wednesday", "year": 2013, "categories": {"M-M50": {"pace": 302000000000, "rank": 30, "distance": 8, "time": 2416.3}}, "day": 10, "month": 4, "livingplace": "Blonay"}}, "location": "Bouveret"}, "Tour du Chablais #4 Yvorne": {"race": "Tour du Chablais #4 Yvorne", "date": {"mer. 28.04.2010": {"weekday": "wednesday", "year": 2010, "categories": {"M-M40": {"pace": 308000000000, "rank": 115, "distance": 8, "time": 2554.2}}, "day": 28, "month": 4, "livingplace": "Blonay"}}, "location": "Les Mosses"}, "Tour du Chablais #3 Bouveret": {"race": "Tour du Chablais #3 Bouveret", "longitude": 7.0223787, "latitude": 46.1782231, "date": {"mer. 17.04.2013": {"weekday": "wednesday", "year": 2013, "categories": {"M-M50": {"pace": 282000000000, "rank": 38, "distance": 10, "time": 2823.5}}, "day": 17, "month": 4, "livingplace": "Blonay"}}, "location": "Evionnaz"}, "Tour du Chablais #1 Roche": {"race": "Tour du Chablais #1 Roche", "longitude": 6.9916269, "latitude": 46.2957462, "date": {"mer. 03.04.2013": {"weekday": "wednesday", "year": 2013, "categories": {"M-M50": {"pace": 282000000000, "rank": 50, "distance": 9, "time": 2505.4}}, "day": 3, "month": 4, "livingplace": "Blonay"}}, "location": "Ollon VD"}, "Tour du Chablais #1 Martigny": {"race": "Tour du Chablais #1 Martigny", "longitude": 6.9916269, "latitude": 46.2957462, "date": {"mer. 23.04.2014": {"weekday": "wednesday", "year": 2014, "categories": {"M-M50": {"pace": 269000000000, "rank": 34, "distance": 9, "time": 2294.6}}, "day": 23, "month": 4, "livingplace": "Blonay"}}, "location": "Ollon VD"}, "Tour du Chablais #2 Bex": {"race": "Tour du Chablais #2 Bex", "longitude": 6.854975199999999, "latitude": 46.3835529, "date": {"mer. 18.04.2012": {"weekday": "wednesday", "year": 2012, "categories": {"M-M40": {"pace": 277000000000, "rank": 76, "distance": 8, "time": 2218.4}}, "day": 18, "month": 4, "livingplace": "Blonay"}}, "location": "Bouveret"}, "Tour du Chablais #6 Montreux": {"race": "Tour du Chablais #6 Montreux", "longitude": 6.970566, "latitude": 46.3190253, "date": {"mer. 16.05.2012": {"weekday": "wednesday", "year": 2012, "categories": {"M-M40": {"pace": 259000000000, "rank": 63, "distance": 9, "time": 2396.1}}, "day": 16, "month": 5, "livingplace": "Blonay"}}, "location": "Aigle"}, "20km de Lausanne": {"race": "20km de Lausanne", "longitude": 6.6322734, "latitude": 46.5196535, "date": {"sam. 26.04.2014": {"weekday": "saturday", "year": 2014, "categories": {"20-H50": {"pace": 305000000000, "rank": 119, "distance": 20, "time": 6105.7}}, "day": 26, "month": 4, "livingplace": "Blonay"}}, "location": "Lausanne"}, "Tour du Chablais #6 Mouthey": {"race": "Tour du Chablais #6 Mouthey", "longitude": 6.970566, "latitude": 46.3190253, "date": {"mer. 12.05.2010": {"weekday": "wednesday", "year": 2010, "categories": {"M-M40": {"pace": 264000000000, "rank": 79, "distance": 9, "time": 2429.5}}, "day": 12, "month": 5, "livingplace": "Blonay"}}, "location": "Aigle"}, "Tour du Chablais #1 Montreux": {"race": "Tour du Chablais #1 Montreux", "longitude": 6.9916269, "latitude": 46.2957462, "date": {"mer. 11.04.2012": {"weekday": "wednesday", "year": 2012, "categories": {"M-M40": {"pace": 289000000000, "rank": 87, "distance": 8, "time": 2198.1}}, "day": 11, "month": 4, "livingplace": "Blonay"}}, "location": "Ollon VD"}, "Tour du Chablais #5 Bex": {"race": "Tour du Chablais #5 Bex", "longitude": 6.931504599999999, "latitude": 46.3603257, "date": {"mer. 09.05.2012": {"weekday": "wednesday", "year": 2012, "categories": {"M-M40": {"pace": 264000000000, "rank": 54, "distance": 9, "time": 2344.4}}, "day": 9, "month": 5, "livingplace": "Blonay"}}, "location": "Roche VD"}, "Tour du Chablais #5 Morgins": {"race": "Tour du Chablais #5 Morgins", "longitude": 6.931504599999999, "latitude": 46.3603257, "date": {"mer. 01.05.2013": {"weekday": "wednesday", "year": 2013, "categories": {"M-M50": {"pace": 314000000000, "rank": 38, "distance": 8, "time": 2390.2}}, "day": 1, "month": 5, "livingplace": "Blonay"}}, "location": "Roche VD"}, "Lausanne Marathon": {"race": "Lausanne Marathon", "longitude": 6.6322734, "latitude": 46.5196535, "date": {"dim. 26.10.2014": {"weekday": "sunday", "year": 2014, "categories": {"21-H50": {"pace": 294000000000, "rank": 120, "distance": 21, "time": 6203.9}}, "day": 26, "month": 10, "livingplace": "Blonay"}, "dim. 27.10.2013": {"weekday": "sunday", "year": 2013, "categories": {"21-H4": {"pace": 290000000000, "rank": 93, "distance": 21, "time": 6139.1}}, "day": 27, "month": 10, "livingplace": "Blonay"}}, "location": "Lausanne"}, "Tour du Chablais #4 St  Maurice": {"race": "Tour du Chablais #4 St  Maurice", "date": {"mer. 24.04.2013": {"weekday": "wednesday", "year": 2013, "categories": {"M-M50": {"pace": 276000000000, "rank": 30, "distance": 10, "time": 2768.3}}, "day": 24, "month": 4, "livingplace": "Blonay"}}, "location": "Les Mosses"}, "Tour du Chablais #3 Collombey-Muraz": {"race": "Tour du Chablais #3 Collombey-Muraz", "longitude": 7.0223787, "latitude": 46.1782231, "date": {"mer. 25.04.2012": {"weekday": "wednesday", "year": 2012, "categories": {"M-M40": {"pace": 273000000000, "rank": 72, "distance": 9, "time": 2460.5}}, "day": 25, "month": 4, "livingplace": "Blonay"}}, "location": "Evionnaz"}}, "name": "Roulet Michel", "birth": 1963}