{"sex": "F", "races": {"Tour du Chablais #6 Montreux": {"race": "Tour du Chablais #6 Montreux", "longitude": 6.970566, "latitude": 46.3190253, "date": {"mer. 16.05.2012": {"weekday": "wednesday", "year": 2012, "categories": {"F-F20": {"pace": 298000000000, "rank": 42, "distance": 9, "time": 2759.3}}, "day": 16, "month": 5, "livingplace": "Blonay"}}, "location": "Aigle"}, "Tour du Chablais #4 Champ\u00e9ry": {"race": "Tour du Chablais #4 Champ\u00e9ry", "date": {"mer. 02.05.2012": {"weekday": "wednesday", "year": 2012, "categories": {"F-F20": {"pace": 305000000000, "rank": 43, "distance": 8, "time": 2535.1}}, "day": 2, "month": 5, "livingplace": "Blonay"}}, "location": "Les Mosses"}, "Tour du Chablais #4 Morgins": {"race": "Tour du Chablais #4 Morgins", "date": {"mer. 18.05.2011": {"weekday": "wednesday", "year": 2011, "categories": {"F-F20": {"pace": 320000000000, "rank": 42, "distance": 8, "time": 2676.9}}, "day": 18, "month": 5, "livingplace": "Blonay"}}, "location": "Les Mosses"}, "Tour du Chablais #4 Yvorne": {"race": "Tour du Chablais #4 Yvorne", "date": {"mer. 28.04.2010": {"weekday": "wednesday", "year": 2010, "categories": {"F-F20": {"pace": 318000000000, "rank": 28, "distance": 8, "time": 2633.3}}, "day": 28, "month": 4, "livingplace": "Blonay"}}, "location": "Les Mosses"}, "Tour du Chablais #1 Roche": {"race": "Tour du Chablais #1 Roche", "longitude": 6.9916269, "latitude": 46.2957462, "date": {"mer. 07.04.2010": {"weekday": "wednesday", "year": 2010, "categories": {"F-F20": {"pace": 307000000000, "rank": 45, "distance": 9, "time": 2752.0}}, "day": 7, "month": 4, "livingplace": "Blonay"}}, "location": "Ollon VD"}, "Tour du Chablais #1 Martigny": {"race": "Tour du Chablais #1 Martigny", "longitude": 6.9916269, "latitude": 46.2957462, "date": {"mer. 23.04.2014": {"weekday": "wednesday", "year": 2014, "categories": {"F-F40": {"pace": 314000000000, "rank": 30, "distance": 9, "time": 2676.4}}, "day": 23, "month": 4, "livingplace": "Blonay"}}, "location": "Ollon VD"}, "Tour du Chablais #2 Bex": {"race": "Tour du Chablais #2 Bex", "longitude": 6.854975199999999, "latitude": 46.3835529, "date": {"mer. 18.04.2012": {"weekday": "wednesday", "year": 2012, "categories": {"F-F20": {"pace": 315000000000, "rank": 57, "distance": 8, "time": 2525.2}}, "day": 18, "month": 4, "livingplace": "Blonay"}}, "location": "Bouveret"}, "Morat-Fribourg": {"race": "Morat-Fribourg", "longitude": 7.120184, "latitude": 46.92922110000001, "date": {"sam. 06.10.2007": {"weekday": "saturday", "year": 2007, "categories": {"C/W20": {"pace": 340000000000, "rank": 197, "distance": 17, "time": 5841.2}}, "day": 6, "month": 10, "livingplace": "Blonay"}}, "location": "Murten"}, "Tour du Chablais #6 Aigle": {"race": "Tour du Chablais #6 Aigle", "longitude": 6.970566, "latitude": 46.3190253, "date": {"mer. 01.06.2011": {"weekday": "wednesday", "year": 2011, "categories": {"F-F20": {"pace": 298000000000, "rank": 49, "distance": 10, "time": 3045.0}}, "day": 1, "month": 6, "livingplace": "Blonay"}}, "location": "Aigle"}, "20km de Lausanne": {"race": "20km de Lausanne", "longitude": 6.6322734, "latitude": 46.5196535, "date": {"sam. 24.04.2010": {"weekday": "saturday", "year": 2010, "categories": {"20-F30": {"pace": 319000000000, "rank": 67, "distance": 20, "time": 6386.9}}, "day": 24, "month": 4, "livingplace": "Blonay"}, "sam. 25.04.2009": {"weekday": "saturday", "year": 2009, "categories": {"20-F30": {"pace": 318000000000, "rank": 72, "distance": 20, "time": 6379.0}}, "day": 25, "month": 4, "livingplace": "Blonay"}}, "location": "Lausanne"}, "Tour du Chablais #6 Mouthey": {"race": "Tour du Chablais #6 Mouthey", "longitude": 6.970566, "latitude": 46.3190253, "date": {"mer. 12.05.2010": {"weekday": "wednesday", "year": 2010, "categories": {"F-F20": {"pace": 295000000000, "rank": 36, "distance": 9, "time": 2720.7}}, "day": 12, "month": 5, "livingplace": "Blonay"}}, "location": "Aigle"}, "Tour du Chablais #5 Leysin": {"race": "Tour du Chablais #5 Leysin", "longitude": 6.931504599999999, "latitude": 46.3603257, "date": {"mer. 05.05.2010": {"weekday": "wednesday", "year": 2010, "categories": {"F-F20": {"pace": 328000000000, "rank": 31, "distance": 8, "time": 2777.3}}, "day": 5, "month": 5, "livingplace": "Blonay"}}, "location": "Roche VD"}, "Tour du Chablais #5 Les Mosses": {"race": "Tour du Chablais #5 Les Mosses", "longitude": 6.931504599999999, "latitude": 46.3603257, "date": {"mer. 25.05.2011": {"weekday": "wednesday", "year": 2011, "categories": {"F-F20": {"pace": 324000000000, "rank": 36, "distance": 8, "time": 2592.6}}, "day": 25, "month": 5, "livingplace": "Blonay"}}, "location": "Roche VD"}, "Tour du Chablais #1 Lavey": {"race": "Tour du Chablais #1 Lavey", "longitude": 6.9916269, "latitude": 46.2957462, "date": {"mer. 27.04.2011": {"weekday": "wednesday", "year": 2011, "categories": {"F-F20": {"pace": 329000000000, "rank": 59, "distance": 9, "time": 2968.9}}, "day": 27, "month": 4, "livingplace": "Blonay"}}, "location": "Ollon VD"}, "Tour du Chablais #5 Bex": {"race": "Tour du Chablais #5 Bex", "longitude": 6.931504599999999, "latitude": 46.3603257, "date": {"mer. 09.05.2012": {"weekday": "wednesday", "year": 2012, "categories": {"F-F20": {"pace": 295000000000, "rank": 37, "distance": 9, "time": 2622.3}}, "day": 9, "month": 5, "livingplace": "Blonay"}}, "location": "Roche VD"}, "Tour du Chablais #3 Bex": {"race": "Tour du Chablais #3 Bex", "longitude": 7.0223787, "latitude": 46.1782231, "date": {"mer. 21.04.2010": {"weekday": "wednesday", "year": 2010, "categories": {"F-F20": {"pace": 306000000000, "rank": 33, "distance": 10, "time": 3066.9}}, "day": 21, "month": 4, "livingplace": "Blonay"}}, "location": "Evionnaz"}, "Tour du Chablais #1 Montreux": {"race": "Tour du Chablais #1 Montreux", "longitude": 6.9916269, "latitude": 46.2957462, "date": {"mer. 11.04.2012": {"weekday": "wednesday", "year": 2012, "categories": {"F-F20": {"pace": 331000000000, "rank": 61, "distance": 8, "time": 2521.1}}, "day": 11, "month": 4, "livingplace": "Blonay"}}, "location": "Ollon VD"}, "Tour du Chablais #3 Le Bouveret": {"race": "Tour du Chablais #3 Le Bouveret", "longitude": 7.0223787, "latitude": 46.1782231, "date": {"mer. 11.05.2011": {"weekday": "wednesday", "year": 2011, "categories": {"F-F20": {"pace": 311000000000, "rank": 46, "distance": 10, "time": 3115.7}}, "day": 11, "month": 5, "livingplace": "Blonay"}}, "location": "Evionnaz"}, "Tour du Chablais #2 St-Gingolph": {"race": "Tour du Chablais #2 St-Gingolph", "longitude": 6.854975199999999, "latitude": 46.3835529, "date": {"mer. 14.04.2010": {"weekday": "wednesday", "year": 2010, "categories": {"F-F20": {"pace": 335000000000, "rank": 36, "distance": 8, "time": 2804.5}}, "day": 14, "month": 4, "livingplace": "Blonay"}}, "location": "Bouveret"}, "Tour du Chablais #3 Collombey-Muraz": {"race": "Tour du Chablais #3 Collombey-Muraz", "longitude": 7.0223787, "latitude": 46.1782231, "date": {"mer. 25.04.2012": {"weekday": "wednesday", "year": 2012, "categories": {"F-F20": {"pace": 322000000000, "rank": 68, "distance": 9, "time": 2892.9}}, "day": 25, "month": 4, "livingplace": "Blonay"}}, "location": "Evionnaz"}, "Tour du Chablais #2 Rennaz": {"race": "Tour du Chablais #2 Rennaz", "longitude": 6.854975199999999, "latitude": 46.3835529, "date": {"mer. 04.05.2011": {"weekday": "wednesday", "year": 2011, "categories": {"F-F20": {"pace": 313000000000, "rank": 46, "distance": 9, "time": 2929.5}}, "day": 4, "month": 5, "livingplace": "Blonay"}}, "location": "Bouveret"}}, "name": "Roulet Carole", "birth": 1973}