{"sex": "M", "races": {"Course de l'Escalade, Gen\u00e8ve": {"race": "Course de l'Escalade, Gen\u00e8ve", "longitude": 6.1431577, "latitude": 46.2043907, "date": {"sam. 01.12.2007": {"weekday": "saturday", "year": 2007, "categories": {"Hommes2": {"pace": 269000000000, "rank": 312, "distance": 7, "time": 1956.1}}, "day": 1, "month": 12, "livingplace": "Rolex Sa"}}, "location": "Gen\u00e8ve"}, "Tour du Pays de Vaud #3 - Chavornay": {"race": "Tour du Pays de Vaud #3 - Chavornay", "longitude": 6.641183, "latitude": 46.7784736, "date": {"mer. 28.08.2013": {"weekday": "wednesday", "year": 2013, "categories": {"H-Sen2": {"pace": 277000000000, "rank": 73, "distance": 9, "time": 2467.8}}, "day": 28, "month": 8, "livingplace": "Lausanne"}}, "location": "Yverdon-les-Bains"}, "Tour du Pays de Vaud #2 - Mezi\u00e8res": {"race": "Tour du Pays de Vaud #2 - Mezi\u00e8res", "longitude": 6.7702883, "latitude": 46.5955273, "date": {"mer. 21.08.2013": {"weekday": "wednesday", "year": 2013, "categories": {"H-Sen2": {"pace": 301000000000, "rank": 64, "distance": 8, "time": 2439.9}}, "day": 21, "month": 8, "livingplace": "Lausanne"}}, "location": "M\u00e9zi\u00e8res VD"}, "Aletsch-Halbmarathon, Bettmeralp": {"race": "Aletsch-Halbmarathon, Bettmeralp", "date": {"dim. 26.06.2011": {"weekday": "sunday", "year": 2011, "categories": {"M40": {"pace": 500000000000, "rank": 163, "distance": 21, "time": 10506.6}}, "day": 26, "month": 6, "livingplace": "Lausanne"}}, "location": "Bettmeralp"}, "Tour du Pays de Vaud #4 - La Sarraz": {"race": "Tour du Pays de Vaud #4 - La Sarraz", "longitude": 6.5707689, "latitude": 46.7088129, "date": {"mer. 04.09.2013": {"weekday": "wednesday", "year": 2013, "categories": {"H-Sen2": {"pace": 286000000000, "rank": 76, "distance": 9, "time": 2432.7}}, "day": 4, "month": 9, "livingplace": "Lausanne"}}, "location": "Chavornay"}, "Lausanne Marathon": {"race": "Lausanne Marathon", "longitude": 6.6322734, "latitude": 46.5196535, "date": {"dim. 26.10.2014": {"weekday": "sunday", "year": 2014, "categories": {"42-H40": {"pace": 296000000000, "rank": 78, "distance": 42, "time": 12510.6}}, "day": 26, "month": 10, "livingplace": "Lausanne"}, "dim. 27.10.2013": {"weekday": "sunday", "year": 2013, "categories": {"10-H3": {"pace": 273000000000, "rank": 123, "distance": 10, "time": 2736.3}}, "day": 27, "month": 10, "livingplace": "Lausanne"}}, "location": "Lausanne"}, "Tour du pays de Vaud #1 - Penthaz": {"race": "Tour du pays de Vaud #1 - Penthaz", "longitude": 6.539251200000001, "latitude": 46.5993131, "date": {"mer. 14.08.2013": {"weekday": "wednesday", "year": 2013, "categories": {"H-Sen2": {"pace": 275000000000, "rank": 60, "distance": 9, "time": 2346.7}}, "day": 14, "month": 8, "livingplace": "Lausanne"}}, "location": "Penthaz"}, "Morat-Fribourg": {"race": "Morat-Fribourg", "longitude": 7.120184, "latitude": 46.92922110000001, "date": {"sam. 06.10.2007": {"weekday": "saturday", "year": 2007, "categories": {"C/M20": {"pace": 336000000000, "rank": 1456, "distance": 17, "time": 5782.7}}, "day": 6, "month": 10, "livingplace": "Lausanne"}}, "location": "Murten"}, "Les Traine-Savates, Cheseaux-sur-Lausanne": {"race": "Les Traine-Savates, Cheseaux-sur-Lausanne", "longitude": 6.6047712, "latitude": 46.585452, "date": {"sam. 12.04.2014": {"weekday": "saturday", "year": 2014, "categories": {"10-M40": {"pace": 270000000000, "rank": 72, "distance": 10, "time": 2785.1}}, "day": 12, "month": 4, "livingplace": "Lausanne"}}, "location": "Cheseaux-sur-Lausanne"}, "20km de Lausanne": {"race": "20km de Lausanne", "longitude": 6.6322734, "latitude": 46.5196535, "date": {"sam. 28.04.2007": {"weekday": "saturday", "year": 2007, "categories": {"10H30": {"pace": 301000000000, "rank": 290, "distance": 10, "time": 3011.3}}, "day": 28, "month": 4, "livingplace": "Lausanne"}, "sam. 28.04.2012": {"weekday": "saturday", "year": 2012, "categories": {"10-H40": {"pace": 298000000000, "rank": 149, "distance": 10, "time": 2981.3}}, "day": 28, "month": 4, "livingplace": "Lausanne"}, "sam. 26.04.2014": {"weekday": "saturday", "year": 2014, "categories": {"10-H40": {"pace": 274000000000, "rank": 74, "distance": 10, "time": 2741.1}}, "day": 26, "month": 4, "livingplace": "footing club lausanne"}}, "location": "Lausanne"}, "Basler Marathon-Tage": {"race": "Basler Marathon-Tage", "longitude": 7.5885761, "latitude": 47.5595986, "date": {"sam. 27.10.2007": {"weekday": "saturday", "year": 2007, "categories": {"M/M30": {"pace": 325000000000, "rank": 39, "distance": 42, "time": 13716.8}}, "day": 27, "month": 10, "livingplace": "Lausanne"}}, "location": "Basel"}}, "name": "Roux Lionel", "birth": 1970}