{"sex": "M", "races": {"Tour du Chablais #4 Champ\u00e9ry": {"race": "Tour du Chablais #4 Champ\u00e9ry", "date": {"mer. 02.05.2012": {"weekday": "wednesday", "year": 2012, "categories": {"M-M20": {"pace": 319000000000, "rank": 186, "distance": 8, "time": 2653.7}}, "day": 2, "month": 5, "livingplace": "Massongex"}}, "location": "Les Mosses"}, "Tour du Chablais #4 Yvorne": {"race": "Tour du Chablais #4 Yvorne", "date": {"mer. 28.04.2010": {"weekday": "wednesday", "year": 2010, "categories": {"M-M20": {"pace": 324000000000, "rank": 156, "distance": 8, "time": 2685.1}}, "day": 28, "month": 4, "livingplace": "Massongex"}}, "location": "Les Mosses"}, "Tour du Chablais #3 Collombey-Muraz": {"race": "Tour du Chablais #3 Collombey-Muraz", "longitude": 7.0223787, "latitude": 46.1782231, "date": {"mer. 25.04.2012": {"weekday": "wednesday", "year": 2012, "categories": {"M-M20": {"pace": 323000000000, "rank": 187, "distance": 9, "time": 2903.9}}, "day": 25, "month": 4, "livingplace": "Massongex"}}, "location": "Evionnaz"}, "Tour du Chablais #2 Bex": {"race": "Tour du Chablais #2 Bex", "longitude": 6.854975199999999, "latitude": 46.3835529, "date": {"mer. 18.04.2012": {"weekday": "wednesday", "year": 2012, "categories": {"M-M20": {"pace": 308000000000, "rank": 169, "distance": 8, "time": 2471.7}}, "day": 18, "month": 4, "livingplace": "Massongex"}}, "location": "Bouveret"}, "Tour du Chablais #6 Montreux": {"race": "Tour du Chablais #6 Montreux", "longitude": 6.970566, "latitude": 46.3190253, "date": {"mer. 16.05.2012": {"weekday": "wednesday", "year": 2012, "categories": {"M-M20": {"pace": 314000000000, "rank": 212, "distance": 9, "time": 2905.2}}, "day": 16, "month": 5, "livingplace": "Massongex"}}, "location": "Aigle"}, "Tour du Chablais #6 Aigle": {"race": "Tour du Chablais #6 Aigle", "longitude": 6.970566, "latitude": 46.3190253, "date": {"mer. 01.06.2011": {"weekday": "wednesday", "year": 2011, "categories": {"M-M20": {"pace": 301000000000, "rank": 199, "distance": 10, "time": 3075.0}}, "day": 1, "month": 6, "livingplace": "Massongex"}}, "location": "Aigle"}, "Tour du Chablais #4 Morgins": {"race": "Tour du Chablais #4 Morgins", "date": {"mer. 18.05.2011": {"weekday": "wednesday", "year": 2011, "categories": {"M-M20": {"pace": 323000000000, "rank": 182, "distance": 8, "time": 2704.9}}, "day": 18, "month": 5, "livingplace": "Massongex"}}, "location": "Les Mosses"}, "Tour du Chablais #6 Mouthey": {"race": "Tour du Chablais #6 Mouthey", "longitude": 6.970566, "latitude": 46.3190253, "date": {"mer. 12.05.2010": {"weekday": "wednesday", "year": 2010, "categories": {"M-M20": {"pace": 307000000000, "rank": 201, "distance": 9, "time": 2824.2}}, "day": 12, "month": 5, "livingplace": "Massongex"}}, "location": "Aigle"}, "Tour du Chablais #1 Montreux": {"race": "Tour du Chablais #1 Montreux", "longitude": 6.9916269, "latitude": 46.2957462, "date": {"mer. 11.04.2012": {"weekday": "wednesday", "year": 2012, "categories": {"M-M20": {"pace": 323000000000, "rank": 179, "distance": 8, "time": 2459.0}}, "day": 11, "month": 4, "livingplace": "Massongex"}}, "location": "Ollon VD"}, "Tour du Chablais #5 Les Mosses": {"race": "Tour du Chablais #5 Les Mosses", "longitude": 6.931504599999999, "latitude": 46.3603257, "date": {"mer. 25.05.2011": {"weekday": "wednesday", "year": 2011, "categories": {"M-M20": {"pace": 331000000000, "rank": 177, "distance": 8, "time": 2648.1}}, "day": 25, "month": 5, "livingplace": "Massongex"}}, "location": "Roche VD"}, "Tour du Chablais #1 Lavey": {"race": "Tour du Chablais #1 Lavey", "longitude": 6.9916269, "latitude": 46.2957462, "date": {"mer. 27.04.2011": {"weekday": "wednesday", "year": 2011, "categories": {"M-M20": {"pace": 308000000000, "rank": 197, "distance": 9, "time": 2777.6}}, "day": 27, "month": 4, "livingplace": "Massongex"}}, "location": "Ollon VD"}, "Tour du Chablais #5 Bex": {"race": "Tour du Chablais #5 Bex", "longitude": 6.931504599999999, "latitude": 46.3603257, "date": {"mer. 09.05.2012": {"weekday": "wednesday", "year": 2012, "categories": {"M-M20": {"pace": 322000000000, "rank": 169, "distance": 9, "time": 2854.6}}, "day": 9, "month": 5, "livingplace": "Massongex"}}, "location": "Roche VD"}, "Tour du Chablais #3 Le Bouveret": {"race": "Tour du Chablais #3 Le Bouveret", "longitude": 7.0223787, "latitude": 46.1782231, "date": {"mer. 11.05.2011": {"weekday": "wednesday", "year": 2011, "categories": {"M-M20": {"pace": 315000000000, "rank": 224, "distance": 10, "time": 3159.9}}, "day": 11, "month": 5, "livingplace": "Massongex"}}, "location": "Evionnaz"}, "Tour du Chablais #2 Rennaz": {"race": "Tour du Chablais #2 Rennaz", "longitude": 6.854975199999999, "latitude": 46.3835529, "date": {"mer. 04.05.2011": {"weekday": "wednesday", "year": 2011, "categories": {"M-M20": {"pace": 312000000000, "rank": 210, "distance": 9, "time": 2926.0}}, "day": 4, "month": 5, "livingplace": "Massongex"}}, "location": "Bouveret"}}, "name": "Ruchet Laurent", "birth": 1980}