{"sex": "M", "races": {"Tour du Chablais #1 Montreux": {"race": "Tour du Chablais #1 Montreux", "longitude": 6.9916269, "latitude": 46.2957462, "date": {"mer. 11.04.2012": {"weekday": "wednesday", "year": 2012, "categories": {"M-M40": {"pace": 299000000000, "rank": 105, "distance": 8, "time": 2275.0}}, "day": 11, "month": 4, "livingplace": "Vex"}}, "location": "Ollon VD"}, "Tour du Chablais #5 Les Mosses": {"race": "Tour du Chablais #5 Les Mosses", "longitude": 6.931504599999999, "latitude": 46.3603257, "date": {"mer. 25.05.2011": {"weekday": "wednesday", "year": 2011, "categories": {"M-M40": {"pace": 333000000000, "rank": 107, "distance": 8, "time": 2667.1}}, "day": 25, "month": 5, "livingplace": "Vex"}}, "location": "Roche VD"}, "Tour du Chablais #1 Lavey": {"race": "Tour du Chablais #1 Lavey", "longitude": 6.9916269, "latitude": 46.2957462, "date": {"mer. 27.04.2011": {"weekday": "wednesday", "year": 2011, "categories": {"M-M40": {"pace": 304000000000, "rank": 118, "distance": 9, "time": 2740.8}}, "day": 27, "month": 4, "livingplace": "Vex"}}, "location": "Ollon VD"}, "Tour du Chablais #4 Champ\u00e9ry": {"race": "Tour du Chablais #4 Champ\u00e9ry", "date": {"mer. 02.05.2012": {"weekday": "wednesday", "year": 2012, "categories": {"M-M40": {"pace": 294000000000, "rank": 97, "distance": 8, "time": 2443.0}}, "day": 2, "month": 5, "livingplace": "Vex"}}, "location": "Les Mosses"}, "Tour du Chablais #2 Bex": {"race": "Tour du Chablais #2 Bex", "longitude": 6.854975199999999, "latitude": 46.3835529, "date": {"mer. 18.04.2012": {"weekday": "wednesday", "year": 2012, "categories": {"M-M40": {"pace": 295000000000, "rank": 109, "distance": 8, "time": 2361.6}}, "day": 18, "month": 4, "livingplace": "Vex"}}, "location": "Bouveret"}, "Tour du Chablais #6 Montreux": {"race": "Tour du Chablais #6 Montreux", "longitude": 6.970566, "latitude": 46.3190253, "date": {"mer. 16.05.2012": {"weekday": "wednesday", "year": 2012, "categories": {"M-M40": {"pace": 283000000000, "rank": 109, "distance": 9, "time": 2624.9}}, "day": 16, "month": 5, "livingplace": "Vex"}}, "location": "Aigle"}, "Tour du Chablais #3 Le Bouveret": {"race": "Tour du Chablais #3 Le Bouveret", "longitude": 7.0223787, "latitude": 46.1782231, "date": {"mer. 11.05.2011": {"weekday": "wednesday", "year": 2011, "categories": {"M-M40": {"pace": 306000000000, "rank": 135, "distance": 10, "time": 3064.7}}, "day": 11, "month": 5, "livingplace": "Vex"}}, "location": "Evionnaz"}, "Tour du Chablais #5 Bex": {"race": "Tour du Chablais #5 Bex", "longitude": 6.931504599999999, "latitude": 46.3603257, "date": {"mer. 09.05.2012": {"weekday": "wednesday", "year": 2012, "categories": {"M-M40": {"pace": 293000000000, "rank": 96, "distance": 9, "time": 2602.4}}, "day": 9, "month": 5, "livingplace": "Vex"}}, "location": "Roche VD"}, "Tour du Chablais #3 Collombey-Muraz": {"race": "Tour du Chablais #3 Collombey-Muraz", "longitude": 7.0223787, "latitude": 46.1782231, "date": {"mer. 25.04.2012": {"weekday": "wednesday", "year": 2012, "categories": {"M-M40": {"pace": 289000000000, "rank": 100, "distance": 9, "time": 2596.7}}, "day": 25, "month": 4, "livingplace": "Vex"}}, "location": "Evionnaz"}, "Tour du Chablais #6 Aigle": {"race": "Tour du Chablais #6 Aigle", "longitude": 6.970566, "latitude": 46.3190253, "date": {"mer. 01.06.2011": {"weekday": "wednesday", "year": 2011, "categories": {"M-M40": {"pace": 292000000000, "rank": 108, "distance": 10, "time": 2984.1}}, "day": 1, "month": 6, "livingplace": "Vex"}}, "location": "Aigle"}, "Tour du Chablais #4 Morgins": {"race": "Tour du Chablais #4 Morgins", "date": {"mer. 18.05.2011": {"weekday": "wednesday", "year": 2011, "categories": {"M-M40": {"pace": 328000000000, "rank": 128, "distance": 8, "time": 2740.7}}, "day": 18, "month": 5, "livingplace": "Vex"}}, "location": "Les Mosses"}}, "name": "Rudaz Eric", "birth": 1969}