{"sex": "M", "races": {"Tour du Chablais #5 Leysin": {"race": "Tour du Chablais #5 Leysin", "longitude": 6.931504599999999, "latitude": 46.3603257, "date": {"mer. 05.05.2010": {"weekday": "wednesday", "year": 2010, "categories": {"M-M50": {"pace": 338000000000, "rank": 52, "distance": 8, "time": 2859.9}}, "day": 5, "month": 5, "livingplace": "Bramois"}}, "location": "Roche VD"}, "Tour du Chablais #2 St-Gingolph": {"race": "Tour du Chablais #2 St-Gingolph", "longitude": 6.854975199999999, "latitude": 46.3835529, "date": {"mer. 14.04.2010": {"weekday": "wednesday", "year": 2010, "categories": {"M-M50": {"pace": 342000000000, "rank": 58, "distance": 8, "time": 2859.2}}, "day": 14, "month": 4, "livingplace": "Bramois"}}, "location": "Bouveret"}, "Tour du Chablais #4 Yvorne": {"race": "Tour du Chablais #4 Yvorne", "date": {"mer. 28.04.2010": {"weekday": "wednesday", "year": 2010, "categories": {"M-M50": {"pace": 326000000000, "rank": 46, "distance": 8, "time": 2705.4}}, "day": 28, "month": 4, "livingplace": "Bramois"}}, "location": "Les Mosses"}, "Tour du Chablais #3 Bex": {"race": "Tour du Chablais #3 Bex", "longitude": 7.0223787, "latitude": 46.1782231, "date": {"mer. 21.04.2010": {"weekday": "wednesday", "year": 2010, "categories": {"M-M50": {"pace": 308000000000, "rank": 56, "distance": 10, "time": 3086.8}}, "day": 21, "month": 4, "livingplace": "Bramois"}}, "location": "Evionnaz"}, "Tour du Chablais #1 Roche": {"race": "Tour du Chablais #1 Roche", "longitude": 6.9916269, "latitude": 46.2957462, "date": {"mer. 07.04.2010": {"weekday": "wednesday", "year": 2010, "categories": {"M-M50": {"pace": 317000000000, "rank": 66, "distance": 9, "time": 2841.9}}, "day": 7, "month": 4, "livingplace": "Bramois"}}, "location": "Ollon VD"}, "Lausanne Marathon": {"race": "Lausanne Marathon", "longitude": 6.6322734, "latitude": 46.5196535, "date": {"dim. 31.10.2010": {"weekday": "sunday", "year": 2010, "categories": {"21-H4": {"pace": 319000000000, "rank": 217, "distance": 21, "time": 6749.7}}, "day": 31, "month": 10, "livingplace": "Bramois"}}, "location": "Lausanne"}, "Z\u00fcrich Marathon, Teamrun und Cityrun": {"race": "Z\u00fcrich Marathon, Teamrun und Cityrun", "longitude": 8.541694, "latitude": 47.3768866, "date": {"dim. 17.04.2011": {"weekday": "sunday", "year": 2011, "categories": {"42-M50": {"pace": 374000000000, "rank": 322, "distance": 42, "time": 15821.7}}, "day": 17, "month": 4, "livingplace": "Bramois"}}, "location": "Z\u00fcrich"}, "Morat-Fribourg": {"race": "Morat-Fribourg", "longitude": 7.120184, "latitude": 46.92922110000001, "date": {"sam. 01.10.2011": {"weekday": "saturday", "year": 2011, "categories": {"17-M50": {"pace": 344000000000, "rank": 371, "distance": 17, "time": 5922.9}}, "day": 1, "month": 10, "livingplace": "Bramois"}, "sam. 02.10.2010": {"weekday": "saturday", "year": 2010, "categories": {"17-M50": {"pace": 330000000000, "rank": 292, "distance": 17, "time": 5666.2}}, "day": 2, "month": 10, "livingplace": "Bramois"}}, "location": "Murten"}, "Kerzerslauf": {"race": "Kerzerslauf", "longitude": 7.1954365, "latitude": 46.97488999999999, "date": {"sam. 19.03.2011": {"weekday": "saturday", "year": 2011, "categories": {"15-M50": {"pace": 324000000000, "rank": 372, "distance": 15, "time": 4865.1}}, "day": 19, "month": 3, "livingplace": "Bramois"}, "sam. 16.03.2013": {"weekday": "saturday", "year": 2013, "categories": {"15-M55": {"pace": 365000000000, "rank": 263, "distance": 15, "time": 5488.5}}, "day": 16, "month": 3, "livingplace": "Bramois"}, "sam. 15.03.2014": {"weekday": "saturday", "year": 2014, "categories": {"15-M55": {"pace": 330000000000, "rank": 226, "distance": 15, "time": 4953.5}}, "day": 15, "month": 3, "livingplace": "Bramois"}, "sam. 17.03.2012": {"weekday": "saturday", "year": 2012, "categories": {"15-M55": {"pace": 324000000000, "rank": 193, "distance": 15, "time": 4869.6}}, "day": 17, "month": 3, "livingplace": "Bramois"}}, "location": "Kerzers"}, "Tour du Chablais #6 Mouthey": {"race": "Tour du Chablais #6 Mouthey", "longitude": 6.970566, "latitude": 46.3190253, "date": {"mer. 12.05.2010": {"weekday": "wednesday", "year": 2010, "categories": {"M-M50": {"pace": 303000000000, "rank": 58, "distance": 9, "time": 2792.7}}, "day": 12, "month": 5, "livingplace": "Bramois"}}, "location": "Aigle"}}, "name": "Rudaz G\u00e9rald", "birth": 1957}