{"sex": "M", "races": {"Tour du Chablais #2 St-Gingolph": {"race": "Tour du Chablais #2 St-Gingolph", "longitude": 6.854975199999999, "latitude": 46.3835529, "date": {"mer. 14.04.2010": {"weekday": "wednesday", "year": 2010, "categories": {"M-M40": {"pace": 338000000000, "rank": 149, "distance": 8, "time": 2828.9}}, "day": 14, "month": 4, "livingplace": "Bex"}}, "location": "Bouveret"}, "Tour du Chablais #5 Leysin": {"race": "Tour du Chablais #5 Leysin", "longitude": 6.931504599999999, "latitude": 46.3603257, "date": {"mer. 05.05.2010": {"weekday": "wednesday", "year": 2010, "categories": {"M-M40": {"pace": 335000000000, "rank": 96, "distance": 8, "time": 2837.1}}, "day": 5, "month": 5, "livingplace": "Bex"}}, "location": "Roche VD"}, "Tour du Chablais #5 Les Mosses": {"race": "Tour du Chablais #5 Les Mosses", "longitude": 6.931504599999999, "latitude": 46.3603257, "date": {"mer. 25.05.2011": {"weekday": "wednesday", "year": 2011, "categories": {"M-M40": {"pace": 334000000000, "rank": 108, "distance": 8, "time": 2677.6}}, "day": 25, "month": 5, "livingplace": "Bex"}}, "location": "Roche VD"}, "Tour du Chablais #1 Lavey": {"race": "Tour du Chablais #1 Lavey", "longitude": 6.9916269, "latitude": 46.2957462, "date": {"mer. 27.04.2011": {"weekday": "wednesday", "year": 2011, "categories": {"M-M40": {"pace": 323000000000, "rank": 147, "distance": 9, "time": 2911.4}}, "day": 27, "month": 4, "livingplace": "Bex"}}, "location": "Ollon VD"}, "Tour du Chablais #4 Yvorne": {"race": "Tour du Chablais #4 Yvorne", "date": {"mer. 28.04.2010": {"weekday": "wednesday", "year": 2010, "categories": {"M-M40": {"pace": 322000000000, "rank": 134, "distance": 8, "time": 2671.3}}, "day": 28, "month": 4, "livingplace": "Bex"}}, "location": "Les Mosses"}, "Tour du Chablais #3 Bex": {"race": "Tour du Chablais #3 Bex", "longitude": 7.0223787, "latitude": 46.1782231, "date": {"mer. 21.04.2010": {"weekday": "wednesday", "year": 2010, "categories": {"M-M40": {"pace": 318000000000, "rank": 144, "distance": 10, "time": 3182.4}}, "day": 21, "month": 4, "livingplace": "Bex"}}, "location": "Evionnaz"}, "Tour du Chablais #3 Le Bouveret": {"race": "Tour du Chablais #3 Le Bouveret", "longitude": 7.0223787, "latitude": 46.1782231, "date": {"mer. 11.05.2011": {"weekday": "wednesday", "year": 2011, "categories": {"M-M40": {"pace": 310000000000, "rank": 141, "distance": 10, "time": 3104.9}}, "day": 11, "month": 5, "livingplace": "Bex"}}, "location": "Evionnaz"}, "Tour du Chablais #2 Rennaz": {"race": "Tour du Chablais #2 Rennaz", "longitude": 6.854975199999999, "latitude": 46.3835529, "date": {"mer. 04.05.2011": {"weekday": "wednesday", "year": 2011, "categories": {"M-M40": {"pace": 311000000000, "rank": 145, "distance": 9, "time": 2908.8}}, "day": 4, "month": 5, "livingplace": "Bex"}}, "location": "Bouveret"}, "Tour du Chablais #6 Aigle": {"race": "Tour du Chablais #6 Aigle", "longitude": 6.970566, "latitude": 46.3190253, "date": {"mer. 01.06.2011": {"weekday": "wednesday", "year": 2011, "categories": {"M-M40": {"pace": 312000000000, "rank": 135, "distance": 10, "time": 3185.3}}, "day": 1, "month": 6, "livingplace": "Bex"}}, "location": "Aigle"}, "Tour du Chablais #4 Morgins": {"race": "Tour du Chablais #4 Morgins", "date": {"mer. 18.05.2011": {"weekday": "wednesday", "year": 2011, "categories": {"M-M40": {"pace": 336000000000, "rank": 133, "distance": 8, "time": 2806.7}}, "day": 18, "month": 5, "livingplace": "Bex"}}, "location": "Les Mosses"}, "Tour du Chablais #6 Mouthey": {"race": "Tour du Chablais #6 Mouthey", "longitude": 6.970566, "latitude": 46.3190253, "date": {"mer. 12.05.2010": {"weekday": "wednesday", "year": 2010, "categories": {"M-M40": {"pace": 307000000000, "rank": 153, "distance": 9, "time": 2823.0}}, "day": 12, "month": 5, "livingplace": "Bex"}}, "location": "Aigle"}}, "name": "Saadani Rachid", "birth": 1967}