{"sex": "M", "races": {"Tour du Chablais #4 Champ\u00e9ry": {"race": "Tour du Chablais #4 Champ\u00e9ry", "date": {"mer. 02.05.2012": {"weekday": "wednesday", "year": 2012, "categories": {"M-M40": {"pace": 246000000000, "rank": 21, "distance": 8, "time": 2045.9}}, "day": 2, "month": 5, "livingplace": "La Tour de Peilz"}}, "location": "Les Mosses"}, "Tour du Chablais #6 Monthey": {"race": "Tour du Chablais #6 Monthey", "longitude": 6.970566, "latitude": 46.3190253, "date": {"mer. 08.05.2013": {"weekday": "wednesday", "year": 2013, "categories": {"M-M40": {"pace": 242000000000, "rank": 25, "distance": 9, "time": 2261.0}}, "day": 8, "month": 5, "livingplace": "La Tour de Peilz"}}, "location": "Aigle"}, "Tour du Chablais #2 Yvorne": {"race": "Tour du Chablais #2 Yvorne", "longitude": 6.854975199999999, "latitude": 46.3835529, "date": {"mer. 10.04.2013": {"weekday": "wednesday", "year": 2013, "categories": {"M-M40": {"pace": 267000000000, "rank": 27, "distance": 8, "time": 2137.9}}, "day": 10, "month": 4, "livingplace": "La Tour de Peilz"}}, "location": "Bouveret"}, "Tour du Chablais #2 Bex": {"race": "Tour du Chablais #2 Bex", "longitude": 6.854975199999999, "latitude": 46.3835529, "date": {"mer. 18.04.2012": {"weekday": "wednesday", "year": 2012, "categories": {"M-M40": {"pace": 246000000000, "rank": 20, "distance": 8, "time": 1972.1}}, "day": 18, "month": 4, "livingplace": "La Tour de Peilz"}}, "location": "Bouveret"}, "Tour du Chablais #3 Bouveret": {"race": "Tour du Chablais #3 Bouveret", "longitude": 7.0223787, "latitude": 46.1782231, "date": {"mer. 17.04.2013": {"weekday": "wednesday", "year": 2013, "categories": {"M-M40": {"pace": 246000000000, "rank": 30, "distance": 10, "time": 2466.9}}, "day": 17, "month": 4, "livingplace": "La Tour de Peilz"}}, "location": "Evionnaz"}, "Tour du Chablais #1 Roche": {"race": "Tour du Chablais #1 Roche", "longitude": 6.9916269, "latitude": 46.2957462, "date": {"mer. 03.04.2013": {"weekday": "wednesday", "year": 2013, "categories": {"M-M40": {"pace": 243000000000, "rank": 23, "distance": 9, "time": 2155.1}}, "day": 3, "month": 4, "livingplace": "La Tour de Peilz"}}, "location": "Ollon VD"}, "Tour du Chablais #3 Collombey-Muraz": {"race": "Tour du Chablais #3 Collombey-Muraz", "longitude": 7.0223787, "latitude": 46.1782231, "date": {"mer. 25.04.2012": {"weekday": "wednesday", "year": 2012, "categories": {"M-M40": {"pace": 245000000000, "rank": 24, "distance": 9, "time": 2204.6}}, "day": 25, "month": 4, "livingplace": "La Tour de Peilz"}}, "location": "Evionnaz"}, "Tour du Chablais #6 Montreux": {"race": "Tour du Chablais #6 Montreux", "longitude": 6.970566, "latitude": 46.3190253, "date": {"mer. 16.05.2012": {"weekday": "wednesday", "year": 2012, "categories": {"M-M40": {"pace": 239000000000, "rank": 33, "distance": 9, "time": 2218.3}}, "day": 16, "month": 5, "livingplace": "La Tour de Peilz"}}, "location": "Aigle"}, "Tour du Chablais #6 Aigle": {"race": "Tour du Chablais #6 Aigle", "longitude": 6.970566, "latitude": 46.3190253, "date": {"mer. 01.06.2011": {"weekday": "wednesday", "year": 2011, "categories": {"M-M40": {"pace": 243000000000, "rank": 31, "distance": 10, "time": 2486.6}}, "day": 1, "month": 6, "livingplace": "La Tour de Peilz"}}, "location": "Aigle"}, "Tour du Chablais #4 Morgins": {"race": "Tour du Chablais #4 Morgins", "date": {"mer. 18.05.2011": {"weekday": "wednesday", "year": 2011, "categories": {"M-M40": {"pace": 269000000000, "rank": 43, "distance": 8, "time": 2251.9}}, "day": 18, "month": 5, "livingplace": "La Tour de Peilz"}}, "location": "Les Mosses"}, "Tour du Chablais #5 Les Mosses": {"race": "Tour du Chablais #5 Les Mosses", "longitude": 6.931504599999999, "latitude": 46.3603257, "date": {"mer. 25.05.2011": {"weekday": "wednesday", "year": 2011, "categories": {"M-M40": {"pace": 275000000000, "rank": 33, "distance": 8, "time": 2200.3}}, "day": 25, "month": 5, "livingplace": "La Tour de Peilz"}}, "location": "Roche VD"}, "20km de Lausanne": {"race": "20km de Lausanne", "longitude": 6.6322734, "latitude": 46.5196535, "date": {"sam. 25.04.2015": {"weekday": "saturday", "year": 2015, "categories": {"20-H50": {"pace": 250000000000, "rank": 19, "distance": 20, "time": 5013.2}}, "day": 25, "month": 4, "livingplace": "Planet Endurance"}}, "location": "Lausanne"}, "Tour du Chablais #5 Morgins": {"race": "Tour du Chablais #5 Morgins", "longitude": 6.931504599999999, "latitude": 46.3603257, "date": {"mer. 01.05.2013": {"weekday": "wednesday", "year": 2013, "categories": {"M-M40": {"pace": 258000000000, "rank": 21, "distance": 8, "time": 1967.4}}, "day": 1, "month": 5, "livingplace": "La Tour de Peilz"}}, "location": "Roche VD"}, "Tour du Chablais #4 St  Maurice": {"race": "Tour du Chablais #4 St  Maurice", "date": {"mer. 24.04.2013": {"weekday": "wednesday", "year": 2013, "categories": {"M-M40": {"pace": 246000000000, "rank": 21, "distance": 10, "time": 2461.0}}, "day": 24, "month": 4, "livingplace": "La Tour de Peilz"}}, "location": "Les Mosses"}}, "name": "Sandiano Rub\u00e9n", "birth": 1965}