{"sex": "F", "races": {"Gurtenclassic, Wabern": {"race": "Gurtenclassic, Wabern", "longitude": 7.448973199999999, "latitude": 46.92901639999999, "date": {"dim. 02.11.2014": {"weekday": "sunday", "year": 2014, "categories": {"DW": {"pace": 420000000000, "rank": 11, "distance": 22, "time": 9162.1}}, "day": 2, "month": 11, "livingplace": "Bern"}}, "location": "Wabern"}, "Bl\u00fcemlisalp-Lauf, Reichenbach": {"race": "Bl\u00fcemlisalp-Lauf, Reichenbach", "longitude": 7.6940529, "latitude": 46.6254387, "date": {"dim. 25.05.2014": {"weekday": "sunday", "year": 2014, "categories": {"F20": {"pace": 406000000000, "rank": 18, "distance": 16, "time": 6536.2}}, "day": 25, "month": 5, "livingplace": "Pearl Izumi"}}, "location": "Reichenbach im Kandertal"}, "Wiedlisbacher L\u00e4ufe, Wiedlisbach": {"race": "Wiedlisbacher L\u00e4ufe, Wiedlisbach", "longitude": 7.6453444, "latitude": 47.2512653, "date": {"dim. 27.04.2008": {"weekday": "sunday", "year": 2008, "categories": {"F20-10": {"pace": 348000000000, "rank": 5, "distance": 10, "time": 3488.0}}, "day": 27, "month": 4, "livingplace": "Mumliswil"}}, "location": "Wiedlisbach"}, "Ch\u00e4sitzerlouf, Kehrsatz": {"race": "Ch\u00e4sitzerlouf, Kehrsatz", "date": {"sam. 04.05.2013": {"weekday": "saturday", "year": 2013, "categories": {"12-F20": {"pace": 288000000000, "rank": 6, "distance": 12, "time": 3458.5}}, "day": 4, "month": 5, "livingplace": "Bern"}}, "location": "Kehrsatz"}, "Steinh\u00f6lzlilauf, Liebefeld": {"race": "Steinh\u00f6lzlilauf, Liebefeld", "longitude": 7.416668, "latitude": 46.933331, "date": {"dim. 02.12.2012": {"weekday": "sunday", "year": 2012, "categories": {"L-HKF": {"pace": 313000000000, "rank": 6, "distance": 11, "time": 3291.6}}, "day": 2, "month": 12, "livingplace": "Bern"}}, "location": "Liebefeld"}, "Kerzerslauf": {"race": "Kerzerslauf", "longitude": 7.1954365, "latitude": 46.97488999999999, "date": {"sam. 15.03.2014": {"weekday": "saturday", "year": 2014, "categories": {"5-F20": {"pace": 283000000000, "rank": 35, "distance": 5, "time": 1417.4}}, "day": 15, "month": 3, "livingplace": "Bern"}}, "location": "Kerzers"}}, "name": "Saner Rita", "birth": 1986}