{"sex": "F", "races": {"Tour du Chablais #6 Montreux": {"race": "Tour du Chablais #6 Montreux", "longitude": 6.970566, "latitude": 46.3190253, "date": {"mer. 16.05.2012": {"weekday": "wednesday", "year": 2012, "categories": {"F-F20": {"pace": 320000000000, "rank": 77, "distance": 9, "time": 2961.0}}, "day": 16, "month": 5, "livingplace": "Martigny"}}, "location": "Aigle"}, "Tour du Chablais #1 Montreux": {"race": "Tour du Chablais #1 Montreux", "longitude": 6.9916269, "latitude": 46.2957462, "date": {"mer. 11.04.2012": {"weekday": "wednesday", "year": 2012, "categories": {"F-F20": {"pace": 353000000000, "rank": 93, "distance": 8, "time": 2690.2}}, "day": 11, "month": 4, "livingplace": "Martigny"}}, "location": "Ollon VD"}, "Tour du Chablais #2 Yvorne": {"race": "Tour du Chablais #2 Yvorne", "longitude": 6.854975199999999, "latitude": 46.3835529, "date": {"mer. 10.04.2013": {"weekday": "wednesday", "year": 2013, "categories": {"F-F20": {"pace": 342000000000, "rank": 63, "distance": 8, "time": 2743.0}}, "day": 10, "month": 4, "livingplace": "Martigny"}}, "location": "Bouveret"}, "Tour du Chablais #6 Monthey": {"race": "Tour du Chablais #6 Monthey", "longitude": 6.970566, "latitude": 46.3190253, "date": {"mer. 08.05.2013": {"weekday": "wednesday", "year": 2013, "categories": {"F-F20": {"pace": 313000000000, "rank": 64, "distance": 9, "time": 2924.8}}, "day": 8, "month": 5, "livingplace": "Martigny"}}, "location": "Aigle"}, "Tour du Chablais #2 Bex": {"race": "Tour du Chablais #2 Bex", "longitude": 6.854975199999999, "latitude": 46.3835529, "date": {"mer. 18.04.2012": {"weekday": "wednesday", "year": 2012, "categories": {"F-F20": {"pace": 339000000000, "rank": 98, "distance": 8, "time": 2719.2}}, "day": 18, "month": 4, "livingplace": "Martigny"}}, "location": "Bouveret"}, "Tour du Chablais #3 Bouveret": {"race": "Tour du Chablais #3 Bouveret", "longitude": 7.0223787, "latitude": 46.1782231, "date": {"mer. 17.04.2013": {"weekday": "wednesday", "year": 2013, "categories": {"F-F20": {"pace": 321000000000, "rank": 67, "distance": 10, "time": 3216.1}}, "day": 17, "month": 4, "livingplace": "Martigny"}}, "location": "Evionnaz"}, "Tour du Chablais #1 Roche": {"race": "Tour du Chablais #1 Roche", "longitude": 6.9916269, "latitude": 46.2957462, "date": {"mer. 03.04.2013": {"weekday": "wednesday", "year": 2013, "categories": {"F-F20": {"pace": 320000000000, "rank": 73, "distance": 9, "time": 2843.8}}, "day": 3, "month": 4, "livingplace": "Martigny"}}, "location": "Ollon VD"}, "Tour du Chablais #1 Martigny": {"race": "Tour du Chablais #1 Martigny", "longitude": 6.9916269, "latitude": 46.2957462, "date": {"mer. 23.04.2014": {"weekday": "wednesday", "year": 2014, "categories": {"F-F20": {"pace": 401000000000, "rank": 187, "distance": 9, "time": 3412.0}}, "day": 23, "month": 4, "livingplace": "Martigny"}}, "location": "Ollon VD"}, "Morat-Fribourg": {"race": "Morat-Fribourg", "longitude": 7.120184, "latitude": 46.92922110000001, "date": {"sam. 05.10.2013": {"weekday": "saturday", "year": 2013, "categories": {"17-W35": {"pace": 330000000000, "rank": 140, "distance": 17, "time": 5775.0}}, "day": 5, "month": 10, "livingplace": "Martigny"}}, "location": "Murten"}, "Tour du Chablais #4 Morgins": {"race": "Tour du Chablais #4 Morgins", "date": {"mer. 18.05.2011": {"weekday": "wednesday", "year": 2011, "categories": {"F-F20": {"pace": 350000000000, "rank": 69, "distance": 8, "time": 2927.9}}, "day": 18, "month": 5, "livingplace": "Martigny"}}, "location": "Les Mosses"}, "Tour du Chablais #5 Les Mosses": {"race": "Tour du Chablais #5 Les Mosses", "longitude": 6.931504599999999, "latitude": 46.3603257, "date": {"mer. 25.05.2011": {"weekday": "wednesday", "year": 2011, "categories": {"F-F20": {"pace": 365000000000, "rank": 74, "distance": 8, "time": 2926.3}}, "day": 25, "month": 5, "livingplace": "Martigny"}}, "location": "Roche VD"}, "Tour du Chablais #1 Lavey": {"race": "Tour du Chablais #1 Lavey", "longitude": 6.9916269, "latitude": 46.2957462, "date": {"mer. 27.04.2011": {"weekday": "wednesday", "year": 2011, "categories": {"F-F20": {"pace": 345000000000, "rank": 79, "distance": 9, "time": 3107.6}}, "day": 27, "month": 4, "livingplace": "Martigny"}}, "location": "Ollon VD"}, "Tour du Chablais #5 Bex": {"race": "Tour du Chablais #5 Bex", "longitude": 6.931504599999999, "latitude": 46.3603257, "date": {"mer. 09.05.2012": {"weekday": "wednesday", "year": 2012, "categories": {"F-F20": {"pace": 327000000000, "rank": 73, "distance": 9, "time": 2897.7}}, "day": 9, "month": 5, "livingplace": "Martigny"}}, "location": "Roche VD"}, "Tour du Chablais #5 Morgins": {"race": "Tour du Chablais #5 Morgins", "longitude": 6.931504599999999, "latitude": 46.3603257, "date": {"mer. 01.05.2013": {"weekday": "wednesday", "year": 2013, "categories": {"F-F20": {"pace": 355000000000, "rank": 73, "distance": 8, "time": 2705.4}}, "day": 1, "month": 5, "livingplace": "Martigny"}}, "location": "Roche VD"}, "Tour du Chablais #3 Le Bouveret": {"race": "Tour du Chablais #3 Le Bouveret", "longitude": 7.0223787, "latitude": 46.1782231, "date": {"mer. 11.05.2011": {"weekday": "wednesday", "year": 2011, "categories": {"F-F20": {"pace": 342000000000, "rank": 88, "distance": 10, "time": 3428.7}}, "day": 11, "month": 5, "livingplace": "Martigny"}}, "location": "Evionnaz"}, "Tour du Chablais #3 Collombey-Muraz": {"race": "Tour du Chablais #3 Collombey-Muraz", "longitude": 7.0223787, "latitude": 46.1782231, "date": {"mer. 25.04.2012": {"weekday": "wednesday", "year": 2012, "categories": {"F-F20": {"pace": 347000000000, "rank": 97, "distance": 9, "time": 3118.1}}, "day": 25, "month": 4, "livingplace": "Martigny"}}, "location": "Evionnaz"}, "Tour du Chablais #2 Rennaz": {"race": "Tour du Chablais #2 Rennaz", "longitude": 6.854975199999999, "latitude": 46.3835529, "date": {"mer. 04.05.2011": {"weekday": "wednesday", "year": 2011, "categories": {"F-F20": {"pace": 341000000000, "rank": 83, "distance": 9, "time": 3196.8}}, "day": 4, "month": 5, "livingplace": "Martigny"}}, "location": "Bouveret"}}, "name": "Saudan Corinne", "birth": 1978}