{"sex": "M", "races": {"BCN Tour Colombier": {"race": "BCN Tour Colombier", "longitude": 6.832783800000001, "latitude": 47.1034892, "date": {"mer. 16.05.2012": {"weekday": "wednesday", "year": 2012, "categories": {"HS1": {"pace": 272000000000, "rank": 75, "distance": 11, "time": 2941.7}}, "day": 16, "month": 5, "livingplace": "Neuchatel"}}, "location": "La Chaux-de-Fonds"}, "BCN Tour Neuch\u00e2tel": {"race": "BCN Tour Neuch\u00e2tel", "longitude": 6.9292732, "latitude": 46.9899874, "date": {"mer. 30.05.2012": {"weekday": "wednesday", "year": 2012, "categories": {"HS1": {"pace": 275000000000, "rank": 54, "distance": 11, "time": 3087.8}}, "day": 30, "month": 5, "livingplace": "Neuchatel"}}, "location": "Neuch\u00e2tel"}, "BCN Tour Cornaux": {"race": "BCN Tour Cornaux", "longitude": 6.8589727, "latitude": 46.9668714, "date": {"mer. 25.04.2012": {"weekday": "wednesday", "year": 2012, "categories": {"HS1": {"pace": 304000000000, "rank": 70, "distance": 11, "time": 3351.0}}, "day": 25, "month": 4, "livingplace": "Neuchatel"}}, "location": "Colombier NE"}, "Sierre-Zinal, Sierre": {"race": "Sierre-Zinal, Sierre", "longitude": 7.533536199999999, "latitude": 46.29413110000001, "date": {"dim. 12.08.2012": {"weekday": "sunday", "year": 2012, "categories": {"Elites": {"pace": 536000000000, "rank": 314, "distance": 31, "time": 16630.0}}, "day": 12, "month": 8, "livingplace": "Neuchatel"}}, "location": "Sierre"}, "BCN Tour La Chaux-de-Fonds": {"race": "BCN Tour La Chaux-de-Fonds", "longitude": 6.6324944, "latitude": 46.9262933, "date": {"mer. 23.05.2012": {"weekday": "wednesday", "year": 2012, "categories": {"HS1": {"pace": 270000000000, "rank": 74, "distance": 11, "time": 2922.8}}, "day": 23, "month": 5, "livingplace": "Neuchatel"}}, "location": "Couvet"}, "BCN Tour Les Ponts-de-Martel": {"race": "BCN Tour Les Ponts-de-Martel", "longitude": 6.733554799999999, "latitude": 46.999113, "date": {"mer. 09.05.2012": {"weekday": "wednesday", "year": 2012, "categories": {"HS1": {"pace": 282000000000, "rank": 85, "distance": 10, "time": 2913.0}}, "day": 9, "month": 5, "livingplace": "Neuchatel"}}, "location": "Les Ponts-de-Martel"}, "Lausanne Marathon": {"race": "Lausanne Marathon", "longitude": 6.6322734, "latitude": 46.5196535, "date": {"dim. 30.10.2011": {"weekday": "sunday", "year": 2011, "categories": {"21-H2": {"pace": 286000000000, "rank": 294, "distance": 21, "time": 6037.9}}, "day": 30, "month": 10, "livingplace": "Cormondreche"}}, "location": "Lausanne"}, "Aletsch-Halbmarathon, Bettmeralp": {"race": "Aletsch-Halbmarathon, Bettmeralp", "date": {"dim. 24.06.2012": {"weekday": "sunday", "year": 2012, "categories": {"M30": {"pace": 408000000000, "rank": 112, "distance": 21, "time": 8652.6}}, "day": 24, "month": 6, "livingplace": "Neuchatel"}}, "location": "Bettmeralp"}}, "name": "Sauser J\u00e9r\u00f4me", "birth": 1979}