{"sex": "M", "races": {"Tour du Chablais #3 Bouveret": {"race": "Tour du Chablais #3 Bouveret", "longitude": 7.0223787, "latitude": 46.1782231, "date": {"mer. 17.04.2013": {"weekday": "wednesday", "year": 2013, "categories": {"M-M40": {"pace": 235000000000, "rank": 20, "distance": 10, "time": 2354.2}}, "day": 17, "month": 4, "livingplace": "Vetroz"}}, "location": "Evionnaz"}, "Tour du Chablais #1 Montreux": {"race": "Tour du Chablais #1 Montreux", "longitude": 6.9916269, "latitude": 46.2957462, "date": {"mer. 11.04.2012": {"weekday": "wednesday", "year": 2012, "categories": {"M-M40": {"pace": 255000000000, "rank": 30, "distance": 8, "time": 1940.9}}, "day": 11, "month": 4, "livingplace": "Vetroz"}}, "location": "Ollon VD"}, "Tour du Chablais #2 Yvorne": {"race": "Tour du Chablais #2 Yvorne", "longitude": 6.854975199999999, "latitude": 46.3835529, "date": {"mer. 10.04.2013": {"weekday": "wednesday", "year": 2013, "categories": {"M-M40": {"pace": 252000000000, "rank": 18, "distance": 8, "time": 2019.4}}, "day": 10, "month": 4, "livingplace": "Vetroz"}}, "location": "Bouveret"}, "Tour du Chablais #5 Morgins": {"race": "Tour du Chablais #5 Morgins", "longitude": 6.931504599999999, "latitude": 46.3603257, "date": {"mer. 01.05.2013": {"weekday": "wednesday", "year": 2013, "categories": {"M-M40": {"pace": 250000000000, "rank": 14, "distance": 8, "time": 1907.4}}, "day": 1, "month": 5, "livingplace": "Vetroz"}}, "location": "Roche VD"}, "Tour du Chablais #1 Roche": {"race": "Tour du Chablais #1 Roche", "longitude": 6.9916269, "latitude": 46.2957462, "date": {"mer. 03.04.2013": {"weekday": "wednesday", "year": 2013, "categories": {"M-M40": {"pace": 233000000000, "rank": 15, "distance": 9, "time": 2069.1}}, "day": 3, "month": 4, "livingplace": "Vetroz"}}, "location": "Ollon VD"}, "Tour du Chablais #4 St  Maurice": {"race": "Tour du Chablais #4 St  Maurice", "date": {"mer. 24.04.2013": {"weekday": "wednesday", "year": 2013, "categories": {"M-M40": {"pace": 240000000000, "rank": 16, "distance": 10, "time": 2401.5}}, "day": 24, "month": 4, "livingplace": "Vetroz"}}, "location": "Les Mosses"}, "Z\u00fcrich Marathon, Teamrun und Cityrun": {"race": "Z\u00fcrich Marathon, Teamrun und Cityrun", "longitude": 8.541694, "latitude": 47.3768866, "date": {"dim. 06.04.2014": {"weekday": "sunday", "year": 2014, "categories": {"42-M45": {"pace": 293000000000, "rank": 127, "distance": 42, "time": 12374.9}}, "day": 6, "month": 4, "livingplace": "Vetroz"}}, "location": "Z\u00fcrich"}, "Morat-Fribourg": {"race": "Morat-Fribourg", "longitude": 7.120184, "latitude": 46.92922110000001, "date": {"sam. 04.10.2014": {"weekday": "saturday", "year": 2014, "categories": {"17-M45": {"pace": 254000000000, "rank": 40, "distance": 17, "time": 4371.4}}, "day": 4, "month": 10, "livingplace": "Vetroz"}, "sam. 03.10.2015": {"weekday": "saturday", "year": 2015, "categories": {"17-M45": {"pace": 264000000000, "rank": 55, "distance": 17, "time": 4535.2}}, "day": 3, "month": 10, "livingplace": "Vetroz"}, "sam. 05.10.2013": {"weekday": "saturday", "year": 2013, "categories": {"17-M45": {"pace": 265000000000, "rank": 84, "distance": 17, "time": 4629.0}}, "day": 5, "month": 10, "livingplace": "Vetroz"}}, "location": "Murten"}, "Kerzerslauf": {"race": "Kerzerslauf", "longitude": 7.1954365, "latitude": 46.97488999999999, "date": {"sam. 16.03.2013": {"weekday": "saturday", "year": 2013, "categories": {"15-M45": {"pace": 250000000000, "rank": 53, "distance": 15, "time": 3752.2}}, "day": 16, "month": 3, "livingplace": "Vetroz"}}, "location": "Kerzers"}}, "name": "Sauthier Jean-Claude", "birth": 1967}