{"sex": "F", "races": {"Tour du Chablais #1 Montreux": {"race": "Tour du Chablais #1 Montreux", "longitude": 6.9916269, "latitude": 46.2957462, "date": {"mer. 11.04.2012": {"weekday": "wednesday", "year": 2012, "categories": {"F-F20": {"pace": 372000000000, "rank": 112, "distance": 8, "time": 2828.6}}, "day": 11, "month": 4, "livingplace": "Ollon"}}, "location": "Ollon VD"}, "Tour du Chablais #2 Yvorne": {"race": "Tour du Chablais #2 Yvorne", "longitude": 6.854975199999999, "latitude": 46.3835529, "date": {"mer. 10.04.2013": {"weekday": "wednesday", "year": 2013, "categories": {"F-F20": {"pace": 367000000000, "rank": 91, "distance": 8, "time": 2936.5}}, "day": 10, "month": 4, "livingplace": "Ollon"}}, "location": "Bouveret"}, "Tour du Chablais #6 Monthey": {"race": "Tour du Chablais #6 Monthey", "longitude": 6.970566, "latitude": 46.3190253, "date": {"mer. 08.05.2013": {"weekday": "wednesday", "year": 2013, "categories": {"F-F20": {"pace": 336000000000, "rank": 105, "distance": 9, "time": 3138.1}}, "day": 8, "month": 5, "livingplace": "Ollon"}}, "location": "Aigle"}, "Tour du Chablais #3 Bouveret": {"race": "Tour du Chablais #3 Bouveret", "longitude": 7.0223787, "latitude": 46.1782231, "date": {"mer. 17.04.2013": {"weekday": "wednesday", "year": 2013, "categories": {"F-F20": {"pace": 343000000000, "rank": 93, "distance": 10, "time": 3431.9}}, "day": 17, "month": 4, "livingplace": "Ollon"}}, "location": "Evionnaz"}, "Tour du Chablais #1 Roche": {"race": "Tour du Chablais #1 Roche", "longitude": 6.9916269, "latitude": 46.2957462, "date": {"mer. 03.04.2013": {"weekday": "wednesday", "year": 2013, "categories": {"F-F20": {"pace": 351000000000, "rank": 110, "distance": 9, "time": 3111.0}}, "day": 3, "month": 4, "livingplace": "Ollon"}}, "location": "Ollon VD"}, "Tour du Chablais #1 Martigny": {"race": "Tour du Chablais #1 Martigny", "longitude": 6.9916269, "latitude": 46.2957462, "date": {"mer. 23.04.2014": {"weekday": "wednesday", "year": 2014, "categories": {"F-F20": {"pace": 304000000000, "rank": 56, "distance": 9, "time": 2592.4}}, "day": 23, "month": 4, "livingplace": "Ollon"}}, "location": "Ollon VD"}, "20km de Lausanne": {"race": "20km de Lausanne", "longitude": 6.6322734, "latitude": 46.5196535, "date": {"sam. 26.04.2014": {"weekday": "saturday", "year": 2014, "categories": {"10-F20": {"pace": 325000000000, "rank": 194, "distance": 10, "time": 3255.1}}, "day": 26, "month": 4, "livingplace": "Bjb's"}}, "location": "Lausanne"}, "Tour du Chablais #4 Champ\u00e9ry": {"race": "Tour du Chablais #4 Champ\u00e9ry", "date": {"mer. 02.05.2012": {"weekday": "wednesday", "year": 2012, "categories": {"F-F20": {"pace": 359000000000, "rank": 99, "distance": 8, "time": 2984.4}}, "day": 2, "month": 5, "livingplace": "Ollon"}}, "location": "Les Mosses"}, "Tour du Chablais #1 Lavey": {"race": "Tour du Chablais #1 Lavey", "longitude": 6.9916269, "latitude": 46.2957462, "date": {"mer. 27.04.2011": {"weekday": "wednesday", "year": 2011, "categories": {"F-F20": {"pace": 349000000000, "rank": 83, "distance": 9, "time": 3141.9}}, "day": 27, "month": 4, "livingplace": "Vevey"}}, "location": "Ollon VD"}, "Tour du Chablais #5 Bex": {"race": "Tour du Chablais #5 Bex", "longitude": 6.931504599999999, "latitude": 46.3603257, "date": {"mer. 09.05.2012": {"weekday": "wednesday", "year": 2012, "categories": {"F-F20": {"pace": 338000000000, "rank": 83, "distance": 9, "time": 2996.3}}, "day": 9, "month": 5, "livingplace": "Ollon"}}, "location": "Roche VD"}, "Tour du Chablais #5 Morgins": {"race": "Tour du Chablais #5 Morgins", "longitude": 6.931504599999999, "latitude": 46.3603257, "date": {"mer. 01.05.2013": {"weekday": "wednesday", "year": 2013, "categories": {"F-F20": {"pace": 336000000000, "rank": 57, "distance": 8, "time": 2555.2}}, "day": 1, "month": 5, "livingplace": "Ollon"}}, "location": "Roche VD"}, "Tour du Chablais #4 St  Maurice": {"race": "Tour du Chablais #4 St  Maurice", "date": {"mer. 24.04.2013": {"weekday": "wednesday", "year": 2013, "categories": {"F-F20": {"pace": 315000000000, "rank": 50, "distance": 10, "time": 3158.3}}, "day": 24, "month": 4, "livingplace": "Ollon"}}, "location": "Les Mosses"}}, "name": "Savioz Agn\u00e8s", "birth": 1987}