{"sex": "M", "races": {"Tour du Pays de Vaud #3 - Chavornay": {"race": "Tour du Pays de Vaud #3 - Chavornay", "longitude": 6.641183, "latitude": 46.7784736, "date": {"mer. 28.08.2013": {"weekday": "wednesday", "year": 2013, "categories": {"H-Sen1": {"pace": 273000000000, "rank": 69, "distance": 9, "time": 2435.6}}, "day": 28, "month": 8, "livingplace": "Lutry"}}, "location": "Yverdon-les-Bains"}, "Tour du pays de Vaud #1 - Penthaz": {"race": "Tour du pays de Vaud #1 - Penthaz", "longitude": 6.539251200000001, "latitude": 46.5993131, "date": {"mer. 14.08.2013": {"weekday": "wednesday", "year": 2013, "categories": {"H-Sen1": {"pace": 269000000000, "rank": 56, "distance": 9, "time": 2299.2}}, "day": 14, "month": 8, "livingplace": "Lutry"}}, "location": "Penthaz"}, "Course p\u00e9destre Thyon-Dixence, Thyon": {"race": "Course p\u00e9destre Thyon-Dixence, Thyon", "date": {"dim. 02.08.2015": {"weekday": "sunday", "year": 2015, "categories": {"HomElite": {"pace": 443000000000, "rank": 103, "distance": 16, "time": 7245.5}}, "day": 2, "month": 8, "livingplace": "Villette Lavaux"}}, "location": "Thyon-Les Collons"}, "Tour du Pays de Vaud #4 - La Sarraz": {"race": "Tour du Pays de Vaud #4 - La Sarraz", "longitude": 6.5707689, "latitude": 46.7088129, "date": {"mer. 04.09.2013": {"weekday": "wednesday", "year": 2013, "categories": {"H-Sen1": {"pace": 281000000000, "rank": 65, "distance": 9, "time": 2389.7}}, "day": 4, "month": 9, "livingplace": "Lutry"}}, "location": "Chavornay"}, "Morat-Fribourg": {"race": "Morat-Fribourg", "longitude": 7.120184, "latitude": 46.92922110000001, "date": {"sam. 03.10.2015": {"weekday": "saturday", "year": 2015, "categories": {"17-M20": {"pace": 283000000000, "rank": 620, "distance": 17, "time": 4860.0}}, "day": 3, "month": 10, "livingplace": "Villette Lavaux"}}, "location": "Murten"}, "20km de Lausanne": {"race": "20km de Lausanne", "longitude": 6.6322734, "latitude": 46.5196535, "date": {"sam. 28.04.2012": {"weekday": "saturday", "year": 2012, "categories": {"10-H30": {"pace": 381000000000, "rank": 948, "distance": 10, "time": 3819.4}}, "day": 28, "month": 4, "livingplace": "Sion"}, "sam. 27.04.2013": {"weekday": "saturday", "year": 2013, "categories": {"10-H30": {"pace": 291000000000, "rank": 425, "distance": 10, "time": 2918.4}}, "day": 27, "month": 4, "livingplace": "Sion"}, "sam. 26.04.2014": {"weekday": "saturday", "year": 2014, "categories": {"20-H30": {"pace": 292000000000, "rank": 383, "distance": 20, "time": 5841.8}}, "day": 26, "month": 4, "livingplace": "Lutry"}}, "location": "Lausanne"}, "Lausanne Marathon": {"race": "Lausanne Marathon", "longitude": 6.6322734, "latitude": 46.5196535, "date": {"dim. 31.10.2010": {"weekday": "sunday", "year": 2010, "categories": {"21-H2": {"pace": 295000000000, "rank": 405, "distance": 21, "time": 6228.2}}, "day": 31, "month": 10, "livingplace": "Sion"}, "sam. 24.10.2015": {"weekday": "saturday", "year": 2015, "categories": {"21-H30": {"pace": 283000000000, "rank": 239, "distance": 21, "time": 5972.0}}, "day": 24, "month": 10, "livingplace": "La Tour de Peilz"}, "dim. 27.10.2013": {"weekday": "sunday", "year": 2013, "categories": {"21-H2": {"pace": 291000000000, "rank": 314, "distance": 21, "time": 6149.0}}, "day": 27, "month": 10, "livingplace": "Lutry"}}, "location": "Lausanne"}, "Tour du Pays de Vaud #1, Penthaz": {"race": "Tour du Pays de Vaud #1, Penthaz", "longitude": 6.539251200000001, "latitude": 46.5993131, "date": {"mer. 13.08.2014": {"weekday": "wednesday", "year": 2014, "categories": {"H-Sen1": {"pace": 275000000000, "rank": 65, "distance": 9, "time": 2351.9}}, "day": 13, "month": 8, "livingplace": "Villette Lavaux"}}, "location": "Penthaz"}, "Aletsch-Halbmarathon, Bettmeralp": {"race": "Aletsch-Halbmarathon, Bettmeralp", "date": {"dim. 28.06.2015": {"weekday": "sunday", "year": 2015, "categories": {"M35": {"pace": 493000000000, "rank": 136, "distance": 21, "time": 10408.5}}, "day": 28, "month": 6, "livingplace": "Villette Lavaux"}}, "location": "Bettmeralp"}, "Tour du Pays de Vaud #4, La Sarraz": {"race": "Tour du Pays de Vaud #4, La Sarraz", "longitude": 6.5707689, "latitude": 46.7088129, "date": {"mer. 03.09.2014": {"weekday": "wednesday", "year": 2014, "categories": {"H-Sen1": {"pace": 271000000000, "rank": 64, "distance": 9, "time": 2306.1}}, "day": 3, "month": 9, "livingplace": "Villette Lavaux"}}, "location": "Chavornay"}, "Tour du Pays de Vaud #2, Mezi\u00e8res": {"race": "Tour du Pays de Vaud #2, Mezi\u00e8res", "longitude": 6.7702883, "latitude": 46.5955273, "date": {"mer. 20.08.2014": {"weekday": "wednesday", "year": 2014, "categories": {"H-Sen1": {"pace": 298000000000, "rank": 65, "distance": 8, "time": 2418.1}}, "day": 20, "month": 8, "livingplace": "Villette Lavaux"}}, "location": "M\u00e9zi\u00e8res VD"}, "D\u00e9fi du vignoble, Cully": {"race": "D\u00e9fi du vignoble, Cully", "longitude": -122.6066627, "latitude": 45.565921, "date": {"mer. 14.05.2014": {"weekday": "wednesday", "year": 2014, "categories": {"M30": {"pace": 490000000000, "rank": 33, "distance": 4, "time": 1787.0}}, "day": 14, "month": 5, "livingplace": "Villette Lavaux"}}, "location": "Cully"}, "Tour du Pays de Vaud #2 - Mezi\u00e8res": {"race": "Tour du Pays de Vaud #2 - Mezi\u00e8res", "longitude": 6.7702883, "latitude": 46.5955273, "date": {"mer. 21.08.2013": {"weekday": "wednesday", "year": 2013, "categories": {"H-Sen1": {"pace": 297000000000, "rank": 61, "distance": 8, "time": 2409.7}}, "day": 21, "month": 8, "livingplace": "Lutry"}}, "location": "M\u00e9zi\u00e8res VD"}, "Tour du Pays de Vaud #3, Chavornay": {"race": "Tour du Pays de Vaud #3, Chavornay", "longitude": 6.641183, "latitude": 46.7784736, "date": {"mer. 27.08.2014": {"weekday": "wednesday", "year": 2014, "categories": {"H-Sen1": {"pace": 291000000000, "rank": 76, "distance": 9, "time": 2510.6}}, "day": 27, "month": 8, "livingplace": "Villette Lavaux"}}, "location": "Yverdon-les-Bains"}}, "name": "Schaller Nicolas", "birth": 1980}