{"sex": "M", "races": {"Thuner Langstreckenlauf": {"race": "Thuner Langstreckenlauf", "longitude": 7.6279881, "latitude": 46.7579868, "date": {"sam. 22.05.2004": {"weekday": "saturday", "year": 2004, "categories": {"M40": {"pace": 258000000000, "rank": 26, "distance": 15, "time": 3752.1}}, "day": 22, "month": 5, "livingplace": "Steffisburg"}}, "location": "Thun"}, "Dreil\u00e4nder-Lauf, Basel": {"race": "Dreil\u00e4nder-Lauf, Basel", "longitude": 7.5885761, "latitude": 47.5595986, "date": {"dim. 18.05.2008": {"weekday": "sunday", "year": 2008, "categories": {"21M40": {"pace": 344000000000, "rank": 157, "distance": 21, "time": 7265.6}}, "day": 18, "month": 5, "livingplace": "Steffisburg"}}, "location": "Basel"}, "Thuner Stadtlauf, Thun": {"race": "Thuner Stadtlauf, Thun", "longitude": 7.6279881, "latitude": 46.7579868, "date": {"dim. 26.08.2001": {"weekday": "sunday", "year": 2001, "categories": {"M40": {"pace": 265000000000, "rank": 40, "distance": 10, "time": 2653.6}}, "day": 26, "month": 8, "livingplace": "Steffisburg"}}, "location": "Thun"}, "ASICS Bremgarter Reusslauf": {"race": "ASICS Bremgarter Reusslauf", "longitude": 8.3397905, "latitude": 47.34917739999999, "date": {"sam. 26.02.2005": {"weekday": "saturday", "year": 2005, "categories": {"13": {"pace": 262000000000, "rank": 214, "distance": 11, "time": 2758.1}}, "day": 26, "month": 2, "livingplace": "Steffisburg"}}, "location": "Bremgarten AG"}, "Ch\u00e4sitzerlouf, Kehrsatz": {"race": "Ch\u00e4sitzerlouf, Kehrsatz", "date": {"sam. 24.04.2004": {"weekday": "saturday", "year": 2004, "categories": {"M40": {"pace": 276000000000, "rank": 148, "distance": 12, "time": 3394.9}}, "day": 24, "month": 4, "livingplace": "Steffisburg"}, "sam. 28.04.2001": {"weekday": "saturday", "year": 2001, "categories": {"35": {"pace": 261000000000, "rank": 15, "distance": 4, "time": 1149.3}}, "day": 28, "month": 4, "livingplace": "Steffisburg"}}, "location": "Kehrsatz"}, "Steinh\u00f6lzlilauf, Liebefeld": {"race": "Steinh\u00f6lzlilauf, Liebefeld", "longitude": 7.416668, "latitude": 46.933331, "date": {"dim. 05.12.2004": {"weekday": "sunday", "year": 2004, "categories": {"27": {"pace": 275000000000, "rank": 43, "distance": 11, "time": 2895.8}}, "day": 5, "month": 12, "livingplace": "Steffisburg"}}, "location": "Liebefeld"}, "Kerzerslauf": {"race": "Kerzerslauf", "longitude": 7.1954365, "latitude": 46.97488999999999, "date": {"sam. 20.03.2004": {"weekday": "saturday", "year": 2004, "categories": {"M40": {"pace": 298000000000, "rank": 344, "distance": 15, "time": 4477.4}}, "day": 20, "month": 3, "livingplace": "Steffisburg"}, "sam. 19.03.2005": {"weekday": "saturday", "year": 2005, "categories": {"M40": {"pace": 308000000000, "rank": 355, "distance": 15, "time": 4622.9}}, "day": 19, "month": 3, "livingplace": "Steffisburg"}}, "location": "Kerzers"}}, "name": "Sch\u00e4rer Thomas", "birth": 1961}