{"sex": "F", "races": {"Glarner Stadtlauf, Glarus": {"race": "Glarner Stadtlauf, Glarus", "date": {"sam. 30.10.2010": {"weekday": "saturday", "year": 2010, "categories": {"7-Dam1": {"pace": 239000000000, "rank": 5, "distance": 8, "time": 1883.9}}, "day": 30, "month": 10, "livingplace": "Hagneck"}}, "location": "Glarus"}, "10km de Payerne": {"race": "10km de Payerne", "longitude": 6.9405663, "latitude": 46.8220266, "date": {"sam. 28.03.2009": {"weekday": "saturday", "year": 2009, "categories": {"W U20": {"pace": 247000000000, "rank": 4, "distance": 10, "time": 2478.1}}, "day": 28, "month": 3, "livingplace": "LV Albis"}}, "location": "Payerne"}, "Kerzerslauf": {"race": "Kerzerslauf", "longitude": 7.1954365, "latitude": 46.97488999999999, "date": {"sam. 18.03.2006": {"weekday": "saturday", "year": 2006, "categories": {"F19": {"pace": 256000000000, "rank": 2, "distance": 15, "time": 3849.8}}, "day": 18, "month": 3, "livingplace": "Steinhausen"}, "sam. 20.03.2004": {"weekday": "saturday", "year": 2004, "categories": {"F15": {"pace": 271000000000, "rank": 1, "distance": 15, "time": 4074.9}}, "day": 20, "month": 3, "livingplace": "Steinhausen"}, "sam. 17.03.2007": {"weekday": "saturday", "year": 2007, "categories": {"F19": {"pace": 250000000000, "rank": 3, "distance": 15, "time": 3753.4}}, "day": 17, "month": 3, "livingplace": "Steinhausen"}, "sam. 15.03.2003": {"weekday": "saturday", "year": 2003, "categories": {"F15": {"pace": 259000000000, "rank": 1, "distance": 15, "time": 3898.6}}, "day": 15, "month": 3, "livingplace": "Steinhausen"}}, "location": "Kerzers"}, "Tour du Chablais #6 Montreux": {"race": "Tour du Chablais #6 Montreux", "longitude": 6.970566, "latitude": 46.3190253, "date": {"mer. 16.05.2012": {"weekday": "wednesday", "year": 2012, "categories": {"F-F20": {"pace": 227000000000, "rank": 3, "distance": 9, "time": 2106.0}}, "day": 16, "month": 5, "livingplace": "Hagneck"}}, "location": "Aigle"}, "Z\u00fcrcher Silvesterlauf, Z\u00fcrich": {"race": "Z\u00fcrcher Silvesterlauf, Z\u00fcrich", "longitude": 8.541694, "latitude": 47.3768866, "date": {"dim. 16.12.2007": {"weekday": "sunday", "year": 2007, "categories": {"JunF-8": {"pace": 229000000000, "rank": 2, "distance": 9, "time": 1973.6}}, "day": 16, "month": 12, "livingplace": "Steinhausen"}}, "location": "Z\u00fcrich"}, "20km de Lausanne": {"race": "20km de Lausanne", "longitude": 6.6322734, "latitude": 46.5196535, "date": {"sam. 27.04.2013": {"weekday": "saturday", "year": 2013, "categories": {"20-F20": {"pace": 236000000000, "rank": 9, "distance": 20, "time": 4733.6}}, "day": 27, "month": 4, "livingplace": "Team TBB"}}, "location": "Lausanne"}, "Tour du Chablais #6 Aigle": {"race": "Tour du Chablais #6 Aigle", "longitude": 6.970566, "latitude": 46.3190253, "date": {"mer. 01.06.2011": {"weekday": "wednesday", "year": 2011, "categories": {"F-F20": {"pace": 229000000000, "rank": 2, "distance": 10, "time": 2340.8}}, "day": 1, "month": 6, "livingplace": "Hagneck"}}, "location": "Aigle"}, "Kyburglauf, Kyburg": {"race": "Kyburglauf, Kyburg", "date": {"sam. 10.11.2012": {"weekday": "saturday", "year": 2012, "categories": {"10-F20": {"pace": 272000000000, "rank": 2, "distance": 10, "time": 2729.2}}, "day": 10, "month": 11, "livingplace": "Hagneck"}}, "location": "Kyburg"}, "Tour du Chablais #5 Les Mosses": {"race": "Tour du Chablais #5 Les Mosses", "longitude": 6.931504599999999, "latitude": 46.3603257, "date": {"mer. 25.05.2011": {"weekday": "wednesday", "year": 2011, "categories": {"F-F20": {"pace": 254000000000, "rank": 2, "distance": 8, "time": 2032.8}}, "day": 25, "month": 5, "livingplace": "Hagneck"}}, "location": "Roche VD"}, "Tour du Chablais #5 Bex": {"race": "Tour du Chablais #5 Bex", "longitude": 6.931504599999999, "latitude": 46.3603257, "date": {"mer. 09.05.2012": {"weekday": "wednesday", "year": 2012, "categories": {"F-F20": {"pace": 248000000000, "rank": 8, "distance": 9, "time": 2201.4}}, "day": 9, "month": 5, "livingplace": "Hagneck"}}, "location": "Roche VD"}, "Course de l'Avent, Fribourg": {"race": "Course de l'Avent, Fribourg", "longitude": 7.161971899999999, "latitude": 46.8064773, "date": {"dim. 25.11.2012": {"weekday": "sunday", "year": 2012, "categories": {"E-F20": {"pace": 257000000000, "rank": 2, "distance": 7, "time": 1714.7}}, "day": 25, "month": 11, "livingplace": "Hagneck"}}, "location": "Fribourg"}, "Gippinger Stauseelauf": {"race": "Gippinger Stauseelauf", "longitude": 8.2152586, "latitude": 47.5810513, "date": {"mer. 31.12.2008": {"weekday": "wednesday", "year": 2008, "categories": {"JunF": {"pace": 237000000000, "rank": 1, "distance": 8, "time": 1789.7}}, "day": 31, "month": 12, "livingplace": "Steinhausen"}, "lun. 31.12.2007": {"weekday": "monday", "year": 2007, "categories": {"JugA-F": {"pace": 232000000000, "rank": 1, "distance": 8, "time": 1750.0}}, "day": 31, "month": 12, "livingplace": "Steinhausen"}}, "location": "Leuggern"}}, "name": "Sch\u00e4rer C\u00e9line", "birth": 1990}