{"sex": "M", "races": {"Tour du Pays de Vaud #5 - La Sarraz": {"race": "Tour du Pays de Vaud #5 - La Sarraz", "longitude": 6.539251200000001, "latitude": 46.5993131, "date": {"mer. 08.09.2010": {"weekday": "wednesday", "year": 2010, "categories": {"Hom": {"pace": 326000000000, "rank": 64, "distance": 9, "time": 2968.6}}, "day": 8, "month": 9, "livingplace": "Bulle"}}, "location": "Penthaz"}, "Course p\u00e9destre Thyon-Dixence, Thyon": {"race": "Course p\u00e9destre Thyon-Dixence, Thyon", "date": {"dim. 05.08.2012": {"weekday": "sunday", "year": 2012, "categories": {"HomElite": {"pace": 483000000000, "rank": 108, "distance": 16, "time": 7909.6}}, "day": 5, "month": 8, "livingplace": "Orbe"}, "dim. 04.08.2013": {"weekday": "sunday", "year": 2013, "categories": {"HomElite": {"pace": 473000000000, "rank": 112, "distance": 16, "time": 7736.3}}, "day": 4, "month": 8, "livingplace": "Orbe"}}, "location": "Thyon-Les Collons"}, "Tour du Pays de Vaud #4 - La Sarraz": {"race": "Tour du Pays de Vaud #4 - La Sarraz", "longitude": 6.5707689, "latitude": 46.7088129, "date": {"mer. 29.08.2012": {"weekday": "wednesday", "year": 2012, "categories": {"H-Hom": {"pace": 281000000000, "rank": 56, "distance": 9, "time": 2395.9}}, "day": 29, "month": 8, "livingplace": "Orbe"}, "mer. 04.09.2013": {"weekday": "wednesday", "year": 2013, "categories": {"H-Hom": {"pace": 274000000000, "rank": 48, "distance": 9, "time": 2337.0}}, "day": 4, "month": 9, "livingplace": "Orbe"}}, "location": "Chavornay"}, "BCN Tour #6 Neuch\u00e2tel": {"race": "BCN Tour #6 Neuch\u00e2tel", "longitude": 6.9292732, "latitude": 46.9899874, "date": {"mer. 29.05.2013": {"weekday": "wednesday", "year": 2013, "categories": {"HE": {"pace": 300000000000, "rank": 160, "distance": 11, "time": 3306.1}}, "day": 29, "month": 5, "livingplace": "Orbe"}}, "location": "Neuch\u00e2tel"}, "Tour du pays de Vaud #1 \u2013 St  Prex": {"race": "Tour du pays de Vaud #1 \u2013 St  Prex", "longitude": 6.641183, "latitude": 46.7784736, "date": {"mer. 11.08.2010": {"weekday": "wednesday", "year": 2010, "categories": {"Hom": {"pace": 326000000000, "rank": 64, "distance": 8, "time": 2745.8}}, "day": 11, "month": 8, "livingplace": "Bulle"}}, "location": "Yverdon-les-Bains"}, "Tour du Pays de Vaud #3 - Chavornay": {"race": "Tour du Pays de Vaud #3 - Chavornay", "longitude": 6.641183, "latitude": 46.7784736, "date": {"mer. 28.08.2013": {"weekday": "wednesday", "year": 2013, "categories": {"H-Hom": {"pace": 284000000000, "rank": 66, "distance": 9, "time": 2533.8}}, "day": 28, "month": 8, "livingplace": "Orbe"}}, "location": "Yverdon-les-Bains"}, "Tour du Chablais #4 Morgins": {"race": "Tour du Chablais #4 Morgins", "date": {"mer. 18.05.2011": {"weekday": "wednesday", "year": 2011, "categories": {"M-M20": {"pace": 326000000000, "rank": 185, "distance": 8, "time": 2727.4}}, "day": 18, "month": 5, "livingplace": "Orbe"}}, "location": "Les Mosses"}, "Montreux - Les Rochers de Naye": {"race": "Montreux - Les Rochers de Naye", "longitude": 6.9106799, "latitude": 46.4312213, "date": {"dim. 10.07.2011": {"weekday": "sunday", "year": 2011, "categories": {"M-HElite": {"pace": 523000000000, "rank": 194, "distance": 19, "time": 9833.7}}, "day": 10, "month": 7, "livingplace": "Orbe"}}, "location": "Montreux"}, "Tour du Pays de Vaud #1, Penthaz": {"race": "Tour du Pays de Vaud #1, Penthaz", "longitude": 6.539251200000001, "latitude": 46.5993131, "date": {"mer. 13.08.2014": {"weekday": "wednesday", "year": 2014, "categories": {"H-Hom": {"pace": 265000000000, "rank": 33, "distance": 9, "time": 2267.2}}, "day": 13, "month": 8, "livingplace": "Orbe"}}, "location": "Penthaz"}, "Tour du Pays de Vaud #2 - Genolier": {"race": "Tour du Pays de Vaud #2 - Genolier", "longitude": 6.7702883, "latitude": 46.5955273, "date": {"mer. 18.08.2010": {"weekday": "wednesday", "year": 2010, "categories": {"Hom": {"pace": 313000000000, "rank": 68, "distance": 8, "time": 2540.1}}, "day": 18, "month": 8, "livingplace": "Bulle"}}, "location": "M\u00e9zi\u00e8res VD"}, "Sierre-Zinal, Sierre": {"race": "Sierre-Zinal, Sierre", "longitude": 7.533536199999999, "latitude": 46.29413110000001, "date": {"dim. 12.08.2012": {"weekday": "sunday", "year": 2012, "categories": {"Elites": {"pace": 590000000000, "rank": 398, "distance": 31, "time": 18320.3}}, "day": 12, "month": 8, "livingplace": "Orbe"}, "dim. 10.08.2014": {"weekday": "sunday", "year": 2014, "categories": {"ElitesHo": {"pace": 582000000000, "rank": 529, "distance": 31, "time": 18059.3}}, "day": 10, "month": 8, "livingplace": "Orbe"}, "dim. 11.08.2013": {"weekday": "sunday", "year": 2013, "categories": {"Elites": {"pace": 513000000000, "rank": 288, "distance": 31, "time": 15918.4}}, "day": 11, "month": 8, "livingplace": "Orbe"}}, "location": "Sierre"}, "Tour du Pays de Vaud #3 - Mezi\u00e8res": {"race": "Tour du Pays de Vaud #3 - Mezi\u00e8res", "longitude": 6.641183, "latitude": 46.7784736, "date": {"mer. 22.08.2012": {"weekday": "wednesday", "year": 2012, "categories": {"H-Hom": {"pace": 319000000000, "rank": 63, "distance": 8, "time": 2685.0}}, "day": 22, "month": 8, "livingplace": "Orbe"}}, "location": "Yverdon-les-Bains"}, "Tour du Pays de Vaud #2 - Mezi\u00e8res": {"race": "Tour du Pays de Vaud #2 - Mezi\u00e8res", "longitude": 6.7702883, "latitude": 46.5955273, "date": {"mer. 21.08.2013": {"weekday": "wednesday", "year": 2013, "categories": {"H-Hom": {"pace": 309000000000, "rank": 54, "distance": 8, "time": 2506.3}}, "day": 21, "month": 8, "livingplace": "Orbe"}}, "location": "M\u00e9zi\u00e8res VD"}, "Tour du Pays de Vaud printanier #2 Yverdon-les-Bains": {"race": "Tour du Pays de Vaud printanier #2 Yverdon-les-Bains", "longitude": 6.7975224, "latitude": 46.6698891, "date": {"mer. 05.06.2013": {"weekday": "wednesday", "year": 2013, "categories": {"H-Hom": {"pace": 297000000000, "rank": 35, "distance": 9, "time": 2705.3}}, "day": 5, "month": 6, "livingplace": "Orbe"}}, "location": "Moudon"}, "Les Traine-Savates, Cheseaux-sur-Lausanne": {"race": "Les Traine-Savates, Cheseaux-sur-Lausanne", "longitude": 6.6047712, "latitude": 46.585452, "date": {"sam. 13.04.2013": {"weekday": "saturday", "year": 2013, "categories": {"10-M20": {"pace": 305000000000, "rank": 180, "distance": 10, "time": 3146.0}}, "day": 13, "month": 4, "livingplace": "Orbe"}, "sam. 12.04.2014": {"weekday": "saturday", "year": 2014, "categories": {"10-M20": {"pace": 295000000000, "rank": 173, "distance": 10, "time": 3039.0}}, "day": 12, "month": 4, "livingplace": "Orbe"}, "sam. 09.04.2011": {"weekday": "saturday", "year": 2011, "categories": {"10-M20": {"pace": 307000000000, "rank": 226, "distance": 10, "time": 3200.1}}, "day": 9, "month": 4, "livingplace": "Orbe"}}, "location": "Cheseaux-sur-Lausanne"}, "Corrida Bulloise, Bulle": {"race": "Corrida Bulloise, Bulle", "longitude": 7.057726799999999, "latitude": 46.6154512, "date": {"sam. 16.11.2013": {"weekday": "saturday", "year": 2013, "categories": {"M20": {"pace": 257000000000, "rank": 112, "distance": 8, "time": 2096.7}}, "day": 16, "month": 11, "livingplace": "Orbe"}}, "location": "Bulle"}, "Tour du Pays de Vaud #4, La Sarraz": {"race": "Tour du Pays de Vaud #4, La Sarraz", "longitude": 6.5707689, "latitude": 46.7088129, "date": {"mer. 03.09.2014": {"weekday": "wednesday", "year": 2014, "categories": {"H-Hom": {"pace": 261000000000, "rank": 31, "distance": 9, "time": 2223.2}}, "day": 3, "month": 9, "livingplace": "Orbe"}}, "location": "Chavornay"}, "Tour du Pays de Vaud #2, Mezi\u00e8res": {"race": "Tour du Pays de Vaud #2, Mezi\u00e8res", "longitude": 6.7702883, "latitude": 46.5955273, "date": {"mer. 20.08.2014": {"weekday": "wednesday", "year": 2014, "categories": {"H-Hom": {"pace": 290000000000, "rank": 28, "distance": 8, "time": 2353.4}}, "day": 20, "month": 8, "livingplace": "Orbe"}}, "location": "M\u00e9zi\u00e8res VD"}, "Tour du Chablais #2 Yvorne": {"race": "Tour du Chablais #2 Yvorne", "longitude": 6.854975199999999, "latitude": 46.3835529, "date": {"mer. 10.04.2013": {"weekday": "wednesday", "year": 2013, "categories": {"M-M20": {"pace": 299000000000, "rank": 130, "distance": 8, "time": 2393.4}}, "day": 10, "month": 4, "livingplace": "Orbe"}}, "location": "Bouveret"}, "Tour du Chablais #1 Roche": {"race": "Tour du Chablais #1 Roche", "longitude": 6.9916269, "latitude": 46.2957462, "date": {"mer. 03.04.2013": {"weekday": "wednesday", "year": 2013, "categories": {"M-M20": {"pace": 269000000000, "rank": 108, "distance": 9, "time": 2390.6}}, "day": 3, "month": 4, "livingplace": "Orbe"}}, "location": "Ollon VD"}, "Tour du Chablais #1 Martigny": {"race": "Tour du Chablais #1 Martigny", "longitude": 6.9916269, "latitude": 46.2957462, "date": {"mer. 23.04.2014": {"weekday": "wednesday", "year": 2014, "categories": {"M-M20": {"pace": 278000000000, "rank": 144, "distance": 9, "time": 2364.8}}, "day": 23, "month": 4, "livingplace": "Orbe"}}, "location": "Ollon VD"}, "Tour du pays de Vaud #1 - Mezi\u00e8res": {"race": "Tour du pays de Vaud #1 - Mezi\u00e8res", "longitude": 6.641183, "latitude": 46.7784736, "date": {"mer. 10.08.2011": {"weekday": "wednesday", "year": 2011, "categories": {"H-Hom": {"pace": 290000000000, "rank": 55, "distance": 9, "time": 2471.1}}, "day": 10, "month": 8, "livingplace": "Orbe"}}, "location": "Yverdon-les-Bains"}, "Morat-Fribourg": {"race": "Morat-Fribourg", "longitude": 7.120184, "latitude": 46.92922110000001, "date": {"sam. 04.10.2014": {"weekday": "saturday", "year": 2014, "categories": {"17-M20": {"pace": 316000000000, "rank": 1298, "distance": 17, "time": 5435.2}}, "day": 4, "month": 10, "livingplace": "Orbe"}, "sam. 01.10.2011": {"weekday": "saturday", "year": 2011, "categories": {"17-M20": {"pace": 344000000000, "rank": 1551, "distance": 17, "time": 5906.5}}, "day": 1, "month": 10, "livingplace": "Orbe"}, "sam. 02.10.2010": {"weekday": "saturday", "year": 2010, "categories": {"17-M20": {"pace": 340000000000, "rank": 1496, "distance": 17, "time": 5848.4}}, "day": 2, "month": 10, "livingplace": "Bulle"}, "sam. 05.10.2013": {"weekday": "saturday", "year": 2013, "categories": {"17-M20": {"pace": 286000000000, "rank": 844, "distance": 17, "time": 5002.6}}, "day": 5, "month": 10, "livingplace": "Orbe"}}, "location": "Murten"}, "Tour du Chablais #6 Aigle": {"race": "Tour du Chablais #6 Aigle", "longitude": 6.970566, "latitude": 46.3190253, "date": {"mer. 01.06.2011": {"weekday": "wednesday", "year": 2011, "categories": {"M-M20": {"pace": 299000000000, "rank": 190, "distance": 10, "time": 3052.3}}, "day": 1, "month": 6, "livingplace": "Orbe"}}, "location": "Aigle"}, "Tour du Chablais #5 Les Mosses": {"race": "Tour du Chablais #5 Les Mosses", "longitude": 6.931504599999999, "latitude": 46.3603257, "date": {"mer. 25.05.2011": {"weekday": "wednesday", "year": 2011, "categories": {"M-M20": {"pace": 337000000000, "rank": 180, "distance": 8, "time": 2696.4}}, "day": 25, "month": 5, "livingplace": "Orbe"}}, "location": "Roche VD"}, "Tour du Pays de Vaud #3, Chavornay": {"race": "Tour du Pays de Vaud #3, Chavornay", "longitude": 6.641183, "latitude": 46.7784736, "date": {"mer. 27.08.2014": {"weekday": "wednesday", "year": 2014, "categories": {"H-Hom": {"pace": 278000000000, "rank": 33, "distance": 9, "time": 2392.9}}, "day": 27, "month": 8, "livingplace": "Orbe"}}, "location": "Yverdon-les-Bains"}, "Tour du Chablais #3 Le Bouveret": {"race": "Tour du Chablais #3 Le Bouveret", "longitude": 7.0223787, "latitude": 46.1782231, "date": {"mer. 11.05.2011": {"weekday": "wednesday", "year": 2011, "categories": {"M-M20": {"pace": 306000000000, "rank": 208, "distance": 10, "time": 3061.2}}, "day": 11, "month": 5, "livingplace": "Orbe"}}, "location": "Evionnaz"}, "Tour du Pays de Vaud printanier #3 - Yens": {"race": "Tour du Pays de Vaud printanier #3 - Yens", "longitude": 6.5728678, "latitude": 46.7829756, "date": {"mer. 12.06.2013": {"weekday": "wednesday", "year": 2013, "categories": {"H-Hom": {"pace": 303000000000, "rank": 42, "distance": 9, "time": 2763.6}}, "day": 12, "month": 6, "livingplace": "Orbe"}}, "location": "Champvent"}, "Internationaler Matterhornlauf, Zermatt": {"race": "Internationaler Matterhornlauf, Zermatt", "date": {"sam. 25.08.2012": {"weekday": "saturday", "year": 2012, "categories": {"MHL-M20": {"pace": 472000000000, "rank": 31, "distance": 12, "time": 5898.0}}, "day": 25, "month": 8, "livingplace": "Mazzuco S.A."}, "sam. 21.08.2010": {"weekday": "saturday", "year": 2010, "categories": {"MHL-M20": {"pace": 502000000000, "rank": 32, "distance": 12, "time": 6277.6}}, "day": 21, "month": 8, "livingplace": "Bulle"}}, "location": "Zermatt"}, "Aletsch-Halbmarathon, Bettmeralp": {"race": "Aletsch-Halbmarathon, Bettmeralp", "date": {"dim. 26.06.2011": {"weekday": "sunday", "year": 2011, "categories": {"M20": {"pace": 519000000000, "rank": 103, "distance": 21, "time": 10917.4}}, "day": 26, "month": 6, "livingplace": "Mazzucco SA"}}, "location": "Bettmeralp"}}, "name": "Schenker Thomas", "birth": 1985}