{"sex": "M", "races": {"Int Greifenseelauf, Uster": {"race": "Int Greifenseelauf, Uster", "longitude": 8.717873899999999, "latitude": 47.3482747, "date": {"sam. 19.09.2009": {"weekday": "saturday", "year": 2009, "categories": {"K-M40": {"pace": 341000000000, "rank": 127, "distance": 10, "time": 3411.4}}, "day": 19, "month": 9, "livingplace": "Fehraltorf"}}, "location": "Uster"}, "Winterthur Marathon": {"race": "Winterthur Marathon", "longitude": -75.6037351, "latitude": 39.8088766, "date": {"dim. 29.05.2011": {"weekday": "sunday", "year": 2011, "categories": {"10-M40": {"pace": 324000000000, "rank": 30, "distance": 10, "time": 3247.5}}, "day": 29, "month": 5, "livingplace": "Fehraltorf"}}, "location": "Winterthur"}, "GP der Stadt D\u00fcbendorf": {"race": "GP der Stadt D\u00fcbendorf", "longitude": 8.618012799999999, "latitude": 47.3971476, "date": {"sam. 14.04.2012": {"weekday": "saturday", "year": 2012, "categories": {"C": {"pace": 317000000000, "rank": 216, "distance": 10, "time": 3173.3}}, "day": 14, "month": 4, "livingplace": "Fehraltorf"}}, "location": "D\u00fcbendorf"}, "Pfingstlauf Wohlen AG": {"race": "Pfingstlauf Wohlen AG", "longitude": 8.2768762, "latitude": 47.3493653, "date": {"sam. 11.06.2011": {"weekday": "saturday", "year": 2011, "categories": {"8-10-M40": {"pace": 307000000000, "rank": 75, "distance": 10, "time": 3075.1}}, "day": 11, "month": 6, "livingplace": "Fehraltorf"}}, "location": "Wohlen AG"}, "Emmenlauf Utzenstorf": {"race": "Emmenlauf Utzenstorf", "longitude": 7.5588034, "latitude": 47.12816670000001, "date": {"mer. 17.08.2011": {"weekday": "wednesday", "year": 2011, "categories": {"Herren3": {"pace": 309000000000, "rank": 92, "distance": 11, "time": 3247.8}}, "day": 17, "month": 8, "livingplace": "Fehraltorf"}}, "location": "Utzenstorf"}, "Lucerne Marathon, Luzern": {"race": "Lucerne Marathon, Luzern", "longitude": 8.3093072, "latitude": 47.05016819999999, "date": {"dim. 30.10.2011": {"weekday": "sunday", "year": 2011, "categories": {"H-M40": {"pace": 332000000000, "rank": 1069, "distance": 21, "time": 7022.4}}, "day": 30, "month": 10, "livingplace": "Fehraltorf"}}, "location": "Luzern"}, "Engadiner Sommerlauf, Samedan": {"race": "Engadiner Sommerlauf, Samedan", "date": {"dim. 21.08.2011": {"weekday": "sunday", "year": 2011, "categories": {"S-S2": {"pace": 350000000000, "rank": 139, "distance": 27, "time": 9457.3}}, "day": 21, "month": 8, "livingplace": "Fehraltorf"}}, "location": "Bever"}, "Z\u00fcrcher Silvesterlauf, Z\u00fcrich": {"race": "Z\u00fcrcher Silvesterlauf, Z\u00fcrich", "longitude": 8.541694, "latitude": 47.3768866, "date": {"dim. 11.12.2011": {"weekday": "sunday", "year": 2011, "categories": {"8-MenAK2": {"pace": 301000000000, "rank": 716, "distance": 9, "time": 2594.8}}, "day": 11, "month": 12, "livingplace": "Fehraltorf"}}, "location": "Z\u00fcrich"}, "R\u00fctilauf, R\u00fcti ZH": {"race": "R\u00fctilauf, R\u00fcti ZH", "longitude": 8.854421, "latitude": 47.2566995, "date": {"sam. 03.09.2011": {"weekday": "saturday", "year": 2011, "categories": {"C": {"pace": 322000000000, "rank": 92, "distance": 11, "time": 3642.8}}, "day": 3, "month": 9, "livingplace": "Fehraltorf"}}, "location": "R\u00fcti ZH"}}, "name": "Schibli Patrick", "birth": 1969}