{"sex": "F", "races": {"Rheinfall-Lauf, Neuhausen": {"race": "Rheinfall-Lauf, Neuhausen", "longitude": 8.6126098, "latitude": 47.6837423, "date": {"dim. 18.08.2013": {"weekday": "sunday", "year": 2013, "categories": {"R-W40": {"pace": 242000000000, "rank": 2, "distance": 7, "time": 1697.2}}, "day": 18, "month": 8, "livingplace": "Lohn"}}, "location": "Neuhausen am Rheinfall"}, "Kyburglauf, Kyburg": {"race": "Kyburglauf, Kyburg", "date": {"sam. 09.11.2013": {"weekday": "saturday", "year": 2013, "categories": {"10-F40": {"pace": 306000000000, "rank": 4, "distance": 10, "time": 3060.9}}, "day": 9, "month": 11, "livingplace": "Lohn"}, "sam. 13.11.2010": {"weekday": "saturday", "year": 2010, "categories": {"10-HF40": {"pace": 324000000000, "rank": 4, "distance": 10, "time": 3247.2}}, "day": 13, "month": 11, "livingplace": "Lohn"}}, "location": "Kyburg"}, "Int Greifenseelauf, Uster": {"race": "Int Greifenseelauf, Uster", "longitude": 8.717873899999999, "latitude": 47.3482747, "date": {"sam. 20.09.2003": {"weekday": "saturday", "year": 2003, "categories": {"H/W35": {"pace": 264000000000, "rank": 4, "distance": 21, "time": 5573.3}}, "day": 20, "month": 9, "livingplace": "Lohn"}}, "location": "Uster"}, "Pfingstlauf Wohlen AG": {"race": "Pfingstlauf Wohlen AG", "longitude": 8.2768762, "latitude": 47.3493653, "date": {"sam. 26.05.2007": {"weekday": "saturday", "year": 2007, "categories": {"F40": {"pace": 247000000000, "rank": 7, "distance": 8, "time": 2033.5}}, "day": 26, "month": 5, "livingplace": "Lws Sh"}}, "location": "Wohlen AG"}, "Lucerne Marathon, Luzern": {"race": "Lucerne Marathon, Luzern", "longitude": 8.3093072, "latitude": 47.05016819999999, "date": {"dim. 31.10.2010": {"weekday": "sunday", "year": 2010, "categories": {"H-F40": {"pace": 262000000000, "rank": 6, "distance": 21, "time": 5533.8}}, "day": 31, "month": 10, "livingplace": "Lohn"}}, "location": "Luzern"}, "Gippinger Stauseelauf": {"race": "Gippinger Stauseelauf", "longitude": 8.2152586, "latitude": 47.5810513, "date": {"mar. 31.12.2002": {"weekday": "tuesday", "year": 2002, "categories": {"F30": {"pace": 232000000000, "rank": 3, "distance": 8, "time": 1745.3}}, "day": 31, "month": 12, "livingplace": "Lohn"}}, "location": "Leuggern"}, "SwissCityMarathon - Lucerne, Luzern": {"race": "SwissCityMarathon - Lucerne, Luzern", "longitude": 8.3093072, "latitude": 47.05016819999999, "date": {"dim. 27.10.2013": {"weekday": "sunday", "year": 2013, "categories": {"H-F40": {"pace": 266000000000, "rank": 8, "distance": 21, "time": 5622.2}}, "day": 27, "month": 10, "livingplace": "Lohn"}}, "location": "Luzern"}}, "name": "Schlagenhauf Karin", "birth": 1965}