{"sex": "F", "races": {"Int Greifenseelauf, Uster": {"race": "Int Greifenseelauf, Uster", "longitude": 8.717873899999999, "latitude": 47.3482747, "date": {"sam. 20.09.2008": {"weekday": "saturday", "year": 2008, "categories": {"K-W20": {"pace": 394000000000, "rank": 148, "distance": 10, "time": 3946.1}}, "day": 20, "month": 9, "livingplace": "Hedingen"}}, "location": "Uster"}, "Gurtenclassic, Wabern": {"race": "Gurtenclassic, Wabern", "longitude": 7.448973199999999, "latitude": 46.92901639999999, "date": {"dim. 03.11.2013": {"weekday": "sunday", "year": 2013, "categories": {"W30": {"pace": 433000000000, "rank": 38, "distance": 15, "time": 6497.3}}, "day": 3, "month": 11, "livingplace": "Schlieren"}}, "location": "Wabern"}, "Pfingstlauf Wohlen AG": {"race": "Pfingstlauf Wohlen AG", "longitude": 8.2768762, "latitude": 47.3493653, "date": {"sam. 22.05.2010": {"weekday": "saturday", "year": 2010, "categories": {"8-F30": {"pace": 351000000000, "rank": 15, "distance": 10, "time": 3518.4}}, "day": 22, "month": 5, "livingplace": "Seengen"}}, "location": "Wohlen AG"}, "Badener Limmat-Lauf, Baden": {"race": "Badener Limmat-Lauf, Baden", "longitude": 8.5303972, "latitude": 48.5699281, "date": {"sam. 27.03.2010": {"weekday": "saturday", "year": 2010, "categories": {"F30": {"pace": 345000000000, "rank": 24, "distance": 13, "time": 4561.3}}, "day": 27, "month": 3, "livingplace": "Seengen"}}, "location": "Baden"}, "Lenzburger Lauf": {"race": "Lenzburger Lauf", "longitude": 8.172154500000001, "latitude": 47.3904443, "date": {"sam. 29.05.2010": {"weekday": "saturday", "year": 2010, "categories": {"11-F30": {"pace": 365000000000, "rank": 9, "distance": 12, "time": 4238.9}}, "day": 29, "month": 5, "livingplace": "Seengen"}}, "location": "Lenzburg"}, "Hallwilerseelauf, Beinwil am See": {"race": "Hallwilerseelauf, Beinwil am See", "date": {"sam. 12.10.2013": {"weekday": "saturday", "year": 2013, "categories": {"10-Frau": {"pace": 332000000000, "rank": 304, "distance": 10, "time": 3323.4}}, "day": 12, "month": 10, "livingplace": "Schlieren"}}, "location": "Beinwil am See"}, "ASICS Bremgarter Reusslauf": {"race": "ASICS Bremgarter Reusslauf", "longitude": 8.3397905, "latitude": 47.34917739999999, "date": {"sam. 27.02.2010": {"weekday": "saturday", "year": 2010, "categories": {"F30": {"pace": 341000000000, "rank": 123, "distance": 11, "time": 3754.0}}, "day": 27, "month": 2, "livingplace": "Seengen"}}, "location": "Bremgarten AG"}, "GP Fricktal, Eiken": {"race": "GP Fricktal, Eiken", "date": {"sam. 03.04.2010": {"weekday": "saturday", "year": 2010, "categories": {"F30": {"pace": 350000000000, "rank": 25, "distance": 16, "time": 5643.2}}, "day": 3, "month": 4, "livingplace": "Seengen"}}, "location": "Eiken"}, "Z\u00fcrcher Silvesterlauf, Z\u00fcrich": {"race": "Z\u00fcrcher Silvesterlauf, Z\u00fcrich", "longitude": 8.541694, "latitude": 47.3768866, "date": {"dim. 15.12.2013": {"weekday": "sunday", "year": 2013, "categories": {"10-F30": {"pace": 342000000000, "rank": 397, "distance": 10, "time": 3422.0}}, "day": 15, "month": 12, "livingplace": "Schlieren"}}, "location": "Z\u00fcrich"}}, "name": "Schmid Corinne", "birth": 1980}