{"sex": "M", "races": {"Gurtenclassic, Wabern": {"race": "Gurtenclassic, Wabern", "longitude": 7.448973199999999, "latitude": 46.92901639999999, "date": {"dim. 02.11.2014": {"weekday": "sunday", "year": 2014, "categories": {"KM20": {"pace": 299000000000, "rank": 15, "distance": 8, "time": 2516.3}}, "day": 2, "month": 11, "livingplace": "Oberbipp"}}, "location": "Wabern"}, "Burgdorfer Stadtlauf, Burgdorf": {"race": "Burgdorfer Stadtlauf, Burgdorf", "longitude": -115.9129022, "latitude": 45.277123, "date": {"sam. 12.09.2015": {"weekday": "saturday", "year": 2015, "categories": {"5-M30": {"pace": 263000000000, "rank": 3, "distance": 5, "time": 1317.6}}, "day": 12, "month": 9, "livingplace": "Oberbipp"}, "sam. 13.09.2014": {"weekday": "saturday", "year": 2014, "categories": {"5-M30": {"pace": 279000000000, "rank": 10, "distance": 5, "time": 1396.9}}, "day": 13, "month": 9, "livingplace": "Oberbipp"}}, "location": "Burgdorf"}, "Birslauf Basel": {"race": "Birslauf Basel", "longitude": 7.5885761, "latitude": 47.5595986, "date": {"sam. 28.03.2015": {"weekday": "saturday", "year": 2015, "categories": {"M\u00e4nner": {"pace": 264000000000, "rank": 134, "distance": 10, "time": 2641.4}}, "day": 28, "month": 3, "livingplace": "Oberbipp"}}, "location": "Basel"}, "Lenzburger Lauf": {"race": "Lenzburger Lauf", "longitude": 8.172154500000001, "latitude": 47.3904443, "date": {"sam. 30.05.2015": {"weekday": "saturday", "year": 2015, "categories": {"Jog-M": {"pace": 267000000000, "rank": 15, "distance": 5, "time": 1418.0}}, "day": 30, "month": 5, "livingplace": "Oberbipp"}}, "location": "Lenzburg"}, "Hallwilerseelauf, Beinwil am See": {"race": "Hallwilerseelauf, Beinwil am See", "date": {"sam. 10.10.2015": {"weekday": "saturday", "year": 2015, "categories": {"7-KM": {"pace": 253000000000, "rank": 15, "distance": 7, "time": 1747.1}}, "day": 10, "month": 10, "livingplace": "Oberbipp"}}, "location": "Beinwil am See"}, "Thuner Stadtlauf, Thun": {"race": "Thuner Stadtlauf, Thun", "longitude": 7.6279881, "latitude": 46.7579868, "date": {"sam. 15.08.2015": {"weekday": "saturday", "year": 2015, "categories": {"10-M30": {"pace": 253000000000, "rank": 31, "distance": 10, "time": 2534.9}}, "day": 15, "month": 8, "livingplace": "Oberbipp"}}, "location": "Thun"}, "ASICS Bremgarter Reusslauf": {"race": "ASICS Bremgarter Reusslauf", "longitude": 8.3397905, "latitude": 47.34917739999999, "date": {"sam. 28.02.2015": {"weekday": "saturday", "year": 2015, "categories": {"6-KM": {"pace": 256000000000, "rank": 37, "distance": 7, "time": 1693.6}}, "day": 28, "month": 2, "livingplace": "Oberbipp"}}, "location": "Bremgarten AG"}, "Ch\u00e4sitzerlouf, Kehrsatz": {"race": "Ch\u00e4sitzerlouf, Kehrsatz", "date": {"sam. 25.04.2015": {"weekday": "saturday", "year": 2015, "categories": {"12-M30": {"pace": 263000000000, "rank": 52, "distance": 12, "time": 3165.8}}, "day": 25, "month": 4, "livingplace": "Oberbipp"}}, "location": "Kehrsatz"}, "Langenthaler Stadtlauf": {"race": "Langenthaler Stadtlauf", "longitude": 7.790562299999999, "latitude": 47.2120786, "date": {"sam. 22.11.2014": {"weekday": "saturday", "year": 2014, "categories": {"JogM": {"pace": 247000000000, "rank": 40, "distance": 5, "time": 1235.4}}, "day": 22, "month": 11, "livingplace": "Oberbipp"}}, "location": "Langenthal"}, "SwissCityMarathon - Lucerne, Luzern": {"race": "SwissCityMarathon - Lucerne, Luzern", "longitude": 8.3093072, "latitude": 47.05016819999999, "date": {"dim. 25.10.2015": {"weekday": "sunday", "year": 2015, "categories": {"H-M30": {"pace": 261000000000, "rank": 92, "distance": 21, "time": 5509.1}}, "day": 25, "month": 10, "livingplace": "Oberbipp"}}, "location": "Luzern"}}, "name": "Schmid Olivier", "birth": 1982}