{"sex": "F", "races": {"Tour du Chablais #5 Leysin": {"race": "Tour du Chablais #5 Leysin", "longitude": 6.931504599999999, "latitude": 46.3603257, "date": {"mer. 05.05.2010": {"weekday": "wednesday", "year": 2010, "categories": {"F-F60": {"pace": 384000000000, "rank": 5, "distance": 8, "time": 3249.7}}, "day": 5, "month": 5, "livingplace": "Neuvecelle"}}, "location": "Roche VD"}, "Tour du Chablais #4 Yvorne": {"race": "Tour du Chablais #4 Yvorne", "date": {"mer. 28.04.2010": {"weekday": "wednesday", "year": 2010, "categories": {"F-F60": {"pace": 380000000000, "rank": 7, "distance": 8, "time": 3151.7}}, "day": 28, "month": 4, "livingplace": "Neuvecelle"}}, "location": "Les Mosses"}, "Tour du Chablais #3 Bex": {"race": "Tour du Chablais #3 Bex", "longitude": 7.0223787, "latitude": 46.1782231, "date": {"mer. 21.04.2010": {"weekday": "wednesday", "year": 2010, "categories": {"F-F60": {"pace": 350000000000, "rank": 6, "distance": 10, "time": 3503.2}}, "day": 21, "month": 4, "livingplace": "Neuvecelle"}}, "location": "Evionnaz"}, "Tour du Chablais #1 Roche": {"race": "Tour du Chablais #1 Roche", "longitude": 6.9916269, "latitude": 46.2957462, "date": {"mer. 07.04.2010": {"weekday": "wednesday", "year": 2010, "categories": {"F-F60": {"pace": 344000000000, "rank": 7, "distance": 9, "time": 3079.4}}, "day": 7, "month": 4, "livingplace": "Neuvecelle"}}, "location": "Ollon VD"}, "Tour du Chablais #2 St-Gingolph": {"race": "Tour du Chablais #2 St-Gingolph", "longitude": 6.854975199999999, "latitude": 46.3835529, "date": {"mer. 14.04.2010": {"weekday": "wednesday", "year": 2010, "categories": {"F-F60": {"pace": 395000000000, "rank": 6, "distance": 8, "time": 3302.7}}, "day": 14, "month": 4, "livingplace": "Neuvecelle"}}, "location": "Bouveret"}, "Tour du Chablais #2 Rennaz": {"race": "Tour du Chablais #2 Rennaz", "longitude": 6.854975199999999, "latitude": 46.3835529, "date": {"mer. 04.05.2011": {"weekday": "wednesday", "year": 2011, "categories": {"F-F60": {"pace": 367000000000, "rank": 6, "distance": 9, "time": 3438.6}}, "day": 4, "month": 5, "livingplace": "Neuvecelle"}}, "location": "Bouveret"}, "Tour du Chablais #6 Mouthey": {"race": "Tour du Chablais #6 Mouthey", "longitude": 6.970566, "latitude": 46.3190253, "date": {"mer. 12.05.2010": {"weekday": "wednesday", "year": 2010, "categories": {"F-F60": {"pace": 347000000000, "rank": 7, "distance": 9, "time": 3192.2}}, "day": 12, "month": 5, "livingplace": "Neuvecelle"}}, "location": "Aigle"}}, "name": "Schoeffler Monique", "birth": 1948}