{"sex": "F", "races": {"Int Greifenseelauf, Uster": {"race": "Int Greifenseelauf, Uster", "longitude": 8.717873899999999, "latitude": 47.3482747, "date": {"sam. 20.09.2008": {"weekday": "saturday", "year": 2008, "categories": {"H-W35": {"pace": 305000000000, "rank": 74, "distance": 21, "time": 6455.5}}, "day": 20, "month": 9, "livingplace": "Lyss"}}, "location": "Uster"}, "Gurtenclassic, Wabern": {"race": "Gurtenclassic, Wabern", "longitude": 7.448973199999999, "latitude": 46.92901639999999, "date": {"dim. 04.11.2007": {"weekday": "sunday", "year": 2007, "categories": {"W33": {"pace": 340000000000, "rank": 13, "distance": 15, "time": 5105.0}}, "day": 4, "month": 11, "livingplace": "Lyss"}}, "location": "Wabern"}, "Lucerne Marathon, Luzern": {"race": "Lucerne Marathon, Luzern", "longitude": 8.3093072, "latitude": 47.05016819999999, "date": {"dim. 25.10.2009": {"weekday": "sunday", "year": 2009, "categories": {"H-F30": {"pace": 316000000000, "rank": 147, "distance": 21, "time": 6683.5}}, "day": 25, "month": 10, "livingplace": "Lyss"}}, "location": "Luzern"}, "Bieler Lauftage, Biel Bienne": {"race": "Bieler Lauftage, Biel Bienne", "longitude": 7.2467909, "latitude": 47.1367785, "date": {"ven. 12.06.2009": {"weekday": "friday", "year": 2009, "categories": {"H/W35": {"pace": 315000000000, "rank": 5, "distance": 21, "time": 6655.5}}, "day": 12, "month": 6, "livingplace": "Lyss"}}, "location": "Biel/Bienne"}, "Thuner Stadtlauf, Thun": {"race": "Thuner Stadtlauf, Thun", "longitude": 7.6279881, "latitude": 46.7579868, "date": {"dim. 24.08.2008": {"weekday": "sunday", "year": 2008, "categories": {"10-W30": {"pace": 292000000000, "rank": 18, "distance": 10, "time": 2924.4}}, "day": 24, "month": 8, "livingplace": "Lyss"}}, "location": "Thun"}, "Kerzerslauf": {"race": "Kerzerslauf", "longitude": 7.1954365, "latitude": 46.97488999999999, "date": {"sam. 15.03.2008": {"weekday": "saturday", "year": 2008, "categories": {"15/F35": {"pace": 303000000000, "rank": 55, "distance": 15, "time": 4554.9}}, "day": 15, "month": 3, "livingplace": "Lyss"}, "sam. 17.03.2007": {"weekday": "saturday", "year": 2007, "categories": {"F20": {"pace": 295000000000, "rank": 103, "distance": 15, "time": 4435.3}}, "day": 17, "month": 3, "livingplace": "Lyss"}, "sam. 21.03.2009": {"weekday": "saturday", "year": 2009, "categories": {"15-F35": {"pace": 299000000000, "rank": 61, "distance": 15, "time": 4491.8}}, "day": 21, "month": 3, "livingplace": "Lyss"}}, "location": "Kerzers"}, "Ch\u00e4sitzerlouf, Kehrsatz": {"race": "Ch\u00e4sitzerlouf, Kehrsatz", "date": {"sam. 26.04.2008": {"weekday": "saturday", "year": 2008, "categories": {"F30": {"pace": 298000000000, "rank": 19, "distance": 12, "time": 3535.8}}, "day": 26, "month": 4, "livingplace": "Lyss"}}, "location": "Kehrsatz"}}, "name": "Schuler Priska", "birth": 1973}