{"sex": "F", "races": {"Tour du Chablais #5 Morgins": {"race": "Tour du Chablais #5 Morgins", "longitude": 6.931504599999999, "latitude": 46.3603257, "date": {"mer. 01.05.2013": {"weekday": "wednesday", "year": 2013, "categories": {"F-F40": {"pace": 326000000000, "rank": 24, "distance": 8, "time": 2478.1}}, "day": 1, "month": 5, "livingplace": "Leysin"}}, "location": "Roche VD"}, "Tour du Chablais #6 Monthey": {"race": "Tour du Chablais #6 Monthey", "longitude": 6.970566, "latitude": 46.3190253, "date": {"mer. 08.05.2013": {"weekday": "wednesday", "year": 2013, "categories": {"F-F40": {"pace": 297000000000, "rank": 24, "distance": 9, "time": 2778.6}}, "day": 8, "month": 5, "livingplace": "Leysin"}}, "location": "Aigle"}, "Tour du Chablais #2 Yvorne": {"race": "Tour du Chablais #2 Yvorne", "longitude": 6.854975199999999, "latitude": 46.3835529, "date": {"mer. 10.04.2013": {"weekday": "wednesday", "year": 2013, "categories": {"F-F40": {"pace": 342000000000, "rank": 27, "distance": 8, "time": 2738.6}}, "day": 10, "month": 4, "livingplace": "Leysin"}}, "location": "Bouveret"}, "Tour du Chablais #3 Bouveret": {"race": "Tour du Chablais #3 Bouveret", "longitude": 7.0223787, "latitude": 46.1782231, "date": {"mer. 17.04.2013": {"weekday": "wednesday", "year": 2013, "categories": {"F-F40": {"pace": 312000000000, "rank": 26, "distance": 10, "time": 3120.4}}, "day": 17, "month": 4, "livingplace": "Leysin"}}, "location": "Evionnaz"}, "Tour du Chablais #1 Roche": {"race": "Tour du Chablais #1 Roche", "longitude": 6.9916269, "latitude": 46.2957462, "date": {"mer. 03.04.2013": {"weekday": "wednesday", "year": 2013, "categories": {"F-F40": {"pace": 309000000000, "rank": 34, "distance": 9, "time": 2745.9}}, "day": 3, "month": 4, "livingplace": "Leysin"}}, "location": "Ollon VD"}, "Tour du Chablais #4 St  Maurice": {"race": "Tour du Chablais #4 St  Maurice", "date": {"mer. 24.04.2013": {"weekday": "wednesday", "year": 2013, "categories": {"F-F40": {"pace": 315000000000, "rank": 29, "distance": 10, "time": 3155.7}}, "day": 24, "month": 4, "livingplace": "Leysin"}}, "location": "Les Mosses"}}, "name": "Scott Sarah", "birth": 1973}