{"sex": "M", "races": {"La Trotteuse-Tissot, La Chaux-de-Fonds": {"race": "La Trotteuse-Tissot, La Chaux-de-Fonds", "longitude": 6.832783800000001, "latitude": 47.1034892, "date": {"sam. 18.12.2010": {"weekday": "saturday", "year": 2010, "categories": {"GC-H30": {"pace": 246000000000, "rank": 16, "distance": 8, "time": 1968.5}}, "day": 18, "month": 12, "livingplace": "Saint Laurent du Var"}}, "location": "La Chaux-de-Fonds"}, "BCN Tour Boudry": {"race": "BCN Tour Boudry", "longitude": 6.8589727, "latitude": 46.9668714, "date": {"mer. 26.04.2006": {"weekday": "wednesday", "year": 2006, "categories": {"HE": {"pace": 243000000000, "rank": 20, "distance": 10, "time": 2482.0}}, "day": 26, "month": 4, "livingplace": "La Chaux de Fonds"}}, "location": "Colombier NE"}, "D\u00e9fi Val-de-Travers, Couvet": {"race": "D\u00e9fi Val-de-Travers, Couvet", "longitude": 6.6324944, "latitude": 46.9262933, "date": {"sam. 21.06.2008": {"weekday": "saturday", "year": 2008, "categories": {"EH": {"pace": 314000000000, "rank": 4, "distance": 12, "time": 3839.6}}, "day": 21, "month": 6, "livingplace": "La Chaux de Fonds"}}, "location": "Couvet"}, "Grand Prix Craft, Neuch\u00e2tel": {"race": "Grand Prix Craft, Neuch\u00e2tel", "longitude": 6.9292732, "latitude": 46.9899874, "date": {"dim. 17.12.2006": {"weekday": "sunday", "year": 2006, "categories": {"HE": {"pace": 238000000000, "rank": 34, "distance": 7, "time": 1672.8}}, "day": 17, "month": 12, "livingplace": "La Chaux de Fonds"}}, "location": "Neuch\u00e2tel"}, "Kerzerslauf": {"race": "Kerzerslauf", "longitude": 7.1954365, "latitude": 46.97488999999999, "date": {"sam. 18.03.2006": {"weekday": "saturday", "year": 2006, "categories": {"M20": {"pace": 242000000000, "rank": 124, "distance": 15, "time": 3632.5}}, "day": 18, "month": 3, "livingplace": "La Chaux de Fonds"}}, "location": "Kerzers"}, "Morat-Fribourg": {"race": "Morat-Fribourg", "longitude": 7.120184, "latitude": 46.92922110000001, "date": {"sam. 06.10.2007": {"weekday": "saturday", "year": 2007, "categories": {"C/M20": {"pace": 225000000000, "rank": 22, "distance": 17, "time": 3870.7}}, "day": 6, "month": 10, "livingplace": "La Chaux de Fonds"}}, "location": "Murten"}, "Aletsch-Halbmarathon, Bettmeralp": {"race": "Aletsch-Halbmarathon, Bettmeralp", "date": {"dim. 26.06.2011": {"weekday": "sunday", "year": 2011, "categories": {"M30": {"pace": 419000000000, "rank": 119, "distance": 21, "time": 8812.4}}, "day": 26, "month": 6, "livingplace": "Nice"}}, "location": "Bettmeralp"}}, "name": "Seica Julien", "birth": 1978}