{"sex": "F", "races": {"Tour du Chablais #4 Champ\u00e9ry": {"race": "Tour du Chablais #4 Champ\u00e9ry", "date": {"mer. 02.05.2012": {"weekday": "wednesday", "year": 2012, "categories": {"F-F40": {"pace": 261000000000, "rank": 2, "distance": 8, "time": 2173.8}}, "day": 2, "month": 5, "livingplace": "Bex"}}, "location": "Les Mosses"}, "Tour du Chablais #2 Bex": {"race": "Tour du Chablais #2 Bex", "longitude": 6.854975199999999, "latitude": 46.3835529, "date": {"mer. 18.04.2012": {"weekday": "wednesday", "year": 2012, "categories": {"F-F40": {"pace": 262000000000, "rank": 4, "distance": 8, "time": 2099.4}}, "day": 18, "month": 4, "livingplace": "Bex"}}, "location": "Bouveret"}, "Tour du Chablais #3 Collombey-Muraz": {"race": "Tour du Chablais #3 Collombey-Muraz", "longitude": 7.0223787, "latitude": 46.1782231, "date": {"mer. 25.04.2012": {"weekday": "wednesday", "year": 2012, "categories": {"F-F40": {"pace": 259000000000, "rank": 2, "distance": 9, "time": 2329.6}}, "day": 25, "month": 4, "livingplace": "Bex"}}, "location": "Evionnaz"}, "Tour du Chablais #6 Montreux": {"race": "Tour du Chablais #6 Montreux", "longitude": 6.970566, "latitude": 46.3190253, "date": {"mer. 16.05.2012": {"weekday": "wednesday", "year": 2012, "categories": {"F-F40": {"pace": 254000000000, "rank": 3, "distance": 9, "time": 2352.2}}, "day": 16, "month": 5, "livingplace": "Bex"}}, "location": "Aigle"}, "Tour du Chablais #6 Aigle": {"race": "Tour du Chablais #6 Aigle", "longitude": 6.970566, "latitude": 46.3190253, "date": {"mer. 01.06.2011": {"weekday": "wednesday", "year": 2011, "categories": {"F-F40": {"pace": 257000000000, "rank": 7, "distance": 10, "time": 2629.0}}, "day": 1, "month": 6, "livingplace": "Bex"}}, "location": "Aigle"}, "20km de Lausanne": {"race": "20km de Lausanne", "longitude": 6.6322734, "latitude": 46.5196535, "date": {"sam. 28.04.2012": {"weekday": "saturday", "year": 2012, "categories": {"20-F40": {"pace": 284000000000, "rank": 10, "distance": 20, "time": 5694.3}}, "day": 28, "month": 4, "livingplace": "Bex"}}, "location": "Lausanne"}, "Glacier 3000 Run, Gstaad": {"race": "Glacier 3000 Run, Gstaad", "longitude": 7.2865728, "latitude": 46.4717588, "date": {"sam. 08.08.2015": {"weekday": "saturday", "year": 2015, "categories": {"F40": {"pace": 525000000000, "rank": 12, "distance": 26, "time": 13665.1}}, "day": 8, "month": 8, "livingplace": "Bex"}}, "location": "Gstaad"}, "Tour du Chablais #5 Les Mosses": {"race": "Tour du Chablais #5 Les Mosses", "longitude": 6.931504599999999, "latitude": 46.3603257, "date": {"mer. 25.05.2011": {"weekday": "wednesday", "year": 2011, "categories": {"F-F40": {"pace": 282000000000, "rank": 6, "distance": 8, "time": 2257.1}}, "day": 25, "month": 5, "livingplace": "Bex"}}, "location": "Roche VD"}, "Tour du Chablais #4 Morgins": {"race": "Tour du Chablais #4 Morgins", "date": {"mer. 18.05.2011": {"weekday": "wednesday", "year": 2011, "categories": {"F-F40": {"pace": 282000000000, "rank": 9, "distance": 8, "time": 2358.7}}, "day": 18, "month": 5, "livingplace": "Bex"}}, "location": "Les Mosses"}, "Tour du Chablais #5 Bex": {"race": "Tour du Chablais #5 Bex", "longitude": 6.931504599999999, "latitude": 46.3603257, "date": {"mer. 09.05.2012": {"weekday": "wednesday", "year": 2012, "categories": {"F-F40": {"pace": 252000000000, "rank": 1, "distance": 9, "time": 2238.6}}, "day": 9, "month": 5, "livingplace": "Bex"}}, "location": "Roche VD"}, "Tour du Chablais #1 Montreux": {"race": "Tour du Chablais #1 Montreux", "longitude": 6.9916269, "latitude": 46.2957462, "date": {"mer. 11.04.2012": {"weekday": "wednesday", "year": 2012, "categories": {"F-F40": {"pace": 269000000000, "rank": 2, "distance": 8, "time": 2051.1}}, "day": 11, "month": 4, "livingplace": "Bex"}}, "location": "Ollon VD"}, "Tour du Chablais #3 Le Bouveret": {"race": "Tour du Chablais #3 Le Bouveret", "longitude": 7.0223787, "latitude": 46.1782231, "date": {"mer. 11.05.2011": {"weekday": "wednesday", "year": 2011, "categories": {"F-F40": {"pace": 273000000000, "rank": 9, "distance": 10, "time": 2738.2}}, "day": 11, "month": 5, "livingplace": "Bex"}}, "location": "Evionnaz"}, "Aletsch-Halbmarathon, Bettmeralp": {"race": "Aletsch-Halbmarathon, Bettmeralp", "date": {"dim. 29.06.2014": {"weekday": "sunday", "year": 2014, "categories": {"F40": {"pace": 373000000000, "rank": 18, "distance": 13, "time": 4961.9}}, "day": 29, "month": 6, "livingplace": "Bex"}, "dim. 28.06.2015": {"weekday": "sunday", "year": 2015, "categories": {"F40": {"pace": 440000000000, "rank": 15, "distance": 21, "time": 9300.3}}, "day": 28, "month": 6, "livingplace": "Bex"}}, "location": "Bettmeralp"}}, "name": "Senft Michaela", "birth": 1971}