{"sex": "M", "races": {"Course de l'Escalade, Gen\u00e8ve": {"race": "Course de l'Escalade, Gen\u00e8ve", "longitude": 6.1431577, "latitude": 46.2043907, "date": {"sam. 04.12.2010": {"weekday": "saturday", "year": 2010, "categories": {"H-CB": {"pace": 215000000000, "rank": 18, "distance": 5, "time": 1029.0}}, "day": 4, "month": 12, "livingplace": "Chateau d'Oex"}}, "location": "Gen\u00e8ve"}, "Corrida Bulloise, Bulle": {"race": "Corrida Bulloise, Bulle", "longitude": 7.057726799999999, "latitude": 46.6154512, "date": {"sam. 20.11.2010": {"weekday": "saturday", "year": 2010, "categories": {"CMB": {"pace": 221000000000, "rank": 7, "distance": 3, "time": 698.6}}, "day": 20, "month": 11, "livingplace": "Chateau d'Oex"}, "sam. 15.11.2008": {"weekday": "saturday", "year": 2008, "categories": {"EA": {"pace": 241000000000, "rank": 17, "distance": 3, "time": 724.3}}, "day": 15, "month": 11, "livingplace": "Ch"}}, "location": "Bulle"}, "Tour du Chablais #5 Leysin": {"race": "Tour du Chablais #5 Leysin", "longitude": 6.931504599999999, "latitude": 46.3603257, "date": {"mer. 05.05.2010": {"weekday": "wednesday", "year": 2010, "categories": {"M-EC2": {"pace": 239000000000, "rank": 3, "distance": 4, "time": 848.9}}, "day": 5, "month": 5, "livingplace": "Chateau d'Oex"}}, "location": "Roche VD"}, "Tour du Chablais #4 Yvorne": {"race": "Tour du Chablais #4 Yvorne", "date": {"mer. 28.04.2010": {"weekday": "wednesday", "year": 2010, "categories": {"M-EC2": {"pace": 227000000000, "rank": 1, "distance": 3, "time": 728.0}}, "day": 28, "month": 4, "livingplace": "Chateau d'Oex"}}, "location": "Les Mosses"}, "Morat-Fribourg": {"race": "Morat-Fribourg", "longitude": 7.120184, "latitude": 46.92922110000001, "date": {"sam. 01.10.2011": {"weekday": "saturday", "year": 2011, "categories": {"8-JoggM": {"pace": 356000000000, "rank": 126, "distance": 9, "time": 3068.2}}, "day": 1, "month": 10, "livingplace": "Chateau d'Oex"}}, "location": "Murten"}, "Tour du Chablais #6 Aigle": {"race": "Tour du Chablais #6 Aigle", "longitude": 6.970566, "latitude": 46.3190253, "date": {"mer. 01.06.2011": {"weekday": "wednesday", "year": 2011, "categories": {"M-EC1": {"pace": 227000000000, "rank": 4, "distance": 5, "time": 1091.1}}, "day": 1, "month": 6, "livingplace": "Chateau d'Oex"}}, "location": "Aigle"}, "20km de Lausanne": {"race": "20km de Lausanne", "longitude": 6.6322734, "latitude": 46.5196535, "date": {"sam. 30.04.2011": {"weekday": "saturday", "year": 2011, "categories": {"4-CadM": {"pace": 224000000000, "rank": 9, "distance": 4, "time": 897.8}}, "day": 30, "month": 4, "livingplace": "Chateau d'Oex"}}, "location": "Lausanne"}, "Tour du Chablais #6 Mouthey": {"race": "Tour du Chablais #6 Mouthey", "longitude": 6.970566, "latitude": 46.3190253, "date": {"mer. 12.05.2010": {"weekday": "wednesday", "year": 2010, "categories": {"M-EC2": {"pace": 220000000000, "rank": 4, "distance": 3, "time": 704.6}}, "day": 12, "month": 5, "livingplace": "Chateau d'Oex"}}, "location": "Aigle"}, "Tour du Chablais #4 Morgins": {"race": "Tour du Chablais #4 Morgins", "date": {"mer. 18.05.2011": {"weekday": "wednesday", "year": 2011, "categories": {"M-EC1": {"pace": 242000000000, "rank": 3, "distance": 4, "time": 872.6}}, "day": 18, "month": 5, "livingplace": "Chateau d'Oex"}}, "location": "Les Mosses"}, "Sierre-Zinal, Sierre": {"race": "Sierre-Zinal, Sierre", "longitude": 7.533536199999999, "latitude": 46.29413110000001, "date": {"dim. 11.08.2013": {"weekday": "sunday", "year": 2013, "categories": {"Jun_Homm": {"pace": 453000000000, "rank": 60, "distance": 19, "time": 8610.6}}, "day": 11, "month": 8, "livingplace": "Ch"}}, "location": "Sierre"}, "Lausanne Marathon": {"race": "Lausanne Marathon", "longitude": 6.6322734, "latitude": 46.5196535, "date": {"dim. 31.10.2010": {"weekday": "sunday", "year": 2010, "categories": {"4-K4": {"pace": 216000000000, "rank": 3, "distance": 4, "time": 909.5}}, "day": 31, "month": 10, "livingplace": "Chateau d'Oex"}}, "location": "Lausanne"}, "Tour du Chablais #2 Rennaz": {"race": "Tour du Chablais #2 Rennaz", "longitude": 6.854975199999999, "latitude": 46.3835529, "date": {"mer. 04.05.2011": {"weekday": "wednesday", "year": 2011, "categories": {"M-EC1": {"pace": 214000000000, "rank": 3, "distance": 3, "time": 684.2}}, "day": 4, "month": 5, "livingplace": "Chateau d'Oex"}}, "location": "Bouveret"}}, "name": "Serra Tassio", "birth": 1996}