{"sex": "M", "races": {"Dreil\u00e4nder-Lauf, Basel": {"race": "Dreil\u00e4nder-Lauf, Basel", "longitude": 7.5885761, "latitude": 47.5595986, "date": {"dim. 22.05.2011": {"weekday": "sunday", "year": 2011, "categories": {"21M30": {"pace": 328000000000, "rank": 110, "distance": 21, "time": 6939.3}}, "day": 22, "month": 5, "livingplace": "Schwerzenbach"}, "dim. 25.05.2014": {"weekday": "sunday", "year": 2014, "categories": {"HM30": {"pace": 268000000000, "rank": 26, "distance": 21, "time": 5659.6}}, "day": 25, "month": 5, "livingplace": "Winkel"}}, "location": "Basel"}, "Burgdorfer Stadtlauf, Burgdorf": {"race": "Burgdorfer Stadtlauf, Burgdorf", "longitude": -115.9129022, "latitude": 45.277123, "date": {"sam. 14.09.2013": {"weekday": "saturday", "year": 2013, "categories": {"10-SenM1": {"pace": 257000000000, "rank": 6, "distance": 10, "time": 2571.0}}, "day": 14, "month": 9, "livingplace": "Schwerzenbach"}}, "location": "Burgdorf"}, "Z\u00fcrich Marathon, Teamrun und Cityrun": {"race": "Z\u00fcrich Marathon, Teamrun und Cityrun", "longitude": 8.541694, "latitude": 47.3768866, "date": {"dim. 06.04.2014": {"weekday": "sunday", "year": 2014, "categories": {"42-M30": {"pace": 329000000000, "rank": 396, "distance": 42, "time": 13887.5}}, "day": 6, "month": 4, "livingplace": "Schwerzenbach"}}, "location": "Z\u00fcrich"}, "Sihltaler Fr\u00fchlingslauf, Gattikon": {"race": "Sihltaler Fr\u00fchlingslauf, Gattikon", "longitude": 8.5644799, "latitude": 47.2949282, "date": {"mar. 01.05.2007": {"weekday": "tuesday", "year": 2007, "categories": {"M30": {"pace": 283000000000, "rank": 46, "distance": 10, "time": 2837.2}}, "day": 1, "month": 5, "livingplace": "Fallanden"}}, "location": "Gattikon"}, "Badener Limmat-Lauf, Baden": {"race": "Badener Limmat-Lauf, Baden", "longitude": 8.5303972, "latitude": 48.5699281, "date": {"sam. 16.03.2013": {"weekday": "saturday", "year": 2013, "categories": {"M30": {"pace": 267000000000, "rank": 52, "distance": 13, "time": 3527.1}}, "day": 16, "month": 3, "livingplace": "Schwerzenbach"}}, "location": "Baden"}, "IWB Basel Marathon": {"race": "IWB Basel Marathon", "longitude": 7.5885761, "latitude": 47.5595986, "date": {"dim. 28.09.2014": {"weekday": "sunday", "year": 2014, "categories": {"42-M30": {"pace": 335000000000, "rank": 43, "distance": 42, "time": 14154.2}}, "day": 28, "month": 9, "livingplace": "Winkel"}}, "location": "Basel"}, "ASICS Bremgarter Reusslauf": {"race": "ASICS Bremgarter Reusslauf", "longitude": 8.3397905, "latitude": 47.34917739999999, "date": {"sam. 22.02.2014": {"weekday": "saturday", "year": 2014, "categories": {"11-M30": {"pace": 252000000000, "rank": 156, "distance": 11, "time": 2778.3}}, "day": 22, "month": 2, "livingplace": "Schwerzenbach"}, "sam. 23.02.2013": {"weekday": "saturday", "year": 2013, "categories": {"11-M30": {"pace": 273000000000, "rank": 187, "distance": 11, "time": 3005.3}}, "day": 23, "month": 2, "livingplace": "Schwerzenbach"}}, "location": "Bremgarten AG"}, "Lucerne Marathon, Luzern": {"race": "Lucerne Marathon, Luzern", "longitude": 8.3093072, "latitude": 47.05016819999999, "date": {"dim. 31.10.2010": {"weekday": "sunday", "year": 2010, "categories": {"H-M30": {"pace": 341000000000, "rank": 842, "distance": 21, "time": 7198.6}}, "day": 31, "month": 10, "livingplace": "Schwerzenbach"}, "dim. 30.10.2011": {"weekday": "sunday", "year": 2011, "categories": {"H-M30": {"pace": 315000000000, "rank": 713, "distance": 21, "time": 6662.3}}, "day": 30, "month": 10, "livingplace": "Schwerzenbach"}}, "location": "Luzern"}, "Walliseller Lauf, Wallisellen": {"race": "Walliseller Lauf, Wallisellen", "date": {"dim. 04.11.2012": {"weekday": "sunday", "year": 2012, "categories": {"M2": {"pace": 273000000000, "rank": 39, "distance": 10, "time": 2597.6}}, "day": 4, "month": 11, "livingplace": "Schwerzenbach"}}, "location": "Wallisellen"}, "SwissCityMarathon - Lucerne, Luzern": {"race": "SwissCityMarathon - Lucerne, Luzern", "longitude": 8.3093072, "latitude": 47.05016819999999, "date": {"dim. 27.10.2013": {"weekday": "sunday", "year": 2013, "categories": {"M-M30": {"pace": 313000000000, "rank": 169, "distance": 42, "time": 13215.8}}, "day": 27, "month": 10, "livingplace": "Schwerzenbach"}}, "location": "Luzern"}}, "name": "Sieber Martin", "birth": 1975}