{"sex": "M", "races": {"Course de l'Escalade, Gen\u00e8ve": {"race": "Course de l'Escalade, Gen\u00e8ve", "longitude": 6.1431577, "latitude": 46.2043907, "date": {"sam. 05.12.2015": {"weekday": "saturday", "year": 2015, "categories": {"Elite-M": {"pace": 223000000000, "rank": 210, "distance": 7, "time": 1639.1}}, "day": 5, "month": 12, "livingplace": "Epalinges"}}, "location": "Gen\u00e8ve"}, "Eiger Ultra Trail, Grindelwald": {"race": "Eiger Ultra Trail, Grindelwald", "longitude": 8.0413962, "latitude": 46.624164, "date": {"sam. 19.07.2014": {"weekday": "saturday", "year": 2014, "categories": {"C-H": {"pace": 339000000000, "rank": 5, "distance": 16, "time": 5428.7}}, "day": 19, "month": 7, "livingplace": "Epalinges"}}, "location": "Grindelwald"}, "Zermatt Marathon, Zermatt": {"race": "Zermatt Marathon, Zermatt", "date": {"sam. 06.07.2013": {"weekday": "saturday", "year": 2013, "categories": {"M-M20": {"pace": 357000000000, "rank": 4, "distance": 42, "time": 15076.1}}, "day": 6, "month": 7, "livingplace": "Cyclophile Lausannois"}}, "location": "Zermatt"}, "D\u00e9fi du vignoble, Cully": {"race": "D\u00e9fi du vignoble, Cully", "longitude": -122.6066627, "latitude": 45.565921, "date": {"mer. 14.05.2014": {"weekday": "wednesday", "year": 2014, "categories": {"M20": {"pace": 414000000000, "rank": 3, "distance": 4, "time": 1510.1}}, "day": 14, "month": 5, "livingplace": "Epalinges"}}, "location": "Cully"}, "Lausanne Marathon": {"race": "Lausanne Marathon", "longitude": 6.6322734, "latitude": 46.5196535, "date": {"dim. 26.10.2014": {"weekday": "sunday", "year": 2014, "categories": {"10-H20": {"pace": 216000000000, "rank": 25, "distance": 10, "time": 2161.2}}, "day": 26, "month": 10, "livingplace": "Epalinges"}, "dim. 27.10.2013": {"weekday": "sunday", "year": 2013, "categories": {"10-H1": {"pace": 218000000000, "rank": 35, "distance": 10, "time": 2189.7}}, "day": 27, "month": 10, "livingplace": "Epalinges"}}, "location": "Lausanne"}, "Tour du Pays de Vaud printanier #3 - Yens": {"race": "Tour du Pays de Vaud printanier #3 - Yens", "longitude": 6.5728678, "latitude": 46.7829756, "date": {"mer. 18.06.2014": {"weekday": "wednesday", "year": 2014, "categories": {"H-Hom": {"pace": 234000000000, "rank": 9, "distance": 9, "time": 2132.7}}, "day": 18, "month": 6, "livingplace": "Epalinges"}}, "location": "Champvent"}, "Morat-Fribourg": {"race": "Morat-Fribourg", "longitude": 7.120184, "latitude": 46.92922110000001, "date": {"sam. 04.10.2014": {"weekday": "saturday", "year": 2014, "categories": {"17-M20": {"pace": 237000000000, "rank": 95, "distance": 17, "time": 4075.4}}, "day": 4, "month": 10, "livingplace": "Epalinges"}, "sam. 05.10.2013": {"weekday": "saturday", "year": 2013, "categories": {"17-M20": {"pace": 238000000000, "rank": 117, "distance": 17, "time": 4167.9}}, "day": 5, "month": 10, "livingplace": "Epalinges"}}, "location": "Murten"}, "Les Traine-Savates, Cheseaux-sur-Lausanne": {"race": "Les Traine-Savates, Cheseaux-sur-Lausanne", "longitude": 6.6047712, "latitude": 46.585452, "date": {"sam. 13.04.2013": {"weekday": "saturday", "year": 2013, "categories": {"10-M20": {"pace": 232000000000, "rank": 25, "distance": 10, "time": 2396.2}}, "day": 13, "month": 4, "livingplace": "Epalinges"}, "sam. 12.04.2014": {"weekday": "saturday", "year": 2014, "categories": {"10-M20": {"pace": 226000000000, "rank": 17, "distance": 10, "time": 2330.2}}, "day": 12, "month": 4, "livingplace": "Epalinges"}}, "location": "Cheseaux-sur-Lausanne"}, "20km de Lausanne": {"race": "20km de Lausanne", "longitude": 6.6322734, "latitude": 46.5196535, "date": {"sam. 30.04.2011": {"weekday": "saturday", "year": 2011, "categories": {"10-Hesp": {"pace": 318000000000, "rank": 179, "distance": 10, "time": 3183.2}}, "day": 30, "month": 4, "livingplace": "Epalinges"}}, "location": "Lausanne"}}, "name": "Sievert Tobias", "birth": 1992}