{"sex": "M", "races": {"Tour du Chablais #5 Leysin": {"race": "Tour du Chablais #5 Leysin", "longitude": 6.931504599999999, "latitude": 46.3603257, "date": {"mer. 05.05.2010": {"weekday": "wednesday", "year": 2010, "categories": {"M-M40": {"pace": 320000000000, "rank": 80, "distance": 8, "time": 2705.8}}, "day": 5, "month": 5, "livingplace": "Saillon"}}, "location": "Roche VD"}, "Tour du Chablais #4 Yvorne": {"race": "Tour du Chablais #4 Yvorne", "date": {"mer. 28.04.2010": {"weekday": "wednesday", "year": 2010, "categories": {"M-M40": {"pace": 338000000000, "rank": 151, "distance": 8, "time": 2799.2}}, "day": 28, "month": 4, "livingplace": "Saillon"}}, "location": "Les Mosses"}, "Hallwilerseelauf, Beinwil am See": {"race": "Hallwilerseelauf, Beinwil am See", "date": {"sam. 13.10.2012": {"weekday": "saturday", "year": 2012, "categories": {"21-M40": {"pace": 319000000000, "rank": 599, "distance": 21, "time": 6733.6}}, "day": 13, "month": 10, "livingplace": "Saillon"}}, "location": "Beinwil am See"}, "Tour du Chablais #1 Roche": {"race": "Tour du Chablais #1 Roche", "longitude": 6.9916269, "latitude": 46.2957462, "date": {"mer. 07.04.2010": {"weekday": "wednesday", "year": 2010, "categories": {"M-M40": {"pace": 292000000000, "rank": 118, "distance": 9, "time": 2614.3}}, "day": 7, "month": 4, "livingplace": "Saillon"}}, "location": "Ollon VD"}, "Tour du Chablais #1 Martigny": {"race": "Tour du Chablais #1 Martigny", "longitude": 6.9916269, "latitude": 46.2957462, "date": {"mer. 23.04.2014": {"weekday": "wednesday", "year": 2014, "categories": {"M-M40": {"pace": 307000000000, "rank": 112, "distance": 9, "time": 2614.6}}, "day": 23, "month": 4, "livingplace": "Saillon"}}, "location": "Ollon VD"}, "Lucerne Marathon, Luzern": {"race": "Lucerne Marathon, Luzern", "longitude": 8.3093072, "latitude": 47.05016819999999, "date": {"dim. 25.10.2009": {"weekday": "sunday", "year": 2009, "categories": {"H-M40": {"pace": 353000000000, "rank": 1036, "distance": 21, "time": 7449.0}}, "day": 25, "month": 10, "livingplace": "Saillon"}, "dim. 31.10.2010": {"weekday": "sunday", "year": 2010, "categories": {"H-M40": {"pace": 328000000000, "rank": 893, "distance": 21, "time": 6923.2}}, "day": 31, "month": 10, "livingplace": "Saillon"}, "dim. 30.10.2011": {"weekday": "sunday", "year": 2011, "categories": {"H-M40": {"pace": 333000000000, "rank": 1082, "distance": 21, "time": 7037.3}}, "day": 30, "month": 10, "livingplace": "Saillon"}}, "location": "Luzern"}, "Morat-Fribourg": {"race": "Morat-Fribourg", "longitude": 7.120184, "latitude": 46.92922110000001, "date": {"sam. 03.10.2009": {"weekday": "saturday", "year": 2009, "categories": {"C-M40": {"pace": 385000000000, "rank": 800, "distance": 17, "time": 6618.7}}, "day": 3, "month": 10, "livingplace": "Saillon"}, "sam. 05.10.2013": {"weekday": "saturday", "year": 2013, "categories": {"17-M45": {"pace": 341000000000, "rank": 625, "distance": 17, "time": 5962.7}}, "day": 5, "month": 10, "livingplace": "Saillon"}}, "location": "Murten"}, "Z\u00fcrcher Silvesterlauf, Z\u00fcrich": {"race": "Z\u00fcrcher Silvesterlauf, Z\u00fcrich", "longitude": 8.541694, "latitude": 47.3768866, "date": {"dim. 11.12.2011": {"weekday": "sunday", "year": 2011, "categories": {"8-MenAK2": {"pace": 309000000000, "rank": 824, "distance": 9, "time": 2664.0}}, "day": 11, "month": 12, "livingplace": "Saillon"}}, "location": "Z\u00fcrich"}, "Tour du Chablais #4 Morgins": {"race": "Tour du Chablais #4 Morgins", "date": {"mer. 18.05.2011": {"weekday": "wednesday", "year": 2011, "categories": {"M-M40": {"pace": 332000000000, "rank": 129, "distance": 8, "time": 2773.9}}, "day": 18, "month": 5, "livingplace": "Saillon"}}, "location": "Les Mosses"}, "Tour du Chablais #6 Mouthey": {"race": "Tour du Chablais #6 Mouthey", "longitude": 6.970566, "latitude": 46.3190253, "date": {"mer. 12.05.2010": {"weekday": "wednesday", "year": 2010, "categories": {"M-M40": {"pace": 288000000000, "rank": 118, "distance": 9, "time": 2650.6}}, "day": 12, "month": 5, "livingplace": "Saillon"}}, "location": "Aigle"}, "Rheinfall-Lauf, Neuhausen": {"race": "Rheinfall-Lauf, Neuhausen", "longitude": 8.6126098, "latitude": 47.6837423, "date": {"dim. 18.08.2013": {"weekday": "sunday", "year": 2013, "categories": {"C": {"pace": 395000000000, "rank": 161, "distance": 20, "time": 7992.8}}, "day": 18, "month": 8, "livingplace": "Saillon"}}, "location": "Neuhausen am Rheinfall"}, "Tour du Chablais #4 Champ\u00e9ry": {"race": "Tour du Chablais #4 Champ\u00e9ry", "date": {"mer. 02.05.2012": {"weekday": "wednesday", "year": 2012, "categories": {"M-M40": {"pace": 295000000000, "rank": 99, "distance": 8, "time": 2450.7}}, "day": 2, "month": 5, "livingplace": "Saillon"}}, "location": "Les Mosses"}, "Tour du Chablais #5 Les Mosses": {"race": "Tour du Chablais #5 Les Mosses", "longitude": 6.931504599999999, "latitude": 46.3603257, "date": {"mer. 25.05.2011": {"weekday": "wednesday", "year": 2011, "categories": {"M-M40": {"pace": 329000000000, "rank": 101, "distance": 8, "time": 2633.1}}, "day": 25, "month": 5, "livingplace": "Saillon"}}, "location": "Roche VD"}, "Tour du Chablais #1 Lavey": {"race": "Tour du Chablais #1 Lavey", "longitude": 6.9916269, "latitude": 46.2957462, "date": {"mer. 27.04.2011": {"weekday": "wednesday", "year": 2011, "categories": {"M-M40": {"pace": 301000000000, "rank": 112, "distance": 9, "time": 2716.9}}, "day": 27, "month": 4, "livingplace": "Saillon"}}, "location": "Ollon VD"}, "SwissCityMarathon - Lucerne, Luzern": {"race": "SwissCityMarathon - Lucerne, Luzern", "longitude": 8.3093072, "latitude": 47.05016819999999, "date": {"dim. 25.10.2015": {"weekday": "sunday", "year": 2015, "categories": {"H-M50": {"pace": 316000000000, "rank": 253, "distance": 21, "time": 6673.4}}, "day": 25, "month": 10, "livingplace": "Saillon"}}, "location": "Luzern"}, "Lenzburger Lauf": {"race": "Lenzburger Lauf", "longitude": 8.172154500000001, "latitude": 47.3904443, "date": {"sam. 30.05.2015": {"weekday": "saturday", "year": 2015, "categories": {"11-M50": {"pace": 322000000000, "rank": 30, "distance": 12, "time": 3744.9}}, "day": 30, "month": 5, "livingplace": "Saillon"}}, "location": "Lenzburg"}, "Tour du Chablais #3 Bex": {"race": "Tour du Chablais #3 Bex", "longitude": 7.0223787, "latitude": 46.1782231, "date": {"mer. 21.04.2010": {"weekday": "wednesday", "year": 2010, "categories": {"M-M40": {"pace": 310000000000, "rank": 131, "distance": 10, "time": 3108.0}}, "day": 21, "month": 4, "livingplace": "Saillon"}}, "location": "Evionnaz"}, "Tour du Chablais #3 Le Bouveret": {"race": "Tour du Chablais #3 Le Bouveret", "longitude": 7.0223787, "latitude": 46.1782231, "date": {"mer. 11.05.2011": {"weekday": "wednesday", "year": 2011, "categories": {"M-M40": {"pace": 308000000000, "rank": 137, "distance": 10, "time": 3085.2}}, "day": 11, "month": 5, "livingplace": "Saillon"}}, "location": "Evionnaz"}, "Tour du Chablais #2 St-Gingolph": {"race": "Tour du Chablais #2 St-Gingolph", "longitude": 6.854975199999999, "latitude": 46.3835529, "date": {"mer. 14.04.2010": {"weekday": "wednesday", "year": 2010, "categories": {"M-M40": {"pace": 327000000000, "rank": 129, "distance": 8, "time": 2735.5}}, "day": 14, "month": 4, "livingplace": "Saillon"}}, "location": "Bouveret"}, "Tour du Chablais #2 Rennaz": {"race": "Tour du Chablais #2 Rennaz", "longitude": 6.854975199999999, "latitude": 46.3835529, "date": {"mer. 04.05.2011": {"weekday": "wednesday", "year": 2011, "categories": {"M-M40": {"pace": 292000000000, "rank": 120, "distance": 9, "time": 2735.8}}, "day": 4, "month": 5, "livingplace": "Saillon"}}, "location": "Bouveret"}}, "name": "Simonetta Ed", "birth": 1965}