{"sex": "F", "races": {"Corrida Bulloise, Bulle": {"race": "Corrida Bulloise, Bulle", "longitude": 7.057726799999999, "latitude": 46.6154512, "date": {"sam. 17.11.2007": {"weekday": "saturday", "year": 2007, "categories": {"F40": {"pace": 334000000000, "rank": 64, "distance": 6, "time": 2007.1}}, "day": 17, "month": 11, "livingplace": "Vauderens"}}, "location": "Bulle"}, "Tour du Chablais #1 Montreux": {"race": "Tour du Chablais #1 Montreux", "longitude": 6.9916269, "latitude": 46.2957462, "date": {"mer. 11.04.2012": {"weekday": "wednesday", "year": 2012, "categories": {"F-F50": {"pace": 397000000000, "rank": 32, "distance": 8, "time": 3020.0}}, "day": 11, "month": 4, "livingplace": "Vauderens"}}, "location": "Ollon VD"}, "Tour du Chablais #4 Morgins": {"race": "Tour du Chablais #4 Morgins", "date": {"mer. 18.05.2011": {"weekday": "wednesday", "year": 2011, "categories": {"F-F50": {"pace": 385000000000, "rank": 25, "distance": 8, "time": 3217.2}}, "day": 18, "month": 5, "livingplace": "Vauderens"}}, "location": "Les Mosses"}, "Tour du Chablais #2 Bex": {"race": "Tour du Chablais #2 Bex", "longitude": 6.854975199999999, "latitude": 46.3835529, "date": {"mer. 18.04.2012": {"weekday": "wednesday", "year": 2012, "categories": {"F-F50": {"pace": 371000000000, "rank": 35, "distance": 8, "time": 2972.4}}, "day": 18, "month": 4, "livingplace": "Vauderens"}}, "location": "Bouveret"}, "Tour du Pays de Vaud etape 1 - Le Mont sur Lausanne": {"race": "Tour du Pays de Vaud etape 1 - Le Mont sur Lausanne", "longitude": 6.641183, "latitude": 46.7784736, "date": {"mer. 13.08.2008": {"weekday": "wednesday", "year": 2008, "categories": {"DamSen2": {"pace": 361000000000, "rank": 42, "distance": 8, "time": 3033.0}}, "day": 13, "month": 8, "livingplace": "Vauderens"}}, "location": "Yverdon-les-Bains"}, "Tour du Chablais #6 Montreux": {"race": "Tour du Chablais #6 Montreux", "longitude": 6.970566, "latitude": 46.3190253, "date": {"mer. 16.05.2012": {"weekday": "wednesday", "year": 2012, "categories": {"F-F50": {"pace": 350000000000, "rank": 25, "distance": 9, "time": 3240.1}}, "day": 16, "month": 5, "livingplace": "Vauderens"}}, "location": "Aigle"}, "Kerzerslauf": {"race": "Kerzerslauf", "longitude": 7.1954365, "latitude": 46.97488999999999, "date": {"sam. 19.03.2011": {"weekday": "saturday", "year": 2011, "categories": {"15-F50": {"pace": 383000000000, "rank": 145, "distance": 15, "time": 5747.9}}, "day": 19, "month": 3, "livingplace": "Vauderens"}, "sam. 16.03.2013": {"weekday": "saturday", "year": 2013, "categories": {"15-F50": {"pace": 379000000000, "rank": 121, "distance": 15, "time": 5695.0}}, "day": 16, "month": 3, "livingplace": "Vauderens"}, "sam. 21.03.2015": {"weekday": "saturday", "year": 2015, "categories": {"15-F55": {"pace": 390000000000, "rank": 89, "distance": 15, "time": 5858.0}}, "day": 21, "month": 3, "livingplace": "Vauderens"}}, "location": "Kerzers"}, "Lucerne Marathon, Luzern": {"race": "Lucerne Marathon, Luzern", "longitude": 8.3093072, "latitude": 47.05016819999999, "date": {"dim. 28.10.2012": {"weekday": "sunday", "year": 2012, "categories": {"H-F50": {"pace": 401000000000, "rank": 202, "distance": 21, "time": 8463.6}}, "day": 28, "month": 10, "livingplace": "Vauderens"}}, "location": "Luzern"}, "Morat-Fribourg": {"race": "Morat-Fribourg", "longitude": 7.120184, "latitude": 46.92922110000001, "date": {"sam. 03.10.2009": {"weekday": "saturday", "year": 2009, "categories": {"C-W50": {"pace": 391000000000, "rank": 114, "distance": 17, "time": 6730.2}}, "day": 3, "month": 10, "livingplace": "Vauderens"}, "sam. 06.10.2007": {"weekday": "saturday", "year": 2007, "categories": {"C/W45": {"pace": 370000000000, "rank": 134, "distance": 17, "time": 6369.3}}, "day": 6, "month": 10, "livingplace": "Vauderens"}, "sam. 02.10.2010": {"weekday": "saturday", "year": 2010, "categories": {"17-W50": {"pace": 393000000000, "rank": 105, "distance": 17, "time": 6754.7}}, "day": 2, "month": 10, "livingplace": "Vauderens"}, "sam. 04.10.2008": {"weekday": "saturday", "year": 2008, "categories": {"C-W45": {"pace": 377000000000, "rank": 186, "distance": 17, "time": 6479.5}}, "day": 4, "month": 10, "livingplace": "Vauderens"}, "sam. 06.10.2012": {"weekday": "saturday", "year": 2012, "categories": {"17-W50": {"pace": 397000000000, "rank": 119, "distance": 17, "time": 6927.9}}, "day": 6, "month": 10, "livingplace": "Vauderens"}}, "location": "Murten"}, "20km de Lausanne": {"race": "20km de Lausanne", "longitude": 6.6322734, "latitude": 46.5196535, "date": {"sam. 22.04.2006": {"weekday": "saturday", "year": 2006, "categories": {"10/F45": {"pace": 369000000000, "rank": 62, "distance": 10, "time": 3694.1}}, "day": 22, "month": 4, "livingplace": "Vauderens"}}, "location": "Lausanne"}, "Tour du Pays de Vaud printanier #1 Moudon": {"race": "Tour du Pays de Vaud printanier #1 Moudon", "longitude": 6.2347852, "latitude": 46.3832683, "date": {"mer. 29.05.2013": {"weekday": "wednesday", "year": 2013, "categories": {"D-Sen3": {"pace": 391000000000, "rank": 17, "distance": 8, "time": 3343.6}}, "day": 29, "month": 5, "livingplace": "Vauderens"}}, "location": "Nyon"}, "Tour du Pays de Vaud etape 5 - La Sarraz": {"race": "Tour du Pays de Vaud etape 5 - La Sarraz", "longitude": 6.539251200000001, "latitude": 46.5993131, "date": {"mer. 10.09.2008": {"weekday": "wednesday", "year": 2008, "categories": {"DamSen2": {"pace": 356000000000, "rank": 39, "distance": 9, "time": 3070.0}}, "day": 10, "month": 9, "livingplace": "Vauderens"}}, "location": "Penthaz"}, "Tour du Chablais #5 Les Mosses": {"race": "Tour du Chablais #5 Les Mosses", "longitude": 6.931504599999999, "latitude": 46.3603257, "date": {"mer. 25.05.2011": {"weekday": "wednesday", "year": 2011, "categories": {"F-F50": {"pace": 396000000000, "rank": 24, "distance": 8, "time": 3172.1}}, "day": 25, "month": 5, "livingplace": "Vauderens"}}, "location": "Roche VD"}, "Tour du Chablais #1 Lavey": {"race": "Tour du Chablais #1 Lavey", "longitude": 6.9916269, "latitude": 46.2957462, "date": {"mer. 27.04.2011": {"weekday": "wednesday", "year": 2011, "categories": {"F-F50": {"pace": 372000000000, "rank": 30, "distance": 9, "time": 3351.9}}, "day": 27, "month": 4, "livingplace": "Vauderens"}}, "location": "Ollon VD"}, "Tour du Chablais #5 Bex": {"race": "Tour du Chablais #5 Bex", "longitude": 6.931504599999999, "latitude": 46.3603257, "date": {"mer. 09.05.2012": {"weekday": "wednesday", "year": 2012, "categories": {"F-F50": {"pace": 362000000000, "rank": 32, "distance": 9, "time": 3212.0}}, "day": 9, "month": 5, "livingplace": "Vauderens"}}, "location": "Roche VD"}, "Tour du Pays de Vaud #3 - Mezi\u00e8res": {"race": "Tour du Pays de Vaud #3 - Mezi\u00e8res", "longitude": 6.641183, "latitude": 46.7784736, "date": {"mer. 22.08.2012": {"weekday": "wednesday", "year": 2012, "categories": {"D-Sen3": {"pace": 427000000000, "rank": 37, "distance": 8, "time": 3588.9}}, "day": 22, "month": 8, "livingplace": "Vauderens"}}, "location": "Yverdon-les-Bains"}, "Tour du Chablais #3 Collombey-Muraz": {"race": "Tour du Chablais #3 Collombey-Muraz", "longitude": 7.0223787, "latitude": 46.1782231, "date": {"mer. 25.04.2012": {"weekday": "wednesday", "year": 2012, "categories": {"F-F50": {"pace": 359000000000, "rank": 31, "distance": 9, "time": 3232.6}}, "day": 25, "month": 4, "livingplace": "Vauderens"}}, "location": "Evionnaz"}, "Tour du Pays de Vaud etape 2 - Genolier": {"race": "Tour du Pays de Vaud etape 2 - Genolier", "longitude": 6.7702883, "latitude": 46.5955273, "date": {"mer. 20.08.2008": {"weekday": "wednesday", "year": 2008, "categories": {"DamSen2": {"pace": 369000000000, "rank": 52, "distance": 8, "time": 3069.0}}, "day": 20, "month": 8, "livingplace": "Vauderens"}}, "location": "M\u00e9zi\u00e8res VD"}, "Tour du Chablais #2 Rennaz": {"race": "Tour du Chablais #2 Rennaz", "longitude": 6.854975199999999, "latitude": 46.3835529, "date": {"mer. 04.05.2011": {"weekday": "wednesday", "year": 2011, "categories": {"F-F50": {"pace": 365000000000, "rank": 29, "distance": 9, "time": 3413.6}}, "day": 4, "month": 5, "livingplace": "Vauderens"}}, "location": "Bouveret"}}, "name": "Sottas Evelyne", "birth": 1959}