{"sex": "M", "races": {"Int Greifenseelauf, Uster": {"race": "Int Greifenseelauf, Uster", "longitude": 8.717873899999999, "latitude": 47.3482747, "date": {"sam. 20.09.2008": {"weekday": "saturday", "year": 2008, "categories": {"H-M40": {"pace": 282000000000, "rank": 342, "distance": 21, "time": 5960.5}}, "day": 20, "month": 9, "livingplace": "Laufenburg"}}, "location": "Uster"}, "Bieler Lauftage, Biel Bienne": {"race": "Bieler Lauftage, Biel Bienne", "longitude": 7.2467909, "latitude": 47.1367785, "date": {"jeu. 11.06.2015": {"weekday": "thursday", "year": 2015, "categories": {"M-M45": {"pace": 383000000000, "rank": 11, "distance": 42, "time": 16163.6}}, "day": 11, "month": 6, "livingplace": "Ittigen"}}, "location": "Biel/Bienne"}, "Winterthur Marathon": {"race": "Winterthur Marathon", "longitude": -75.6037351, "latitude": 39.8088766, "date": {"dim. 18.05.2008": {"weekday": "sunday", "year": 2008, "categories": {"MM40": {"pace": 341000000000, "rank": 35, "distance": 42, "time": 14390.6}}, "day": 18, "month": 5, "livingplace": "Laufenburg"}}, "location": "Winterthur"}, "Badener Limmat-Lauf, Baden": {"race": "Badener Limmat-Lauf, Baden", "longitude": 8.5303972, "latitude": 48.5699281, "date": {"sam. 28.03.2009": {"weekday": "saturday", "year": 2009, "categories": {"M40": {"pace": 267000000000, "rank": 70, "distance": 13, "time": 3529.3}}, "day": 28, "month": 3, "livingplace": "Laufenburg"}}, "location": "Baden"}, "Lenzburger Lauf": {"race": "Lenzburger Lauf", "longitude": 8.172154500000001, "latitude": 47.3904443, "date": {"sam. 23.05.2009": {"weekday": "saturday", "year": 2009, "categories": {"M40": {"pace": 334000000000, "rank": 59, "distance": 12, "time": 3882.0}}, "day": 23, "month": 5, "livingplace": "Laufenburg"}, "sam. 12.05.2012": {"weekday": "saturday", "year": 2012, "categories": {"11-M40": {"pace": 284000000000, "rank": 25, "distance": 12, "time": 3297.6}}, "day": 12, "month": 5, "livingplace": "Laufenburg"}}, "location": "Lenzburg"}, "Hallwilerseelauf, Beinwil am See": {"race": "Hallwilerseelauf, Beinwil am See", "date": {"sam. 10.10.2009": {"weekday": "saturday", "year": 2009, "categories": {"21-M40": {"pace": 324000000000, "rank": 690, "distance": 21, "time": 6845.2}}, "day": 10, "month": 10, "livingplace": "Laufenburg"}}, "location": "Beinwil am See"}, "Gippinger Stauseelauf": {"race": "Gippinger Stauseelauf", "longitude": 8.2152586, "latitude": 47.5810513, "date": {"mer. 31.12.2008": {"weekday": "wednesday", "year": 2008, "categories": {"M40": {"pace": 314000000000, "rank": 185, "distance": 8, "time": 2367.0}}, "day": 31, "month": 12, "livingplace": "Laufenburg"}, "jeu. 31.12.2009": {"weekday": "thursday", "year": 2009, "categories": {"M40": {"pace": 297000000000, "rank": 142, "distance": 8, "time": 2240.9}}, "day": 31, "month": 12, "livingplace": "Laufenburg"}}, "location": "Leuggern"}, "ASICS Bremgarter Reusslauf": {"race": "ASICS Bremgarter Reusslauf", "longitude": 8.3397905, "latitude": 47.34917739999999, "date": {"sam. 27.02.2010": {"weekday": "saturday", "year": 2010, "categories": {"M40": {"pace": 265000000000, "rank": 266, "distance": 11, "time": 2921.3}}, "day": 27, "month": 2, "livingplace": "Zufikon"}}, "location": "Bremgarten AG"}, "GP Fricktal, Eiken": {"race": "GP Fricktal, Eiken", "date": {"sam. 07.04.2007": {"weekday": "saturday", "year": 2007, "categories": {"M40": {"pace": 315000000000, "rank": 165, "distance": 16, "time": 5078.6}}, "day": 7, "month": 4, "livingplace": "Laufenburg"}}, "location": "Eiken"}, "Morat-Fribourg": {"race": "Morat-Fribourg", "longitude": 7.120184, "latitude": 46.92922110000001, "date": {"sam. 01.10.2011": {"weekday": "saturday", "year": 2011, "categories": {"17-M45": {"pace": 283000000000, "rank": 169, "distance": 17, "time": 4859.4}}, "day": 1, "month": 10, "livingplace": "Laufenburg"}}, "location": "Murten"}}, "name": "Steiner Mark", "birth": 1966}