{"sex": "M", "races": {"Int Greifenseelauf, Uster": {"race": "Int Greifenseelauf, Uster", "longitude": 8.717873899999999, "latitude": 47.3482747, "date": {"sam. 16.09.2006": {"weekday": "saturday", "year": 2006, "categories": {"K/M20": {"pace": 219000000000, "rank": 3, "distance": 10, "time": 2196.3}}, "day": 16, "month": 9, "livingplace": "Neuhausen am Rheinfall"}, "sam. 20.09.2008": {"weekday": "saturday", "year": 2008, "categories": {"K-M20": {"pace": 209000000000, "rank": 2, "distance": 10, "time": 2096.8}}, "day": 20, "month": 9, "livingplace": "Neuhausen am Rheinfall"}}, "location": "Uster"}, "20km de Lausanne": {"race": "20km de Lausanne", "longitude": 6.6322734, "latitude": 46.5196535, "date": {"sam. 26.04.2003": {"weekday": "saturday", "year": 2003, "categories": {"11": {"pace": 224000000000, "rank": 34, "distance": 20, "time": 4490.5}}, "day": 26, "month": 4, "livingplace": "Flurlingen"}}, "location": "Lausanne"}, "Basel City Marathon": {"race": "Basel City Marathon", "longitude": 7.5885761, "latitude": 47.5595986, "date": {"dim. 28.08.2005": {"weekday": "sunday", "year": 2005, "categories": {"M20": {"pace": 236000000000, "rank": 5, "distance": 42, "time": 9993.0}}, "day": 28, "month": 8, "livingplace": "Flurlingen"}}, "location": "Basel"}, "GP der Stadt D\u00fcbendorf": {"race": "GP der Stadt D\u00fcbendorf", "longitude": 8.618012799999999, "latitude": 47.3971476, "date": {"sam. 05.04.2003": {"weekday": "saturday", "year": 2003, "categories": {"A": {"pace": 208000000000, "rank": 14, "distance": 13, "time": 2628.8}}, "day": 5, "month": 4, "livingplace": "Flurlingen"}}, "location": "D\u00fcbendorf"}, "ASICS Bremgarter Reusslauf": {"race": "ASICS Bremgarter Reusslauf", "longitude": 8.3397905, "latitude": 47.34917739999999, "date": {"sam. 22.02.2014": {"weekday": "saturday", "year": 2014, "categories": {"11-M30": {"pace": 211000000000, "rank": 19, "distance": 11, "time": 2324.7}}, "day": 22, "month": 2, "livingplace": "Schaffhausen"}}, "location": "Bremgarten AG"}, "GP Fricktal, Eiken": {"race": "GP Fricktal, Eiken", "date": {"sam. 07.04.2012": {"weekday": "saturday", "year": 2012, "categories": {"Herren1": {"pace": 203000000000, "rank": 2, "distance": 6, "time": 1188.4}}, "day": 7, "month": 4, "livingplace": "Schaffhausen"}}, "location": "Eiken"}, "Z\u00fcrcher Silvesterlauf, Z\u00fcrich": {"race": "Z\u00fcrcher Silvesterlauf, Z\u00fcrich", "longitude": 8.541694, "latitude": 47.3768866, "date": {"dim. 13.12.2009": {"weekday": "sunday", "year": 2009, "categories": {"8-MenHK": {"pace": 206000000000, "rank": 8, "distance": 9, "time": 1775.7}}, "day": 13, "month": 12, "livingplace": "Neuhausen am Rheinfall"}}, "location": "Z\u00fcrich"}, "Frauenfelder": {"race": "Frauenfelder", "date": {"dim. 18.11.2007": {"weekday": "sunday", "year": 2007, "categories": {"HMM20": {"pace": 211000000000, "rank": 9, "distance": 21, "time": 4465.8}}, "day": 18, "month": 11, "livingplace": "Cuba Atletismo"}, "dim. 16.11.2008": {"weekday": "sunday", "year": 2008, "categories": {"HMM20": {"pace": 211000000000, "rank": 7, "distance": 21, "time": 4469.2}}, "day": 16, "month": 11, "livingplace": "Cuba Atletismo"}}, "location": "Frauenfeld"}, "Basler Stadtlauf": {"race": "Basler Stadtlauf", "longitude": 7.5885761, "latitude": 47.5595986, "date": {"sam. 24.11.2012": {"weekday": "saturday", "year": 2012, "categories": {"M30": {"pace": 200000000000, "rank": 4, "distance": 6, "time": 1103.9}}, "day": 24, "month": 11, "livingplace": "Schaffhausen"}}, "location": "Basel"}, "Badener Limmat-Lauf, Baden": {"race": "Badener Limmat-Lauf, Baden", "longitude": 8.5303972, "latitude": 48.5699281, "date": {"sam. 29.03.2014": {"weekday": "saturday", "year": 2014, "categories": {"M30": {"pace": 215000000000, "rank": 5, "distance": 13, "time": 2839.6}}, "day": 29, "month": 3, "livingplace": "Schaffhausen"}}, "location": "Baden"}, "Rheinfall-Lauf, Neuhausen": {"race": "Rheinfall-Lauf, Neuhausen", "longitude": 8.6126098, "latitude": 47.6837423, "date": {"dim. 18.08.2013": {"weekday": "sunday", "year": 2013, "categories": {"R-M30": {"pace": 199000000000, "rank": 3, "distance": 7, "time": 1399.5}}, "day": 18, "month": 8, "livingplace": "Schaffhausen"}, "dim. 24.08.2014": {"weekday": "sunday", "year": 2014, "categories": {"R-M30": {"pace": 198000000000, "rank": 1, "distance": 7, "time": 1391.9}}, "day": 24, "month": 8, "livingplace": "Schaffhausen"}}, "location": "Neuhausen am Rheinfall"}, "Z\u00fcrich Marathon, Teamrun und Cityrun": {"race": "Z\u00fcrich Marathon, Teamrun und Cityrun", "longitude": 8.541694, "latitude": 47.3768866, "date": {"dim. 04.04.2004": {"weekday": "sunday", "year": 2004, "categories": {"M20": {"pace": 235000000000, "rank": 13, "distance": 42, "time": 9930.9}}, "day": 4, "month": 4, "livingplace": "Flurlingen"}, "dim. 26.04.2009": {"weekday": "sunday", "year": 2009, "categories": {"M20": {"pace": 231000000000, "rank": 19, "distance": 42, "time": 9769.0}}, "day": 26, "month": 4, "livingplace": "Neuhausen am Rheinfa"}}, "location": "Z\u00fcrich"}, "Kerzerslauf": {"race": "Kerzerslauf", "longitude": 7.1954365, "latitude": 46.97488999999999, "date": {"sam. 15.03.2003": {"weekday": "saturday", "year": 2003, "categories": {"M20": {"pace": 223000000000, "rank": 82, "distance": 15, "time": 3358.7}}, "day": 15, "month": 3, "livingplace": "Fribourg"}}, "location": "Kerzers"}}, "name": "Stocker Manuel", "birth": 1981}