{"sex": "F", "races": {"Schweizer Frauenlauf Bern": {"race": "Schweizer Frauenlauf Bern", "longitude": 7.4474468, "latitude": 46.9479739, "date": {"dim. 13.06.2004": {"weekday": "sunday", "year": 2004, "categories": {"W45": {"pace": 234000000000, "rank": 3, "distance": 5, "time": 1173.8}}, "day": 13, "month": 6, "livingplace": "Berikon"}}, "location": "Bern"}, "Badener Limmat-Lauf, Baden": {"race": "Badener Limmat-Lauf, Baden", "longitude": 8.5303972, "latitude": 48.5699281, "date": {"sam. 27.03.2010": {"weekday": "saturday", "year": 2010, "categories": {"F50": {"pace": 283000000000, "rank": 3, "distance": 13, "time": 3738.7}}, "day": 27, "month": 3, "livingplace": "Berikon"}}, "location": "Baden"}, "ASICS Bremgarter Reusslauf": {"race": "ASICS Bremgarter Reusslauf", "longitude": 8.3397905, "latitude": 47.34917739999999, "date": {"sam. 23.02.2013": {"weekday": "saturday", "year": 2013, "categories": {"11-F50": {"pace": 286000000000, "rank": 19, "distance": 11, "time": 3147.6}}, "day": 23, "month": 2, "livingplace": "Berikon"}}, "location": "Bremgarten AG"}, "Gippinger Stauseelauf": {"race": "Gippinger Stauseelauf", "longitude": 8.2152586, "latitude": 47.5810513, "date": {"ven. 31.12.2004": {"weekday": "friday", "year": 2004, "categories": {"F40": {"pace": 252000000000, "rank": 10, "distance": 8, "time": 1895.3}}, "day": 31, "month": 12, "livingplace": "Berikon"}}, "location": "Leuggern"}, "Jungfrau-Marathon, Interlaken": {"race": "Jungfrau-Marathon, Interlaken", "date": {"sam. 11.09.2004": {"weekday": "saturday", "year": 2004, "categories": {"F45": {"pace": 415000000000, "rank": 12, "distance": 42, "time": 17525.6}}, "day": 11, "month": 9, "livingplace": "Berikon"}}, "location": "Interlaken"}, "Z\u00fcrcher Silvesterlauf, Z\u00fcrich": {"race": "Z\u00fcrcher Silvesterlauf, Z\u00fcrich", "longitude": 8.541694, "latitude": 47.3768866, "date": {"dim. 10.12.2006": {"weekday": "sunday", "year": 2006, "categories": {"DaAK2-8": {"pace": 366000000000, "rank": 532, "distance": 9, "time": 3155.7}}, "day": 10, "month": 12, "livingplace": "Berikon"}}, "location": "Z\u00fcrich"}}, "name": "Stoll Esther", "birth": 1959}