{"sex": "M", "races": {"Thuner Langstreckenlauf": {"race": "Thuner Langstreckenlauf", "longitude": 7.6279881, "latitude": 46.7579868, "date": {"sam. 27.05.2000": {"weekday": "saturday", "year": 2000, "categories": {"M40": {"pace": 279000000000, "rank": 78, "distance": 15, "time": 4046.1}}, "day": 27, "month": 5, "livingplace": "Laupen"}}, "location": "Thun"}, "Int Greifenseelauf, Uster": {"race": "Int Greifenseelauf, Uster", "longitude": 8.717873899999999, "latitude": 47.3482747, "date": {"sam. 20.09.2003": {"weekday": "saturday", "year": 2003, "categories": {"H/M45": {"pace": 367000000000, "rank": 518, "distance": 21, "time": 7748.6}}, "day": 20, "month": 9, "livingplace": "Laupen"}}, "location": "Uster"}, "Kerzerslauf": {"race": "Kerzerslauf", "longitude": 7.1954365, "latitude": 46.97488999999999, "date": {"sam. 17.03.2001": {"weekday": "saturday", "year": 2001, "categories": {"M40": {"pace": 321000000000, "rank": 364, "distance": 15, "time": 4828.2}}, "day": 17, "month": 3, "livingplace": "Laupen"}, "sam. 18.03.2000": {"weekday": "saturday", "year": 2000, "categories": {"M40": {"pace": 302000000000, "rank": 308, "distance": 15, "time": 4534.2}}, "day": 18, "month": 3, "livingplace": "Laupen"}}, "location": "Kerzers"}, "Ch\u00e4sitzerlouf, Kehrsatz": {"race": "Ch\u00e4sitzerlouf, Kehrsatz", "date": {"sam. 24.04.2004": {"weekday": "saturday", "year": 2004, "categories": {"M40": {"pace": 308000000000, "rank": 214, "distance": 12, "time": 3790.0}}, "day": 24, "month": 4, "livingplace": "Laupen"}}, "location": "Kehrsatz"}, "Morat-Fribourg": {"race": "Morat-Fribourg", "longitude": 7.120184, "latitude": 46.92922110000001, "date": {"dim. 07.10.2001": {"weekday": "sunday", "year": 2001, "categories": {"M40": {"pace": 311000000000, "rank": 503, "distance": 17, "time": 5356.2}}, "day": 7, "month": 10, "livingplace": "Laupen"}, "dim. 05.10.2003": {"weekday": "sunday", "year": 2003, "categories": {"M45": {"pace": 311000000000, "rank": 350, "distance": 17, "time": 5347.3}}, "day": 5, "month": 10, "livingplace": "Laupen"}}, "location": "Murten"}, "Basler Stadtlauf": {"race": "Basler Stadtlauf", "longitude": 7.5885761, "latitude": 47.5595986, "date": {"sam. 25.11.2006": {"weekday": "saturday", "year": 2006, "categories": {"U": {"pace": 315000000000, "rank": 360, "distance": 6, "time": 1737.0}}, "day": 25, "month": 11, "livingplace": "Bosingen"}}, "location": "Basel"}}, "name": "Strauss Rolf", "birth": 1958}