{"sex": "M", "races": {"Zermatt Marathon, Zermatt": {"race": "Zermatt Marathon, Zermatt", "date": {"sam. 04.07.2015": {"weekday": "saturday", "year": 2015, "categories": {"H-M60": {"pace": 566000000000, "rank": 17, "distance": 21, "time": 11946.4}}, "day": 4, "month": 7, "livingplace": "Muraz Collombey"}}, "location": "Zermatt"}, "Tour du Chablais #6 Monthey": {"race": "Tour du Chablais #6 Monthey", "longitude": 6.970566, "latitude": 46.3190253, "date": {"mer. 08.05.2013": {"weekday": "wednesday", "year": 2013, "categories": {"M-M60": {"pace": 331000000000, "rank": 31, "distance": 9, "time": 3087.5}}, "day": 8, "month": 5, "livingplace": "Muraz Collombey"}}, "location": "Aigle"}, "Tour du Chablais #5 Morgins": {"race": "Tour du Chablais #5 Morgins", "longitude": 6.931504599999999, "latitude": 46.3603257, "date": {"mer. 01.05.2013": {"weekday": "wednesday", "year": 2013, "categories": {"M-M60": {"pace": 358000000000, "rank": 27, "distance": 8, "time": 2726.9}}, "day": 1, "month": 5, "livingplace": "Muraz Collombey"}}, "location": "Roche VD"}, "Tour du Chablais #1 Roche": {"race": "Tour du Chablais #1 Roche", "longitude": 6.9916269, "latitude": 46.2957462, "date": {"mer. 03.04.2013": {"weekday": "wednesday", "year": 2013, "categories": {"M-M60": {"pace": 309000000000, "rank": 20, "distance": 9, "time": 2744.5}}, "day": 3, "month": 4, "livingplace": "Muraz Collombey"}}, "location": "Ollon VD"}, "Lausanne Marathon": {"race": "Lausanne Marathon", "longitude": 6.6322734, "latitude": 46.5196535, "date": {"dim. 26.10.2014": {"weekday": "sunday", "year": 2014, "categories": {"21-H60": {"pace": 355000000000, "rank": 79, "distance": 21, "time": 7494.1}}, "day": 26, "month": 10, "livingplace": "Muraz Collombey"}, "sam. 24.10.2015": {"weekday": "saturday", "year": 2015, "categories": {"21-H60": {"pace": 346000000000, "rank": 59, "distance": 21, "time": 7309.2}}, "day": 24, "month": 10, "livingplace": "Muraz Collombey"}}, "location": "Lausanne"}, "Morat-Fribourg": {"race": "Morat-Fribourg", "longitude": 7.120184, "latitude": 46.92922110000001, "date": {"sam. 03.10.2015": {"weekday": "saturday", "year": 2015, "categories": {"17-M60": {"pace": 358000000000, "rank": 100, "distance": 17, "time": 6153.4}}, "day": 3, "month": 10, "livingplace": "Muraz Collombey"}}, "location": "Murten"}, "Tour du Chablais #1 Martigny": {"race": "Tour du Chablais #1 Martigny", "longitude": 6.9916269, "latitude": 46.2957462, "date": {"mer. 23.04.2014": {"weekday": "wednesday", "year": 2014, "categories": {"M-M60": {"pace": 324000000000, "rank": 35, "distance": 9, "time": 2762.3}}, "day": 23, "month": 4, "livingplace": "Muraz Collombey"}}, "location": "Ollon VD"}}, "name": "Strobl Peter", "birth": 1951}