{"sex": "M", "races": {"Stralugano, Lugano": {"race": "Stralugano, Lugano", "longitude": 8.951051999999999, "latitude": 46.0036778, "date": {"dim. 27.09.2015": {"weekday": "sunday", "year": 2015, "categories": {"10-M20": {"pace": 259000000000, "rank": 104, "distance": 10, "time": 2597.8}}, "day": 27, "month": 9, "livingplace": "Zurich"}, "dim. 28.09.2014": {"weekday": "sunday", "year": 2014, "categories": {"30-M20": {"pace": 293000000000, "rank": 136, "distance": 30, "time": 8800.7}}, "day": 28, "month": 9, "livingplace": "Zurich"}}, "location": "Lugano"}, "Zermatt Marathon, Zermatt": {"race": "Zermatt Marathon, Zermatt", "date": {"sam. 04.07.2015": {"weekday": "saturday", "year": 2015, "categories": {"U-M30": {"pace": 498000000000, "rank": 56, "distance": 46, "time": 22708.7}}, "day": 4, "month": 7, "livingplace": "Zurich"}}, "location": "Zermatt"}, "ASICS Bremgarter Reusslauf": {"race": "ASICS Bremgarter Reusslauf", "longitude": 8.3397905, "latitude": 47.34917739999999, "date": {"sam. 28.02.2015": {"weekday": "saturday", "year": 2015, "categories": {"11-M30": {"pace": 355000000000, "rank": 344, "distance": 11, "time": 3909.5}}, "day": 28, "month": 2, "livingplace": "Owlettes"}}, "location": "Bremgarten AG"}, "Z\u00fcrich Marathon, Teamrun und Cityrun": {"race": "Z\u00fcrich Marathon, Teamrun und Cityrun", "longitude": 8.541694, "latitude": 47.3768866, "date": {"dim. 06.04.2014": {"weekday": "sunday", "year": 2014, "categories": {"10-M30": {"pace": 331000000000, "rank": 376, "distance": 10, "time": 3243.9}}, "day": 6, "month": 4, "livingplace": "Zurich"}, "dim. 19.04.2015": {"weekday": "sunday", "year": 2015, "categories": {"42-M30": {"pace": 399000000000, "rank": 569, "distance": 42, "time": 16877.2}}, "day": 19, "month": 4, "livingplace": "Zurich"}}, "location": "Z\u00fcrich"}, "Lausanne Marathon": {"race": "Lausanne Marathon", "longitude": 6.6322734, "latitude": 46.5196535, "date": {"sam. 24.10.2015": {"weekday": "saturday", "year": 2015, "categories": {"21-H30": {"pace": 391000000000, "rank": 866, "distance": 21, "time": 8251.4}}, "day": 24, "month": 10, "livingplace": "Zurich"}}, "location": "Lausanne"}, "SwissCityMarathon - Lucerne, Luzern": {"race": "SwissCityMarathon - Lucerne, Luzern", "longitude": 8.3093072, "latitude": 47.05016819999999, "date": {"dim. 26.10.2014": {"weekday": "sunday", "year": 2014, "categories": {"M-M30": {"pace": 313000000000, "rank": 163, "distance": 42, "time": 13234.8}}, "day": 26, "month": 10, "livingplace": "Zurich"}}, "location": "Luzern"}, "Z\u00fcrcher Silvesterlauf, Z\u00fcrich": {"race": "Z\u00fcrcher Silvesterlauf, Z\u00fcrich", "longitude": 8.541694, "latitude": 47.3768866, "date": {"dim. 14.12.2014": {"weekday": "sunday", "year": 2014, "categories": {"10-M30": {"pace": 355000000000, "rank": 1217, "distance": 10, "time": 3559.8}}, "day": 14, "month": 12, "livingplace": "Zurich"}}, "location": "Z\u00fcrich"}}, "name": "Stuart Jeff", "birth": 1982}