{"sex": "M", "races": {"Corrida Bulloise, Bulle": {"race": "Corrida Bulloise, Bulle", "longitude": 7.057726799999999, "latitude": 46.6154512, "date": {"sam. 15.11.2014": {"weekday": "saturday", "year": 2014, "categories": {"Pop-Hom": {"pace": 294000000000, "rank": 311, "distance": 6, "time": 1809.1}}, "day": 15, "month": 11, "livingplace": "Bulle"}, "sam. 21.11.2015": {"weekday": "saturday", "year": 2015, "categories": {"Pop-Hom": {"pace": 293000000000, "rank": 257, "distance": 6, "time": 1803.2}}, "day": 21, "month": 11, "livingplace": "Prez vers Siviriez"}}, "location": "Bulle"}, "Course p\u00e9destre Thyon-Dixence, Thyon": {"race": "Course p\u00e9destre Thyon-Dixence, Thyon", "date": {"dim. 02.08.2015": {"weekday": "sunday", "year": 2015, "categories": {"HomElite": {"pace": 594000000000, "rank": 158, "distance": 16, "time": 9726.7}}, "day": 2, "month": 8, "livingplace": "Bulle"}}, "location": "Thyon-Les Collons"}, "Course de l'Avent, Fribourg": {"race": "Course de l'Avent, Fribourg", "longitude": 7.161971899999999, "latitude": 46.8064773, "date": {"dim. 23.11.2014": {"weekday": "sunday", "year": 2014, "categories": {"P-H30": {"pace": 295000000000, "rank": 20, "distance": 6, "time": 1864.5}}, "day": 23, "month": 11, "livingplace": "Bulle"}}, "location": "Fribourg"}, "Lausanne Marathon": {"race": "Lausanne Marathon", "longitude": 6.6322734, "latitude": 46.5196535, "date": {"sam. 24.10.2015": {"weekday": "saturday", "year": 2015, "categories": {"21-H30": {"pace": 324000000000, "rank": 563, "distance": 21, "time": 6857.1}}, "day": 24, "month": 10, "livingplace": "Prez vers Siviriez"}}, "location": "Lausanne"}, "Morat-Fribourg": {"race": "Morat-Fribourg", "longitude": 7.120184, "latitude": 46.92922110000001, "date": {"sam. 03.10.2015": {"weekday": "saturday", "year": 2015, "categories": {"17-M20": {"pace": 345000000000, "rank": 1756, "distance": 17, "time": 5926.3}}, "day": 3, "month": 10, "livingplace": "Prez vers Siviriez"}}, "location": "Murten"}, "Kerzerslauf": {"race": "Kerzerslauf", "longitude": 7.1954365, "latitude": 46.97488999999999, "date": {"sam. 21.03.2015": {"weekday": "saturday", "year": 2015, "categories": {"15-M20": {"pace": 323000000000, "rank": 534, "distance": 15, "time": 4852.4}}, "day": 21, "month": 3, "livingplace": "Bulle"}}, "location": "Kerzers"}}, "name": "Sudan Olivier", "birth": 1984}