{"sex": "M", "races": {"Basler Stadtlauf": {"race": "Basler Stadtlauf", "longitude": 7.5885761, "latitude": 47.5595986, "date": {"sam. 28.11.2015": {"weekday": "saturday", "year": 2015, "categories": {"M50": {"pace": 277000000000, "rank": 131, "distance": 6, "time": 1527.5}}, "day": 28, "month": 11, "livingplace": "Oberdorf"}, "sam. 29.11.2014": {"weekday": "saturday", "year": 2014, "categories": {"M45": {"pace": 284000000000, "rank": 237, "distance": 6, "time": 1564.6}}, "day": 29, "month": 11, "livingplace": "Oberdorf"}}, "location": "Basel"}, "Stralugano, Lugano": {"race": "Stralugano, Lugano", "longitude": 8.951051999999999, "latitude": 46.0036778, "date": {"dim. 28.09.2014": {"weekday": "sunday", "year": 2014, "categories": {"30-M40": {"pace": 355000000000, "rank": 430, "distance": 30, "time": 10661.6}}, "day": 28, "month": 9, "livingplace": "Oberdorf"}}, "location": "Lugano"}, "SwissCityMarathon - Lucerne, Luzern": {"race": "SwissCityMarathon - Lucerne, Luzern", "longitude": 8.3093072, "latitude": 47.05016819999999, "date": {"dim. 25.10.2015": {"weekday": "sunday", "year": 2015, "categories": {"H-M50": {"pace": 317000000000, "rank": 258, "distance": 21, "time": 6694.5}}, "day": 25, "month": 10, "livingplace": "Oberdorf"}}, "location": "Luzern"}, "Morat-Fribourg": {"race": "Morat-Fribourg", "longitude": 7.120184, "latitude": 46.92922110000001, "date": {"sam. 05.10.2013": {"weekday": "saturday", "year": 2013, "categories": {"17-M45": {"pace": 400000000000, "rank": 806, "distance": 17, "time": 6990.9}}, "day": 5, "month": 10, "livingplace": "Oberdorf"}}, "location": "Murten"}, "Aletsch-Halbmarathon, Bettmeralp": {"race": "Aletsch-Halbmarathon, Bettmeralp", "date": {"dim. 28.06.2015": {"weekday": "sunday", "year": 2015, "categories": {"M50": {"pace": 527000000000, "rank": 124, "distance": 21, "time": 11127.2}}, "day": 28, "month": 6, "livingplace": "Oberdorf"}}, "location": "Bettmeralp"}, "Sihltaler Fr\u00fchlingslauf, Gattikon": {"race": "Sihltaler Fr\u00fchlingslauf, Gattikon", "longitude": 8.5644799, "latitude": 47.2949282, "date": {"jeu. 01.05.2014": {"weekday": "thursday", "year": 2014, "categories": {"10-M40": {"pace": 305000000000, "rank": 82, "distance": 10, "time": 3054.6}}, "day": 1, "month": 5, "livingplace": "Oberdorf"}}, "location": "Gattikon"}}, "name": "Suppiger Hermann", "birth": 1965}