{"sex": "M", "races": {"BCN Tour #4 Fleurier": {"race": "BCN Tour #4 Fleurier", "longitude": 6.832783800000001, "latitude": 47.1034892, "date": {"mer. 15.05.2013": {"weekday": "wednesday", "year": 2013, "categories": {"HS1": {"pace": 256000000000, "rank": 42, "distance": 9, "time": 2214.7}}, "day": 15, "month": 5, "livingplace": "La Chaux de Fonds"}}, "location": "La Chaux-de-Fonds"}, "BCN Tour #3 Dombresson": {"race": "BCN Tour #3 Dombresson", "longitude": 6.733554799999999, "latitude": 46.999113, "date": {"mer. 08.05.2013": {"weekday": "wednesday", "year": 2013, "categories": {"HS1": {"pace": 256000000000, "rank": 59, "distance": 10, "time": 2539.2}}, "day": 8, "month": 5, "livingplace": "La Chaux de Fonds"}}, "location": "Les Ponts-de-Martel"}, "BCN Tour #5 Colombier": {"race": "BCN Tour #5 Colombier", "longitude": 6.6324944, "latitude": 46.9262933, "date": {"mer. 22.05.2013": {"weekday": "wednesday", "year": 2013, "categories": {"HS1": {"pace": 249000000000, "rank": 67, "distance": 11, "time": 2614.5}}, "day": 22, "month": 5, "livingplace": "La Chaux de Fonds"}}, "location": "Couvet"}, "BCN Tour #1 Corcelles": {"race": "BCN Tour #1 Corcelles", "longitude": 6.8589727, "latitude": 46.9668714, "date": {"mer. 24.04.2013": {"weekday": "wednesday", "year": 2013, "categories": {"HS1": {"pace": 276000000000, "rank": 79, "distance": 10, "time": 2708.2}}, "day": 24, "month": 4, "livingplace": "La Chaux de Fonds"}}, "location": "Colombier NE"}, "Course p\u00e9destre Thyon-Dixence, Thyon": {"race": "Course p\u00e9destre Thyon-Dixence, Thyon", "date": {"dim. 03.08.2014": {"weekday": "sunday", "year": 2014, "categories": {"HomElite": {"pace": 388000000000, "rank": 44, "distance": 16, "time": 6351.4}}, "day": 3, "month": 8, "livingplace": "La Chaux de Fonds"}}, "location": "Thyon-Les Collons"}, "La Trotteuse-Tissot, La Chaux-de-Fonds": {"race": "La Trotteuse-Tissot, La Chaux-de-Fonds", "longitude": 6.832783800000001, "latitude": 47.1034892, "date": {"sam. 08.12.2012": {"weekday": "saturday", "year": 2012, "categories": {"GC-H30": {"pace": 271000000000, "rank": 35, "distance": 8, "time": 2173.1}}, "day": 8, "month": 12, "livingplace": "La Chaux de Fonds"}, "sam. 12.12.2015": {"weekday": "saturday", "year": 2015, "categories": {"GC-H30": {"pace": 232000000000, "rank": 21, "distance": 8, "time": 1861.9}}, "day": 12, "month": 12, "livingplace": "La Chaux de Fonds"}, "sam. 14.12.2013": {"weekday": "saturday", "year": 2013, "categories": {"GC-H30": {"pace": 236000000000, "rank": 20, "distance": 8, "time": 1893.7}}, "day": 14, "month": 12, "livingplace": "La Chaux de Fonds"}}, "location": "La Chaux-de-Fonds"}, "Sierre-Zinal, Sierre": {"race": "Sierre-Zinal, Sierre", "longitude": 7.533536199999999, "latitude": 46.29413110000001, "date": {"dim. 10.08.2014": {"weekday": "sunday", "year": 2014, "categories": {"ElitesHo": {"pace": 545000000000, "rank": 456, "distance": 31, "time": 16923.3}}, "day": 10, "month": 8, "livingplace": "La Chaux de Fonds"}}, "location": "Sierre"}, "Lausanne Marathon": {"race": "Lausanne Marathon", "longitude": 6.6322734, "latitude": 46.5196535, "date": {"dim. 27.10.2013": {"weekday": "sunday", "year": 2013, "categories": {"21-H2": {"pace": 268000000000, "rank": 132, "distance": 21, "time": 5671.4}}, "day": 27, "month": 10, "livingplace": "La Chaux de Fonds"}}, "location": "Lausanne"}, "BCN Tour #6 Neuch\u00e2tel": {"race": "BCN Tour #6 Neuch\u00e2tel", "longitude": 6.9292732, "latitude": 46.9899874, "date": {"mer. 29.05.2013": {"weekday": "wednesday", "year": 2013, "categories": {"HS1": {"pace": 261000000000, "rank": 39, "distance": 11, "time": 2880.2}}, "day": 29, "month": 5, "livingplace": "La Chaux de Fonds"}}, "location": "Neuch\u00e2tel"}, "Morat-Fribourg": {"race": "Morat-Fribourg", "longitude": 7.120184, "latitude": 46.92922110000001, "date": {"sam. 05.10.2013": {"weekday": "saturday", "year": 2013, "categories": {"17-M20": {"pace": 273000000000, "rank": 563, "distance": 17, "time": 4770.8}}, "day": 5, "month": 10, "livingplace": "La Chaux de Fonds"}, "sam. 06.10.2012": {"weekday": "saturday", "year": 2012, "categories": {"17-M20": {"pace": 300000000000, "rank": 980, "distance": 17, "time": 5247.9}}, "day": 6, "month": 10, "livingplace": "La Chaux de Fonds"}}, "location": "Murten"}, "BCN Tour #2 La Chaux-de-Fonds": {"race": "BCN Tour #2 La Chaux-de-Fonds", "longitude": 6.9175754, "latitude": 47.0624261, "date": {"mer. 01.05.2013": {"weekday": "wednesday", "year": 2013, "categories": {"HS1": {"pace": 269000000000, "rank": 94, "distance": 11, "time": 2888.3}}, "day": 1, "month": 5, "livingplace": "La Chaux de Fonds"}}, "location": "Ch\u00e9zard-St-Martin"}}, "name": "Surdez Patrick", "birth": 1981}