{"sex": "M", "races": {"Tour du Pays de Vaud #3 - Chavornay": {"race": "Tour du Pays de Vaud #3 - Chavornay", "longitude": 6.641183, "latitude": 46.7784736, "date": {"mer. 28.08.2013": {"weekday": "wednesday", "year": 2013, "categories": {"H-Sen2": {"pace": 239000000000, "rank": 13, "distance": 9, "time": 2129.3}}, "day": 28, "month": 8, "livingplace": "Vouvry"}}, "location": "Yverdon-les-Bains"}, "Tour du Chablais #5 Leysin": {"race": "Tour du Chablais #5 Leysin", "longitude": 6.931504599999999, "latitude": 46.3603257, "date": {"mer. 05.05.2010": {"weekday": "wednesday", "year": 2010, "categories": {"M-M40": {"pace": 251000000000, "rank": 9, "distance": 8, "time": 2122.6}}, "day": 5, "month": 5, "livingplace": "Vouvry"}}, "location": "Roche VD"}, "Tour du Pays de Vaud #4 - La Sarraz": {"race": "Tour du Pays de Vaud #4 - La Sarraz", "longitude": 6.5707689, "latitude": 46.7088129, "date": {"mer. 29.08.2012": {"weekday": "wednesday", "year": 2012, "categories": {"H-Sen2": {"pace": 231000000000, "rank": 13, "distance": 9, "time": 1967.7}}, "day": 29, "month": 8, "livingplace": "Vouvry"}, "mer. 04.09.2013": {"weekday": "wednesday", "year": 2013, "categories": {"H-Sen2": {"pace": 240000000000, "rank": 10, "distance": 9, "time": 2047.4}}, "day": 4, "month": 9, "livingplace": "Vouvry"}}, "location": "Chavornay"}, "Tour du Pays de Vaud printanier #3 - Yens": {"race": "Tour du Pays de Vaud printanier #3 - Yens", "longitude": 6.5728678, "latitude": 46.7829756, "date": {"mer. 18.06.2014": {"weekday": "wednesday", "year": 2014, "categories": {"H-Sen2": {"pace": 235000000000, "rank": 5, "distance": 9, "time": 2142.1}}, "day": 18, "month": 6, "livingplace": "Vouvry"}}, "location": "Champvent"}, "Tour du Pays de Vaud etape 5 - La Sarraz": {"race": "Tour du Pays de Vaud etape 5 - La Sarraz", "longitude": 6.539251200000001, "latitude": 46.5993131, "date": {"mer. 10.09.2008": {"weekday": "wednesday", "year": 2008, "categories": {"HomSen1": {"pace": 233000000000, "rank": 21, "distance": 9, "time": 2008.1}}, "day": 10, "month": 9, "livingplace": "Vouvry"}}, "location": "Penthaz"}, "Tour du Chablais #6 Montreux": {"race": "Tour du Chablais #6 Montreux", "longitude": 6.970566, "latitude": 46.3190253, "date": {"mer. 16.05.2012": {"weekday": "wednesday", "year": 2012, "categories": {"M-M40": {"pace": 230000000000, "rank": 17, "distance": 9, "time": 2133.6}}, "day": 16, "month": 5, "livingplace": "Vouvry"}}, "location": "Aigle"}, "Kerzerslauf": {"race": "Kerzerslauf", "longitude": 7.1954365, "latitude": 46.97488999999999, "date": {"sam. 19.03.2011": {"weekday": "saturday", "year": 2011, "categories": {"15-M40": {"pace": 237000000000, "rank": 46, "distance": 15, "time": 3558.3}}, "day": 19, "month": 3, "livingplace": "Vouvry"}}, "location": "Kerzers"}, "Tour du pays de Vaud #1 \u2013 St  Prex": {"race": "Tour du pays de Vaud #1 \u2013 St  Prex", "longitude": 6.641183, "latitude": 46.7784736, "date": {"mer. 11.08.2010": {"weekday": "wednesday", "year": 2010, "categories": {"HSen2": {"pace": 254000000000, "rank": 19, "distance": 8, "time": 2135.7}}, "day": 11, "month": 8, "livingplace": "Vouvry"}}, "location": "Yverdon-les-Bains"}, "Tour du Pays de Vaud #5 - La Sarraz": {"race": "Tour du Pays de Vaud #5 - La Sarraz", "longitude": 6.539251200000001, "latitude": 46.5993131, "date": {"mer. 08.09.2010": {"weekday": "wednesday", "year": 2010, "categories": {"HSen2": {"pace": 244000000000, "rank": 20, "distance": 9, "time": 2228.1}}, "day": 8, "month": 9, "livingplace": "Vouvry"}}, "location": "Penthaz"}, "20km de Lausanne": {"race": "20km de Lausanne", "longitude": 6.6322734, "latitude": 46.5196535, "date": {"sam. 25.04.2009": {"weekday": "saturday", "year": 2009, "categories": {"20-H40": {"pace": 242000000000, "rank": 33, "distance": 20, "time": 4848.4}}, "day": 25, "month": 4, "livingplace": "Vouvry"}, "sam. 25.04.2015": {"weekday": "saturday", "year": 2015, "categories": {"20-H45": {"pace": 299000000000, "rank": 238, "distance": 20, "time": 5984.1}}, "day": 25, "month": 4, "livingplace": "Meneurs d'allure"}, "sam. 27.04.2013": {"weekday": "saturday", "year": 2013, "categories": {"10-H40": {"pace": 327000000000, "rank": 365, "distance": 10, "time": 3275.1}}, "day": 27, "month": 4, "livingplace": "Meneurs allure 10 km"}, "sam. 22.04.2006": {"weekday": "saturday", "year": 2006, "categories": {"20/H30": {"pace": 268000000000, "rank": 101, "distance": 20, "time": 5376.7}}, "day": 22, "month": 4, "livingplace": "Vouvry"}, "sam. 24.04.2010": {"weekday": "saturday", "year": 2010, "categories": {"20-H40": {"pace": 254000000000, "rank": 40, "distance": 20, "time": 5086.2}}, "day": 24, "month": 4, "livingplace": "Vouvry"}, "sam. 30.04.2011": {"weekday": "saturday", "year": 2011, "categories": {"20-H40": {"pace": 246000000000, "rank": 31, "distance": 20, "time": 4925.0}}, "day": 30, "month": 4, "livingplace": "Vouvry"}, "sam. 26.04.2014": {"weekday": "saturday", "year": 2014, "categories": {"10-H45": {"pace": 298000000000, "rank": 150, "distance": 10, "time": 2987.8}}, "day": 26, "month": 4, "livingplace": "Meneur d'allure 10 km"}}, "location": "Lausanne"}, "Tour du Chablais #2 St-Gingolph": {"race": "Tour du Chablais #2 St-Gingolph", "longitude": 6.854975199999999, "latitude": 46.3835529, "date": {"mer. 14.04.2010": {"weekday": "wednesday", "year": 2010, "categories": {"M-M40": {"pace": 244000000000, "rank": 11, "distance": 8, "time": 2043.0}}, "day": 14, "month": 4, "livingplace": "Vouvry"}}, "location": "Bouveret"}, "Tour du Pays de Vaud #3 - Mezi\u00e8res": {"race": "Tour du Pays de Vaud #3 - Mezi\u00e8res", "longitude": 6.641183, "latitude": 46.7784736, "date": {"mer. 22.08.2012": {"weekday": "wednesday", "year": 2012, "categories": {"H-Sen2": {"pace": 256000000000, "rank": 19, "distance": 8, "time": 2157.6}}, "day": 22, "month": 8, "livingplace": "Vouvry"}}, "location": "Yverdon-les-Bains"}, "Tour du Pays de Vaud #1, Penthaz": {"race": "Tour du Pays de Vaud #1, Penthaz", "longitude": 6.539251200000001, "latitude": 46.5993131, "date": {"mer. 13.08.2014": {"weekday": "wednesday", "year": 2014, "categories": {"H-Sen2": {"pace": 232000000000, "rank": 8, "distance": 9, "time": 1981.9}}, "day": 13, "month": 8, "livingplace": "Vouvry"}}, "location": "Penthaz"}, "Tour du Chablais #4 Morgins": {"race": "Tour du Chablais #4 Morgins", "date": {"mer. 18.05.2011": {"weekday": "wednesday", "year": 2011, "categories": {"M-M40": {"pace": 240000000000, "rank": 7, "distance": 8, "time": 2012.2}}, "day": 18, "month": 5, "livingplace": "Vouvry"}}, "location": "Les Mosses"}, "Tour du Chablais #3 Bex": {"race": "Tour du Chablais #3 Bex", "longitude": 7.0223787, "latitude": 46.1782231, "date": {"mer. 21.04.2010": {"weekday": "wednesday", "year": 2010, "categories": {"M-M40": {"pace": 240000000000, "rank": 22, "distance": 10, "time": 2403.6}}, "day": 21, "month": 4, "livingplace": "Vouvry"}}, "location": "Evionnaz"}, "Tour du Pays de Vaud #3, Chavornay": {"race": "Tour du Pays de Vaud #3, Chavornay", "longitude": 6.641183, "latitude": 46.7784736, "date": {"mer. 27.08.2014": {"weekday": "wednesday", "year": 2014, "categories": {"H-Sen2": {"pace": 249000000000, "rank": 12, "distance": 9, "time": 2145.4}}, "day": 27, "month": 8, "livingplace": "Vouvry"}}, "location": "Yverdon-les-Bains"}, "Tour du Pays de Vaud #2 - Mezi\u00e8res": {"race": "Tour du Pays de Vaud #2 - Mezi\u00e8res", "longitude": 6.7702883, "latitude": 46.5955273, "date": {"mer. 21.08.2013": {"weekday": "wednesday", "year": 2013, "categories": {"H-Sen2": {"pace": 251000000000, "rank": 10, "distance": 8, "time": 2034.2}}, "day": 21, "month": 8, "livingplace": "Vouvry"}}, "location": "M\u00e9zi\u00e8res VD"}, "Tour du Pays de Vaud printanier #2 Yverdon-les-Bains": {"race": "Tour du Pays de Vaud printanier #2 Yverdon-les-Bains", "longitude": 6.7975224, "latitude": 46.6698891, "date": {"mer. 11.06.2014": {"weekday": "wednesday", "year": 2014, "categories": {"H-Sen2": {"pace": 252000000000, "rank": 4, "distance": 9, "time": 2295.3}}, "day": 11, "month": 6, "livingplace": "Vouvry"}}, "location": "Moudon"}, "Jungfrau-Marathon, Interlaken": {"race": "Jungfrau-Marathon, Interlaken", "date": {"sam. 05.09.2009": {"weekday": "saturday", "year": 2009, "categories": {"M40": {"pace": 376000000000, "rank": 130, "distance": 42, "time": 15869.0}}, "day": 5, "month": 9, "livingplace": "Vouvry"}, "sam. 10.09.2005": {"weekday": "saturday", "year": 2005, "categories": {"M20": {"pace": 425000000000, "rank": 512, "distance": 42, "time": 17936.4}}, "day": 10, "month": 9, "livingplace": "Vouvry"}, "sam. 08.09.2007": {"weekday": "saturday", "year": 2007, "categories": {"M20": {"pace": 384000000000, "rank": 288, "distance": 42, "time": 16202.9}}, "day": 8, "month": 9, "livingplace": "Vouvry"}, "sam. 08.09.2012": {"weekday": "saturday", "year": 2012, "categories": {"SO-M40": {"pace": 451000000000, "rank": 455, "distance": 42, "time": 19038.0}}, "day": 8, "month": 9, "livingplace": "Vouvry"}, "sam. 09.09.2006": {"weekday": "saturday", "year": 2006, "categories": {"M20": {"pace": 431000000000, "rank": 501, "distance": 42, "time": 18225.3}}, "day": 9, "month": 9, "livingplace": "Vouvry"}}, "location": "Interlaken"}, "Tour du Pays de Vaud etape 2 - Genolier": {"race": "Tour du Pays de Vaud etape 2 - Genolier", "longitude": 6.7702883, "latitude": 46.5955273, "date": {"mer. 20.08.2008": {"weekday": "wednesday", "year": 2008, "categories": {"HomSen1": {"pace": 236000000000, "rank": 14, "distance": 8, "time": 1961.3}}, "day": 20, "month": 8, "livingplace": "Vouvry"}}, "location": "M\u00e9zi\u00e8res VD"}, "Tour du Chablais #2 Rennaz": {"race": "Tour du Chablais #2 Rennaz", "longitude": 6.854975199999999, "latitude": 46.3835529, "date": {"mer. 04.05.2011": {"weekday": "wednesday", "year": 2011, "categories": {"M-M40": {"pace": 228000000000, "rank": 11, "distance": 9, "time": 2135.5}}, "day": 4, "month": 5, "livingplace": "Vouvry"}}, "location": "Bouveret"}, "Tour du Pays de Vaud #4, La Sarraz": {"race": "Tour du Pays de Vaud #4, La Sarraz", "longitude": 6.5707689, "latitude": 46.7088129, "date": {"mer. 03.09.2014": {"weekday": "wednesday", "year": 2014, "categories": {"H-Sen2": {"pace": 236000000000, "rank": 4, "distance": 9, "time": 2012.2}}, "day": 3, "month": 9, "livingplace": "Vouvry"}}, "location": "Chavornay"}, "Tour du Pays de Vaud #2, Mezi\u00e8res": {"race": "Tour du Pays de Vaud #2, Mezi\u00e8res", "longitude": 6.7702883, "latitude": 46.5955273, "date": {"mer. 20.08.2014": {"weekday": "wednesday", "year": 2014, "categories": {"H-Sen2": {"pace": 255000000000, "rank": 4, "distance": 8, "time": 2065.8}}, "day": 20, "month": 8, "livingplace": "Vouvry"}}, "location": "M\u00e9zi\u00e8res VD"}, "Tour du Chablais #4 Yvorne": {"race": "Tour du Chablais #4 Yvorne", "date": {"mer. 28.04.2010": {"weekday": "wednesday", "year": 2010, "categories": {"M-M40": {"pace": 242000000000, "rank": 15, "distance": 8, "time": 2007.5}}, "day": 28, "month": 4, "livingplace": "Vouvry"}}, "location": "Les Mosses"}, "Tour du Pays de Vaud etape 1 - Le Mont sur Lausanne": {"race": "Tour du Pays de Vaud etape 1 - Le Mont sur Lausanne", "longitude": 6.641183, "latitude": 46.7784736, "date": {"mer. 13.08.2008": {"weekday": "wednesday", "year": 2008, "categories": {"HomSen1": {"pace": 237000000000, "rank": 18, "distance": 8, "time": 1991.3}}, "day": 13, "month": 8, "livingplace": "Vouvry"}}, "location": "Yverdon-les-Bains"}, "Tour du Chablais #1 Roche": {"race": "Tour du Chablais #1 Roche", "longitude": 6.9916269, "latitude": 46.2957462, "date": {"mer. 07.04.2010": {"weekday": "wednesday", "year": 2010, "categories": {"M-M40": {"pace": 228000000000, "rank": 14, "distance": 9, "time": 2040.8}}, "day": 7, "month": 4, "livingplace": "Vouvry"}}, "location": "Ollon VD"}, "ASICS Bremgarter Reusslauf": {"race": "ASICS Bremgarter Reusslauf", "longitude": 8.3397905, "latitude": 47.34917739999999, "date": {"sam. 28.02.2015": {"weekday": "saturday", "year": 2015, "categories": {"11-M40": {"pace": 300000000000, "rank": 411, "distance": 11, "time": 3305.3}}, "day": 28, "month": 2, "livingplace": "Vouvry"}}, "location": "Bremgarten AG"}, "Lucerne Marathon, Luzern": {"race": "Lucerne Marathon, Luzern", "longitude": 8.3093072, "latitude": 47.05016819999999, "date": {"dim. 31.10.2010": {"weekday": "sunday", "year": 2010, "categories": {"H-M40": {"pace": 261000000000, "rank": 172, "distance": 21, "time": 5507.4}}, "day": 31, "month": 10, "livingplace": "Vouvry"}}, "location": "Luzern"}, "Morat-Fribourg": {"race": "Morat-Fribourg", "longitude": 7.120184, "latitude": 46.92922110000001, "date": {"sam. 03.10.2009": {"weekday": "saturday", "year": 2009, "categories": {"C-M40": {"pace": 252000000000, "rank": 59, "distance": 17, "time": 4328.1}}, "day": 3, "month": 10, "livingplace": "Vouvry"}, "dim. 05.10.2003": {"weekday": "sunday", "year": 2003, "categories": {"M20": {"pace": 267000000000, "rank": 578, "distance": 17, "time": 4587.8}}, "day": 5, "month": 10, "livingplace": "Vouvry"}, "sam. 01.10.2011": {"weekday": "saturday", "year": 2011, "categories": {"17-M40": {"pace": 251000000000, "rank": 58, "distance": 17, "time": 4318.6}}, "day": 1, "month": 10, "livingplace": "Vouvry"}}, "location": "Murten"}, "Tour du Chablais #6 Aigle": {"race": "Tour du Chablais #6 Aigle", "longitude": 6.970566, "latitude": 46.3190253, "date": {"mer. 01.06.2011": {"weekday": "wednesday", "year": 2011, "categories": {"M-M40": {"pace": 222000000000, "rank": 10, "distance": 10, "time": 2267.3}}, "day": 1, "month": 6, "livingplace": "Vouvry"}}, "location": "Aigle"}, "Tour du Chablais #6 Mouthey": {"race": "Tour du Chablais #6 Mouthey", "longitude": 6.970566, "latitude": 46.3190253, "date": {"mer. 12.05.2010": {"weekday": "wednesday", "year": 2010, "categories": {"M-M40": {"pace": 229000000000, "rank": 18, "distance": 9, "time": 2109.1}}, "day": 12, "month": 5, "livingplace": "Vouvry"}}, "location": "Aigle"}, "Tour du Pays de Vaud etape 3 - Aubonne": {"race": "Tour du Pays de Vaud etape 3 - Aubonne", "longitude": 6.5728678, "latitude": 46.7829756, "date": {"mer. 27.08.2008": {"weekday": "wednesday", "year": 2008, "categories": {"HomSen1": {"pace": 254000000000, "rank": 16, "distance": 8, "time": 1984.4}}, "day": 27, "month": 8, "livingplace": "Vouvry"}}, "location": "Champvent"}, "Montreux - Les Rochers de Naye": {"race": "Montreux - Les Rochers de Naye", "longitude": 6.9106799, "latitude": 46.4312213, "date": {"dim. 25.06.2006": {"weekday": "sunday", "year": 2006, "categories": {"Sen": {"pace": 416000000000, "rank": 40, "distance": 19, "time": 7832.3}}, "day": 25, "month": 6, "livingplace": "Vouvry"}}, "location": "Montreux"}, "Tour du Chablais #1 Lavey": {"race": "Tour du Chablais #1 Lavey", "longitude": 6.9916269, "latitude": 46.2957462, "date": {"mer. 27.04.2011": {"weekday": "wednesday", "year": 2011, "categories": {"M-M40": {"pace": 224000000000, "rank": 9, "distance": 9, "time": 2016.8}}, "day": 27, "month": 4, "livingplace": "Vouvry"}}, "location": "Ollon VD"}, "Tour du Chablais #5 Les Mosses": {"race": "Tour du Chablais #5 Les Mosses", "longitude": 6.931504599999999, "latitude": 46.3603257, "date": {"mer. 25.05.2011": {"weekday": "wednesday", "year": 2011, "categories": {"M-M40": {"pace": 239000000000, "rank": 5, "distance": 8, "time": 1919.6}}, "day": 25, "month": 5, "livingplace": "Vouvry"}}, "location": "Roche VD"}, "Tour du Chablais #3 Le Bouveret": {"race": "Tour du Chablais #3 Le Bouveret", "longitude": 7.0223787, "latitude": 46.1782231, "date": {"mer. 11.05.2011": {"weekday": "wednesday", "year": 2011, "categories": {"M-M40": {"pace": 230000000000, "rank": 11, "distance": 10, "time": 2301.4}}, "day": 11, "month": 5, "livingplace": "Vouvry"}}, "location": "Evionnaz"}, "Tour du pays de Vaud #1 - Penthaz": {"race": "Tour du pays de Vaud #1 - Penthaz", "longitude": 6.539251200000001, "latitude": 46.5993131, "date": {"mer. 14.08.2013": {"weekday": "wednesday", "year": 2013, "categories": {"H-Sen2": {"pace": 229000000000, "rank": 7, "distance": 9, "time": 1959.6}}, "day": 14, "month": 8, "livingplace": "Vouvry"}}, "location": "Penthaz"}, "Tour du Pays de Vaud printanier #1 Moudon": {"race": "Tour du Pays de Vaud printanier #1 Moudon", "longitude": 6.2347852, "latitude": 46.3832683, "date": {"mer. 04.06.2014": {"weekday": "wednesday", "year": 2014, "categories": {"H-Sen2": {"pace": 243000000000, "rank": 3, "distance": 8, "time": 2044.0}}, "day": 4, "month": 6, "livingplace": "Vouvry"}}, "location": "Nyon"}, "Tour du Pays de Vaud #2 - Genolier": {"race": "Tour du Pays de Vaud #2 - Genolier", "longitude": 6.7702883, "latitude": 46.5955273, "date": {"mer. 15.08.2012": {"weekday": "wednesday", "year": 2012, "categories": {"H-Sen2": {"pace": 230000000000, "rank": 15, "distance": 9, "time": 1958.2}}, "day": 15, "month": 8, "livingplace": "Vouvry"}, "mer. 18.08.2010": {"weekday": "wednesday", "year": 2010, "categories": {"HSen2": {"pace": 247000000000, "rank": 22, "distance": 8, "time": 2007.5}}, "day": 18, "month": 8, "livingplace": "Vouvry"}}, "location": "M\u00e9zi\u00e8res VD"}}, "name": "Susan Patrick", "birth": 1969}