{"sex": "M", "races": {"Course de l'Escalade, Gen\u00e8ve": {"race": "Course de l'Escalade, Gen\u00e8ve", "longitude": 6.1431577, "latitude": 46.2043907, "date": {"sam. 03.12.2005": {"weekday": "saturday", "year": 2005, "categories": {"Hommes2": {"pace": 253000000000, "rank": 285, "distance": 7, "time": 1834.8}}, "day": 3, "month": 12, "livingplace": "Thonex"}}, "location": "Gen\u00e8ve"}, "ASICS Bremgarter Reusslauf": {"race": "ASICS Bremgarter Reusslauf", "longitude": 8.3397905, "latitude": 47.34917739999999, "date": {"sam. 25.02.2012": {"weekday": "saturday", "year": 2012, "categories": {"M40": {"pace": 246000000000, "rank": 148, "distance": 11, "time": 2710.5}}, "day": 25, "month": 2, "livingplace": "Zurich"}, "sam. 26.02.2011": {"weekday": "saturday", "year": 2011, "categories": {"M40": {"pace": 240000000000, "rank": 137, "distance": 11, "time": 2643.5}}, "day": 26, "month": 2, "livingplace": "Zurich"}}, "location": "Bremgarten AG"}, "Glacier 3000 Run, Gstaad": {"race": "Glacier 3000 Run, Gstaad", "longitude": 7.2865728, "latitude": 46.4717588, "date": {"sam. 08.08.2015": {"weekday": "saturday", "year": 2015, "categories": {"M40": {"pace": 475000000000, "rank": 24, "distance": 26, "time": 12354.6}}, "day": 8, "month": 8, "livingplace": "Zurich"}, "sam. 09.08.2014": {"weekday": "saturday", "year": 2014, "categories": {"M40": {"pace": 487000000000, "rank": 45, "distance": 26, "time": 12681.7}}, "day": 9, "month": 8, "livingplace": "Zurich"}}, "location": "Gstaad"}, "Zermatt Marathon, Zermatt": {"race": "Zermatt Marathon, Zermatt", "date": {"sam. 06.07.2013": {"weekday": "saturday", "year": 2013, "categories": {"M-M40": {"pace": 403000000000, "rank": 23, "distance": 42, "time": 17010.6}}, "day": 6, "month": 7, "livingplace": "Zurich"}}, "location": "Zermatt"}, "Dietiker Neujahrslauf, Dietikon": {"race": "Dietiker Neujahrslauf, Dietikon", "longitude": 8.39977, "latitude": 47.4053885, "date": {"sam. 10.01.2015": {"weekday": "saturday", "year": 2015, "categories": {"C": {"pace": 245000000000, "rank": 42, "distance": 12, "time": 2971.5}}, "day": 10, "month": 1, "livingplace": "Zurich"}}, "location": "Dietikon"}, "Lausanne Marathon": {"race": "Lausanne Marathon", "longitude": 6.6322734, "latitude": 46.5196535, "date": {"dim. 31.10.2010": {"weekday": "sunday", "year": 2010, "categories": {"21-H2": {"pace": 274000000000, "rank": 221, "distance": 21, "time": 5783.6}}, "day": 31, "month": 10, "livingplace": "Zurich"}}, "location": "Lausanne"}, "Lucerne Marathon, Luzern": {"race": "Lucerne Marathon, Luzern", "longitude": 8.3093072, "latitude": 47.05016819999999, "date": {"dim. 28.10.2012": {"weekday": "sunday", "year": 2012, "categories": {"H-M40": {"pace": 251000000000, "rank": 66, "distance": 21, "time": 5303.1}}, "day": 28, "month": 10, "livingplace": "Zurich"}}, "location": "Luzern"}, "Morat-Fribourg": {"race": "Morat-Fribourg", "longitude": 7.120184, "latitude": 46.92922110000001, "date": {"sam. 04.10.2014": {"weekday": "saturday", "year": 2014, "categories": {"17-M40": {"pace": 255000000000, "rank": 51, "distance": 17, "time": 4388.6}}, "day": 4, "month": 10, "livingplace": "Zurich"}}, "location": "Murten"}, "Jungfrau-Marathon, Interlaken": {"race": "Jungfrau-Marathon, Interlaken", "date": {"sam. 08.09.2012": {"weekday": "saturday", "year": 2012, "categories": {"SO-M40": {"pace": 418000000000, "rank": 295, "distance": 42, "time": 17673.4}}, "day": 8, "month": 9, "livingplace": "Zurich"}}, "location": "Interlaken"}, "SwissCityMarathon - Lucerne, Luzern": {"race": "SwissCityMarathon - Lucerne, Luzern", "longitude": 8.3093072, "latitude": 47.05016819999999, "date": {"dim. 27.10.2013": {"weekday": "sunday", "year": 2013, "categories": {"M-M40": {"pace": 310000000000, "rank": 171, "distance": 42, "time": 13086.0}}, "day": 27, "month": 10, "livingplace": "Zurich"}}, "location": "Luzern"}, "Z\u00fcrcher Silvesterlauf, Z\u00fcrich": {"race": "Z\u00fcrcher Silvesterlauf, Z\u00fcrich", "longitude": 8.541694, "latitude": 47.3768866, "date": {"dim. 12.12.2010": {"weekday": "sunday", "year": 2010, "categories": {"8-MenAK1": {"pace": 253000000000, "rank": 179, "distance": 9, "time": 2176.8}}, "day": 12, "month": 12, "livingplace": "Zurich"}}, "location": "Z\u00fcrich"}}, "name": "Taboada Jorge", "birth": 1971}