{"sex": "F", "races": {"Tour du Chablais #5 Les Mosses": {"race": "Tour du Chablais #5 Les Mosses", "longitude": 6.931504599999999, "latitude": 46.3603257, "date": {"mer. 25.05.2011": {"weekday": "wednesday", "year": 2011, "categories": {"F-F20": {"pace": 446000000000, "rank": 119, "distance": 8, "time": 3571.9}}, "day": 25, "month": 5, "livingplace": "Vouvry"}}, "location": "Roche VD"}, "Tour du Chablais #1 Lavey": {"race": "Tour du Chablais #1 Lavey", "longitude": 6.9916269, "latitude": 46.2957462, "date": {"mer. 27.04.2011": {"weekday": "wednesday", "year": 2011, "categories": {"F-F20": {"pace": 411000000000, "rank": 124, "distance": 9, "time": 3702.1}}, "day": 27, "month": 4, "livingplace": "Vouvry"}}, "location": "Ollon VD"}, "Tour du Chablais #3 Le Bouveret": {"race": "Tour du Chablais #3 Le Bouveret", "longitude": 7.0223787, "latitude": 46.1782231, "date": {"mer. 11.05.2011": {"weekday": "wednesday", "year": 2011, "categories": {"F-F20": {"pace": 421000000000, "rank": 142, "distance": 10, "time": 4218.9}}, "day": 11, "month": 5, "livingplace": "Vouvry"}}, "location": "Evionnaz"}, "Tour du Chablais #6 Aigle": {"race": "Tour du Chablais #6 Aigle", "longitude": 6.970566, "latitude": 46.3190253, "date": {"mer. 01.06.2011": {"weekday": "wednesday", "year": 2011, "categories": {"F-F20": {"pace": 424000000000, "rank": 149, "distance": 10, "time": 4329.6}}, "day": 1, "month": 6, "livingplace": "Vouvry"}}, "location": "Aigle"}, "Tour du Chablais #4 Morgins": {"race": "Tour du Chablais #4 Morgins", "date": {"mer. 18.05.2011": {"weekday": "wednesday", "year": 2011, "categories": {"F-F20": {"pace": 448000000000, "rank": 121, "distance": 8, "time": 3742.0}}, "day": 18, "month": 5, "livingplace": "Vouvry"}}, "location": "Les Mosses"}, "Tour du Chablais #2 Rennaz": {"race": "Tour du Chablais #2 Rennaz", "longitude": 6.854975199999999, "latitude": 46.3835529, "date": {"mer. 04.05.2011": {"weekday": "wednesday", "year": 2011, "categories": {"F-F20": {"pace": 421000000000, "rank": 137, "distance": 9, "time": 3940.8}}, "day": 4, "month": 5, "livingplace": "Vouvry"}}, "location": "Bouveret"}}, "name": "Tamborini D\u00e9lphine", "birth": 1990}