{"sex": "M", "races": {"Tour du Chablais #5 Leysin": {"race": "Tour du Chablais #5 Leysin", "longitude": 6.931504599999999, "latitude": 46.3603257, "date": {"mer. 05.05.2010": {"weekday": "wednesday", "year": 2010, "categories": {"M-M40": {"pace": 278000000000, "rank": 44, "distance": 8, "time": 2351.9}}, "day": 5, "month": 5, "livingplace": "Collombey"}}, "location": "Roche VD"}, "Tour du Chablais #4 Yvorne": {"race": "Tour du Chablais #4 Yvorne", "date": {"mer. 28.04.2010": {"weekday": "wednesday", "year": 2010, "categories": {"M-M40": {"pace": 272000000000, "rank": 59, "distance": 8, "time": 2256.5}}, "day": 28, "month": 4, "livingplace": "Collombey"}}, "location": "Les Mosses"}, "Tour du Chablais #1 Roche": {"race": "Tour du Chablais #1 Roche", "longitude": 6.9916269, "latitude": 46.2957462, "date": {"mer. 07.04.2010": {"weekday": "wednesday", "year": 2010, "categories": {"M-M40": {"pace": 265000000000, "rank": 76, "distance": 9, "time": 2374.6}}, "day": 7, "month": 4, "livingplace": "Collombey"}}, "location": "Ollon VD"}, "Morat-Fribourg": {"race": "Morat-Fribourg", "longitude": 7.120184, "latitude": 46.92922110000001, "date": {"sam. 02.10.2010": {"weekday": "saturday", "year": 2010, "categories": {"17-M40": {"pace": 305000000000, "rank": 329, "distance": 17, "time": 5248.4}}, "day": 2, "month": 10, "livingplace": "Collombey"}}, "location": "Murten"}, "Tour du Chablais #6 Aigle": {"race": "Tour du Chablais #6 Aigle", "longitude": 6.970566, "latitude": 46.3190253, "date": {"mer. 01.06.2011": {"weekday": "wednesday", "year": 2011, "categories": {"M-M40": {"pace": 263000000000, "rank": 62, "distance": 10, "time": 2687.2}}, "day": 1, "month": 6, "livingplace": "Collombey"}}, "location": "Aigle"}, "Tour du Chablais #4 Morgins": {"race": "Tour du Chablais #4 Morgins", "date": {"mer. 18.05.2011": {"weekday": "wednesday", "year": 2011, "categories": {"M-M40": {"pace": 282000000000, "rank": 65, "distance": 8, "time": 2359.4}}, "day": 18, "month": 5, "livingplace": "Collombey"}}, "location": "Les Mosses"}, "Tour du Chablais #6 Mouthey": {"race": "Tour du Chablais #6 Mouthey", "longitude": 6.970566, "latitude": 46.3190253, "date": {"mer. 12.05.2010": {"weekday": "wednesday", "year": 2010, "categories": {"M-M40": {"pace": 256000000000, "rank": 63, "distance": 9, "time": 2358.6}}, "day": 12, "month": 5, "livingplace": "Collombey"}}, "location": "Aigle"}, "Tour du Chablais #5 Les Mosses": {"race": "Tour du Chablais #5 Les Mosses", "longitude": 6.931504599999999, "latitude": 46.3603257, "date": {"mer. 25.05.2011": {"weekday": "wednesday", "year": 2011, "categories": {"M-M40": {"pace": 292000000000, "rank": 57, "distance": 8, "time": 2340.6}}, "day": 25, "month": 5, "livingplace": "Collombey"}}, "location": "Roche VD"}, "Tour du Chablais #1 Lavey": {"race": "Tour du Chablais #1 Lavey", "longitude": 6.9916269, "latitude": 46.2957462, "date": {"mer. 27.04.2011": {"weekday": "wednesday", "year": 2011, "categories": {"M-M40": {"pace": 273000000000, "rank": 71, "distance": 9, "time": 2462.3}}, "day": 27, "month": 4, "livingplace": "Collombey"}}, "location": "Ollon VD"}, "Tour du Chablais #3 Bex": {"race": "Tour du Chablais #3 Bex", "longitude": 7.0223787, "latitude": 46.1782231, "date": {"mer. 21.04.2010": {"weekday": "wednesday", "year": 2010, "categories": {"M-M40": {"pace": 263000000000, "rank": 51, "distance": 10, "time": 2631.6}}, "day": 21, "month": 4, "livingplace": "Collombey"}}, "location": "Evionnaz"}, "Tour du Chablais #3 Le Bouveret": {"race": "Tour du Chablais #3 Le Bouveret", "longitude": 7.0223787, "latitude": 46.1782231, "date": {"mer. 11.05.2011": {"weekday": "wednesday", "year": 2011, "categories": {"M-M40": {"pace": 272000000000, "rank": 80, "distance": 10, "time": 2725.9}}, "day": 11, "month": 5, "livingplace": "Collombey"}}, "location": "Evionnaz"}, "Tour du Chablais #2 St-Gingolph": {"race": "Tour du Chablais #2 St-Gingolph", "longitude": 6.854975199999999, "latitude": 46.3835529, "date": {"mer. 14.04.2010": {"weekday": "wednesday", "year": 2010, "categories": {"M-M40": {"pace": 273000000000, "rank": 50, "distance": 8, "time": 2282.9}}, "day": 14, "month": 4, "livingplace": "Collombey"}}, "location": "Bouveret"}, "Tour du Chablais #2 Rennaz": {"race": "Tour du Chablais #2 Rennaz", "longitude": 6.854975199999999, "latitude": 46.3835529, "date": {"mer. 04.05.2011": {"weekday": "wednesday", "year": 2011, "categories": {"M-M40": {"pace": 270000000000, "rank": 83, "distance": 9, "time": 2530.8}}, "day": 4, "month": 5, "livingplace": "Collombey"}}, "location": "Bouveret"}}, "name": "Terrettaz Yvon", "birth": 1968}