{"sex": "M", "races": {"Tour du Chablais #2 Bex": {"race": "Tour du Chablais #2 Bex", "longitude": 6.854975199999999, "latitude": 46.3835529, "date": {"mer. 18.04.2012": {"weekday": "wednesday", "year": 2012, "categories": {"M-M20": {"pace": 235000000000, "rank": 39, "distance": 8, "time": 1883.8}}, "day": 18, "month": 4, "livingplace": "Vernayaz"}}, "location": "Bouveret"}, "Kerzerslauf": {"race": "Kerzerslauf", "longitude": 7.1954365, "latitude": 46.97488999999999, "date": {"sam. 19.03.2011": {"weekday": "saturday", "year": 2011, "categories": {"15-M20": {"pace": 259000000000, "rank": 170, "distance": 15, "time": 3897.4}}, "day": 19, "month": 3, "livingplace": "Vernayaz"}, "sam. 21.03.2009": {"weekday": "saturday", "year": 2009, "categories": {"15-M20": {"pace": 274000000000, "rank": 282, "distance": 15, "time": 4114.3}}, "day": 21, "month": 3, "livingplace": "Vernayaz"}, "sam. 16.03.2013": {"weekday": "saturday", "year": 2013, "categories": {"15-M20": {"pace": 251000000000, "rank": 153, "distance": 15, "time": 3771.6}}, "day": 16, "month": 3, "livingplace": "Vernayaz"}, "sam. 21.03.2015": {"weekday": "saturday", "year": 2015, "categories": {"15-M20": {"pace": 252000000000, "rank": 148, "distance": 15, "time": 3789.7}}, "day": 21, "month": 3, "livingplace": "Saxon"}}, "location": "Kerzers"}, "Tour du Chablais #6 Montreux": {"race": "Tour du Chablais #6 Montreux", "longitude": 6.970566, "latitude": 46.3190253, "date": {"mer. 16.05.2012": {"weekday": "wednesday", "year": 2012, "categories": {"M-M20": {"pace": 231000000000, "rank": 42, "distance": 9, "time": 2142.8}}, "day": 16, "month": 5, "livingplace": "Vernayaz"}}, "location": "Aigle"}, "20km de Lausanne": {"race": "20km de Lausanne", "longitude": 6.6322734, "latitude": 46.5196535, "date": {"sam. 30.04.2011": {"weekday": "saturday", "year": 2011, "categories": {"10-H20": {"pace": 240000000000, "rank": 32, "distance": 10, "time": 2408.5}}, "day": 30, "month": 4, "livingplace": "Vernayaz"}}, "location": "Lausanne"}, "Lausanne Marathon": {"race": "Lausanne Marathon", "longitude": 6.6322734, "latitude": 46.5196535, "date": {"dim. 31.10.2010": {"weekday": "sunday", "year": 2010, "categories": {"21-H1": {"pace": 246000000000, "rank": 46, "distance": 21, "time": 5199.8}}, "day": 31, "month": 10, "livingplace": "Vernayaz"}, "dim. 28.10.2012": {"weekday": "sunday", "year": 2012, "categories": {"21-H1": {"pace": 265000000000, "rank": 98, "distance": 21, "time": 5606.8}}, "day": 28, "month": 10, "livingplace": "Vernayaz"}}, "location": "Lausanne"}, "Tour du Chablais #1 Montreux": {"race": "Tour du Chablais #1 Montreux", "longitude": 6.9916269, "latitude": 46.2957462, "date": {"mer. 11.04.2012": {"weekday": "wednesday", "year": 2012, "categories": {"M-M20": {"pace": 244000000000, "rank": 45, "distance": 8, "time": 1857.3}}, "day": 11, "month": 4, "livingplace": "Vernayaz"}}, "location": "Ollon VD"}, "Tour du Chablais #4 Morgins": {"race": "Tour du Chablais #4 Morgins", "date": {"mer. 18.05.2011": {"weekday": "wednesday", "year": 2011, "categories": {"M-M20": {"pace": 250000000000, "rank": 41, "distance": 8, "time": 2094.7}}, "day": 18, "month": 5, "livingplace": "Vernayaz"}}, "location": "Les Mosses"}, "Tour du Chablais #5 Bex": {"race": "Tour du Chablais #5 Bex", "longitude": 6.931504599999999, "latitude": 46.3603257, "date": {"mer. 09.05.2012": {"weekday": "wednesday", "year": 2012, "categories": {"M-M20": {"pace": 225000000000, "rank": 28, "distance": 9, "time": 1995.4}}, "day": 9, "month": 5, "livingplace": "Vernayaz"}}, "location": "Roche VD"}, "Tour du Chablais #4 St  Maurice": {"race": "Tour du Chablais #4 St  Maurice", "date": {"mer. 24.04.2013": {"weekday": "wednesday", "year": 2013, "categories": {"M-M20": {"pace": 234000000000, "rank": 39, "distance": 10, "time": 2349.3}}, "day": 24, "month": 4, "livingplace": "Vernayaz"}}, "location": "Les Mosses"}, "Tour du Chablais #2 Rennaz": {"race": "Tour du Chablais #2 Rennaz", "longitude": 6.854975199999999, "latitude": 46.3835529, "date": {"mer. 04.05.2011": {"weekday": "wednesday", "year": 2011, "categories": {"M-M20": {"pace": 239000000000, "rank": 46, "distance": 9, "time": 2237.0}}, "day": 4, "month": 5, "livingplace": "Vernayaz"}}, "location": "Bouveret"}, "Tour du Chablais #4 Champ\u00e9ry": {"race": "Tour du Chablais #4 Champ\u00e9ry", "date": {"mer. 02.05.2012": {"weekday": "wednesday", "year": 2012, "categories": {"M-M20": {"pace": 232000000000, "rank": 35, "distance": 8, "time": 1925.7}}, "day": 2, "month": 5, "livingplace": "Vernayaz"}}, "location": "Les Mosses"}, "Tour du Chablais #6 Monthey": {"race": "Tour du Chablais #6 Monthey", "longitude": 6.970566, "latitude": 46.3190253, "date": {"mer. 08.05.2013": {"weekday": "wednesday", "year": 2013, "categories": {"M-M20": {"pace": 229000000000, "rank": 32, "distance": 9, "time": 2140.4}}, "day": 8, "month": 5, "livingplace": "Vernayaz"}}, "location": "Aigle"}, "Tour du Chablais #2 Yvorne": {"race": "Tour du Chablais #2 Yvorne", "longitude": 6.854975199999999, "latitude": 46.3835529, "date": {"mer. 10.04.2013": {"weekday": "wednesday", "year": 2013, "categories": {"M-M20": {"pace": 250000000000, "rank": 38, "distance": 8, "time": 2002.5}}, "day": 10, "month": 4, "livingplace": "Vernayaz"}}, "location": "Bouveret"}, "D\u00e9fi Val-de-Travers, Couvet": {"race": "D\u00e9fi Val-de-Travers, Couvet", "longitude": 6.6324944, "latitude": 46.9262933, "date": {"sam. 20.06.2009": {"weekday": "saturday", "year": 2009, "categories": {"EH": {"pace": 319000000000, "rank": 2, "distance": 12, "time": 3893.5}}, "day": 20, "month": 6, "livingplace": "Vernayaz"}}, "location": "Couvet"}, "Tour du Chablais #1 Roche": {"race": "Tour du Chablais #1 Roche", "longitude": 6.9916269, "latitude": 46.2957462, "date": {"mer. 03.04.2013": {"weekday": "wednesday", "year": 2013, "categories": {"M-M20": {"pace": 230000000000, "rank": 35, "distance": 9, "time": 2041.6}}, "day": 3, "month": 4, "livingplace": "Vernayaz"}}, "location": "Ollon VD"}, "Tour du Chablais #3 Collombey-Muraz": {"race": "Tour du Chablais #3 Collombey-Muraz", "longitude": 7.0223787, "latitude": 46.1782231, "date": {"mer. 25.04.2012": {"weekday": "wednesday", "year": 2012, "categories": {"M-M20": {"pace": 236000000000, "rank": 44, "distance": 9, "time": 2127.0}}, "day": 25, "month": 4, "livingplace": "Vernayaz"}}, "location": "Evionnaz"}, "Morat-Fribourg": {"race": "Morat-Fribourg", "longitude": 7.120184, "latitude": 46.92922110000001, "date": {"sam. 01.10.2011": {"weekday": "saturday", "year": 2011, "categories": {"17-M20": {"pace": 272000000000, "rank": 429, "distance": 17, "time": 4674.4}}, "day": 1, "month": 10, "livingplace": "Vernayaz"}, "sam. 06.10.2012": {"weekday": "saturday", "year": 2012, "categories": {"17-M20": {"pace": 259000000000, "rank": 250, "distance": 17, "time": 4522.8}}, "day": 6, "month": 10, "livingplace": "Vernayaz"}}, "location": "Murten"}, "Tour du Chablais #6 Aigle": {"race": "Tour du Chablais #6 Aigle", "longitude": 6.970566, "latitude": 46.3190253, "date": {"mer. 01.06.2011": {"weekday": "wednesday", "year": 2011, "categories": {"M-M20": {"pace": 235000000000, "rank": 55, "distance": 10, "time": 2405.8}}, "day": 1, "month": 6, "livingplace": "Vernayaz"}}, "location": "Aigle"}, "Tour du Chablais #3 Bouveret": {"race": "Tour du Chablais #3 Bouveret", "longitude": 7.0223787, "latitude": 46.1782231, "date": {"mer. 17.04.2013": {"weekday": "wednesday", "year": 2013, "categories": {"M-M20": {"pace": 234000000000, "rank": 34, "distance": 10, "time": 2344.8}}, "day": 17, "month": 4, "livingplace": "Vernayaz"}}, "location": "Evionnaz"}, "Tour du Chablais #5 Les Mosses": {"race": "Tour du Chablais #5 Les Mosses", "longitude": 6.931504599999999, "latitude": 46.3603257, "date": {"mer. 25.05.2011": {"weekday": "wednesday", "year": 2011, "categories": {"M-M20": {"pace": 261000000000, "rank": 56, "distance": 8, "time": 2089.3}}, "day": 25, "month": 5, "livingplace": "Vernayaz"}}, "location": "Roche VD"}, "Tour du Chablais #1 Lavey": {"race": "Tour du Chablais #1 Lavey", "longitude": 6.9916269, "latitude": 46.2957462, "date": {"mer. 27.04.2011": {"weekday": "wednesday", "year": 2011, "categories": {"M-M20": {"pace": 251000000000, "rank": 67, "distance": 9, "time": 2263.1}}, "day": 27, "month": 4, "livingplace": "Vernayaz"}}, "location": "Ollon VD"}, "Tour du Chablais #5 Morgins": {"race": "Tour du Chablais #5 Morgins", "longitude": 6.931504599999999, "latitude": 46.3603257, "date": {"mer. 01.05.2013": {"weekday": "wednesday", "year": 2013, "categories": {"M-M20": {"pace": 243000000000, "rank": 36, "distance": 8, "time": 1853.5}}, "day": 1, "month": 5, "livingplace": "Vernayaz"}}, "location": "Roche VD"}, "Tour du Chablais #3 Le Bouveret": {"race": "Tour du Chablais #3 Le Bouveret", "longitude": 7.0223787, "latitude": 46.1782231, "date": {"mer. 11.05.2011": {"weekday": "wednesday", "year": 2011, "categories": {"M-M20": {"pace": 237000000000, "rank": 45, "distance": 10, "time": 2373.7}}, "day": 11, "month": 5, "livingplace": "Vernayaz"}}, "location": "Evionnaz"}, "Tour du Chablais #1 Martigny": {"race": "Tour du Chablais #1 Martigny", "longitude": 6.9916269, "latitude": 46.2957462, "date": {"mer. 23.04.2014": {"weekday": "wednesday", "year": 2014, "categories": {"M-M20": {"pace": 241000000000, "rank": 55, "distance": 9, "time": 2054.8}}, "day": 23, "month": 4, "livingplace": "Saxon"}}, "location": "Ollon VD"}}, "name": "Terrettaz Yvan", "birth": 1984}