{"sex": "M", "races": {"Stralugano, Lugano": {"race": "Stralugano, Lugano", "longitude": 8.951051999999999, "latitude": 46.0036778, "date": {"dim. 28.09.2014": {"weekday": "sunday", "year": 2014, "categories": {"30-M20": {"pace": 335000000000, "rank": 230, "distance": 30, "time": 10065.0}}, "day": 28, "month": 9, "livingplace": "Sorengo"}, "dim. 29.09.2013": {"weekday": "sunday", "year": 2013, "categories": {"10-M20": {"pace": 315000000000, "rank": 365, "distance": 10, "time": 3151.5}}, "day": 29, "month": 9, "livingplace": "Sorengo"}}, "location": "Lugano"}, "Maratona Ticino, Tenero": {"race": "Maratona Ticino, Tenero", "date": {"dim. 10.11.2013": {"weekday": "sunday", "year": 2013, "categories": {"10-M20": {"pace": 302000000000, "rank": 76, "distance": 10, "time": 3026.0}}, "day": 10, "month": 11, "livingplace": "Sorengo"}}, "location": "Tenero"}, "Course de l'Avent, Fribourg": {"race": "Course de l'Avent, Fribourg", "longitude": 7.161971899999999, "latitude": 46.8064773, "date": {"dim. 24.11.2013": {"weekday": "sunday", "year": 2013, "categories": {"P-H30": {"pace": 289000000000, "rank": 8, "distance": 6, "time": 1822.3}}, "day": 24, "month": 11, "livingplace": "Sorengo"}}, "location": "Fribourg"}, "Lausanne Marathon": {"race": "Lausanne Marathon", "longitude": 6.6322734, "latitude": 46.5196535, "date": {"sam. 24.10.2015": {"weekday": "saturday", "year": 2015, "categories": {"21-H30": {"pace": 338000000000, "rank": 670, "distance": 21, "time": 7134.6}}, "day": 24, "month": 10, "livingplace": "Sorengo"}}, "location": "Lausanne"}, "Kerzerslauf": {"race": "Kerzerslauf", "longitude": 7.1954365, "latitude": 46.97488999999999, "date": {"sam. 15.03.2014": {"weekday": "saturday", "year": 2014, "categories": {"15-M20": {"pace": 304000000000, "rank": 446, "distance": 15, "time": 4562.9}}, "day": 15, "month": 3, "livingplace": "Sorengo"}}, "location": "Kerzers"}, "SwissCityMarathon - Lucerne, Luzern": {"race": "SwissCityMarathon - Lucerne, Luzern", "longitude": 8.3093072, "latitude": 47.05016819999999, "date": {"dim. 27.10.2013": {"weekday": "sunday", "year": 2013, "categories": {"F-Mann": {"pace": 309000000000, "rank": 163, "distance": 9, "time": 2664.7}}, "day": 27, "month": 10, "livingplace": "Sorengo"}}, "location": "Luzern"}}, "name": "Terrani Valerio", "birth": 1981}