{"sex": "M", "races": {"Tour du Chablais #1 Montreux": {"race": "Tour du Chablais #1 Montreux", "longitude": 6.9916269, "latitude": 46.2957462, "date": {"mer. 11.04.2012": {"weekday": "wednesday", "year": 2012, "categories": {"M-M60": {"pace": 350000000000, "rank": 32, "distance": 8, "time": 2660.2}}, "day": 11, "month": 4, "livingplace": "Monthey"}}, "location": "Ollon VD"}, "Tour du Chablais #2 Yvorne": {"race": "Tour du Chablais #2 Yvorne", "longitude": 6.854975199999999, "latitude": 46.3835529, "date": {"mer. 10.04.2013": {"weekday": "wednesday", "year": 2013, "categories": {"M-M60": {"pace": 379000000000, "rank": 28, "distance": 8, "time": 3037.9}}, "day": 10, "month": 4, "livingplace": "Monthey"}}, "location": "Bouveret"}, "Tour du Chablais #4 Yvorne": {"race": "Tour du Chablais #4 Yvorne", "date": {"mer. 28.04.2010": {"weekday": "wednesday", "year": 2010, "categories": {"M-M60": {"pace": 365000000000, "rank": 33, "distance": 8, "time": 3024.5}}, "day": 28, "month": 4, "livingplace": "Monthey"}}, "location": "Les Mosses"}, "Tour du Chablais #1 Roche": {"race": "Tour du Chablais #1 Roche", "longitude": 6.9916269, "latitude": 46.2957462, "date": {"mer. 03.04.2013": {"weekday": "wednesday", "year": 2013, "categories": {"M-M60": {"pace": 335000000000, "rank": 28, "distance": 9, "time": 2976.9}}, "day": 3, "month": 4, "livingplace": "Monthey"}, "mer. 07.04.2010": {"weekday": "wednesday", "year": 2010, "categories": {"M-M60": {"pace": 327000000000, "rank": 33, "distance": 9, "time": 2934.7}}, "day": 7, "month": 4, "livingplace": "Monthey"}}, "location": "Ollon VD"}, "Tour du Chablais #2 Bex": {"race": "Tour du Chablais #2 Bex", "longitude": 6.854975199999999, "latitude": 46.3835529, "date": {"mer. 18.04.2012": {"weekday": "wednesday", "year": 2012, "categories": {"M-M60": {"pace": 332000000000, "rank": 24, "distance": 8, "time": 2660.0}}, "day": 18, "month": 4, "livingplace": "Monthey"}}, "location": "Bouveret"}, "Tour du Chablais #6 Aigle": {"race": "Tour du Chablais #6 Aigle", "longitude": 6.970566, "latitude": 46.3190253, "date": {"mer. 01.06.2011": {"weekday": "wednesday", "year": 2011, "categories": {"M-M60": {"pace": 320000000000, "rank": 27, "distance": 10, "time": 3264.8}}, "day": 1, "month": 6, "livingplace": "Monthey"}}, "location": "Aigle"}, "Tour du Chablais #4 Morgins": {"race": "Tour du Chablais #4 Morgins", "date": {"mer. 18.05.2011": {"weekday": "wednesday", "year": 2011, "categories": {"M-M60": {"pace": 367000000000, "rank": 31, "distance": 8, "time": 3071.2}}, "day": 18, "month": 5, "livingplace": "Monthey"}}, "location": "Les Mosses"}, "Tour du Chablais #2 St-Gingolph": {"race": "Tour du Chablais #2 St-Gingolph", "longitude": 6.854975199999999, "latitude": 46.3835529, "date": {"mer. 14.04.2010": {"weekday": "wednesday", "year": 2010, "categories": {"M-M60": {"pace": 350000000000, "rank": 29, "distance": 8, "time": 2923.1}}, "day": 14, "month": 4, "livingplace": "Monthey"}}, "location": "Bouveret"}, "Tour du Chablais #5 Leysin": {"race": "Tour du Chablais #5 Leysin", "longitude": 6.931504599999999, "latitude": 46.3603257, "date": {"mer. 05.05.2010": {"weekday": "wednesday", "year": 2010, "categories": {"M-M60": {"pace": 365000000000, "rank": 27, "distance": 8, "time": 3086.9}}, "day": 5, "month": 5, "livingplace": "Monthey"}}, "location": "Roche VD"}, "Tour du Chablais #1 Lavey": {"race": "Tour du Chablais #1 Lavey", "longitude": 6.9916269, "latitude": 46.2957462, "date": {"mer. 27.04.2011": {"weekday": "wednesday", "year": 2011, "categories": {"M-M60": {"pace": 319000000000, "rank": 20, "distance": 9, "time": 2878.9}}, "day": 27, "month": 4, "livingplace": "Monthey"}}, "location": "Ollon VD"}, "Tour du Chablais #3 Bex": {"race": "Tour du Chablais #3 Bex", "longitude": 7.0223787, "latitude": 46.1782231, "date": {"mer. 21.04.2010": {"weekday": "wednesday", "year": 2010, "categories": {"M-M60": {"pace": 322000000000, "rank": 29, "distance": 10, "time": 3227.2}}, "day": 21, "month": 4, "livingplace": "Monthey"}}, "location": "Evionnaz"}, "Tour du Chablais #3 Le Bouveret": {"race": "Tour du Chablais #3 Le Bouveret", "longitude": 7.0223787, "latitude": 46.1782231, "date": {"mer. 11.05.2011": {"weekday": "wednesday", "year": 2011, "categories": {"M-M60": {"pace": 332000000000, "rank": 33, "distance": 10, "time": 3322.7}}, "day": 11, "month": 5, "livingplace": "Monthey"}}, "location": "Evionnaz"}, "Tour du Chablais #2 Rennaz": {"race": "Tour du Chablais #2 Rennaz", "longitude": 6.854975199999999, "latitude": 46.3835529, "date": {"mer. 04.05.2011": {"weekday": "wednesday", "year": 2011, "categories": {"M-M60": {"pace": 315000000000, "rank": 24, "distance": 9, "time": 2946.3}}, "day": 4, "month": 5, "livingplace": "Monthey"}}, "location": "Bouveret"}}, "name": "Th\u00e9not Emile", "birth": 1946}