{"sex": "M", "races": {"Course de l'Escalade, Gen\u00e8ve": {"race": "Course de l'Escalade, Gen\u00e8ve", "longitude": 6.1431577, "latitude": 46.2043907, "date": {"sam. 06.12.2014": {"weekday": "saturday", "year": 2014, "categories": {"Esc-Hom3": {"pace": 257000000000, "rank": 206, "distance": 7, "time": 1885.9}}, "day": 6, "month": 12, "livingplace": "Sion"}, "sam. 07.12.2013": {"weekday": "saturday", "year": 2013, "categories": {"Esc-Hom3": {"pace": 265000000000, "rank": 287, "distance": 7, "time": 1922.5}}, "day": 7, "month": 12, "livingplace": "Sion"}}, "location": "Gen\u00e8ve"}, "Tour du Chablais #4 Champ\u00e9ry": {"race": "Tour du Chablais #4 Champ\u00e9ry", "date": {"mer. 02.05.2012": {"weekday": "wednesday", "year": 2012, "categories": {"M-M40": {"pace": 255000000000, "rank": 38, "distance": 8, "time": 2120.6}}, "day": 2, "month": 5, "livingplace": "Sion"}}, "location": "Les Mosses"}, "Course p\u00e9destre Thyon-Dixence, Thyon": {"race": "Course p\u00e9destre Thyon-Dixence, Thyon", "date": {"dim. 05.08.2012": {"weekday": "sunday", "year": 2012, "categories": {"V\u00e9ter 1": {"pace": 413000000000, "rank": 32, "distance": 16, "time": 6767.6}}, "day": 5, "month": 8, "livingplace": "Sion"}}, "location": "Thyon-Les Collons"}, "Tour du Chablais #2 Bex": {"race": "Tour du Chablais #2 Bex", "longitude": 6.854975199999999, "latitude": 46.3835529, "date": {"mer. 18.04.2012": {"weekday": "wednesday", "year": 2012, "categories": {"M-M40": {"pace": 255000000000, "rank": 32, "distance": 8, "time": 2040.5}}, "day": 18, "month": 4, "livingplace": "Sion"}}, "location": "Bouveret"}, "Morat-Fribourg": {"race": "Morat-Fribourg", "longitude": 7.120184, "latitude": 46.92922110000001, "date": {"sam. 03.10.2009": {"weekday": "saturday", "year": 2009, "categories": {"C-M20": {"pace": 299000000000, "rank": 919, "distance": 17, "time": 5142.0}}, "day": 3, "month": 10, "livingplace": "Sion"}, "sam. 01.10.2011": {"weekday": "saturday", "year": 2011, "categories": {"17-M40": {"pace": 279000000000, "rank": 168, "distance": 17, "time": 4803.0}}, "day": 1, "month": 10, "livingplace": "Sion"}, "sam. 06.10.2012": {"weekday": "saturday", "year": 2012, "categories": {"17-M40": {"pace": 290000000000, "rank": 246, "distance": 17, "time": 5070.2}}, "day": 6, "month": 10, "livingplace": "Sion"}}, "location": "Murten"}, "Tour du Chablais #3 Collombey-Muraz": {"race": "Tour du Chablais #3 Collombey-Muraz", "longitude": 7.0223787, "latitude": 46.1782231, "date": {"mer. 25.04.2012": {"weekday": "wednesday", "year": 2012, "categories": {"M-M40": {"pace": 249000000000, "rank": 32, "distance": 9, "time": 2237.1}}, "day": 25, "month": 4, "livingplace": "Sion"}}, "location": "Evionnaz"}, "Sierre-Zinal, Sierre": {"race": "Sierre-Zinal, Sierre", "longitude": 7.533536199999999, "latitude": 46.29413110000001, "date": {"dim. 12.08.2012": {"weekday": "sunday", "year": 2012, "categories": {"V\u00e9t_I": {"pace": 547000000000, "rank": 189, "distance": 31, "time": 16974.4}}, "day": 12, "month": 8, "livingplace": "Sion"}, "dim. 11.08.2013": {"weekday": "sunday", "year": 2013, "categories": {"V\u00e9t_I": {"pace": 543000000000, "rank": 166, "distance": 31, "time": 16838.6}}, "day": 11, "month": 8, "livingplace": "Sion"}}, "location": "Sierre"}, "Tour du Chablais #6 Montreux": {"race": "Tour du Chablais #6 Montreux", "longitude": 6.970566, "latitude": 46.3190253, "date": {"mer. 16.05.2012": {"weekday": "wednesday", "year": 2012, "categories": {"M-M40": {"pace": 242000000000, "rank": 37, "distance": 9, "time": 2242.2}}, "day": 16, "month": 5, "livingplace": "Sion"}}, "location": "Aigle"}, "20km de Lausanne": {"race": "20km de Lausanne", "longitude": 6.6322734, "latitude": 46.5196535, "date": {"sam. 30.04.2011": {"weekday": "saturday", "year": 2011, "categories": {"10-H40": {"pace": 281000000000, "rank": 118, "distance": 10, "time": 2814.0}}, "day": 30, "month": 4, "livingplace": "Sion"}}, "location": "Lausanne"}, "Tour du Chablais #5 Bex": {"race": "Tour du Chablais #5 Bex", "longitude": 6.931504599999999, "latitude": 46.3603257, "date": {"mer. 09.05.2012": {"weekday": "wednesday", "year": 2012, "categories": {"M-M40": {"pace": 245000000000, "rank": 20, "distance": 9, "time": 2173.9}}, "day": 9, "month": 5, "livingplace": "Sion"}}, "location": "Roche VD"}, "Swiss IRONTRAIL, Davos": {"race": "Swiss IRONTRAIL, Davos", "longitude": 9.5319859, "latitude": 46.8507835, "date": {"jeu. 13.08.2015": {"weekday": "thursday", "year": 2015, "categories": {"T121-M40": {"pace": 816000000000, "rank": 6, "distance": 125, "time": 101871.6}}, "day": 13, "month": 8, "livingplace": "Sion"}}, "location": "Chur"}, "Lausanne Marathon": {"race": "Lausanne Marathon", "longitude": 6.6322734, "latitude": 46.5196535, "date": {"dim. 30.10.2011": {"weekday": "sunday", "year": 2011, "categories": {"42-H3": {"pace": 312000000000, "rank": 146, "distance": 42, "time": 13207.4}}, "day": 30, "month": 10, "livingplace": "Sion"}}, "location": "Lausanne"}, "Tour du Chablais #2 Rennaz": {"race": "Tour du Chablais #2 Rennaz", "longitude": 6.854975199999999, "latitude": 46.3835529, "date": {"mer. 04.05.2011": {"weekday": "wednesday", "year": 2011, "categories": {"M-M40": {"pace": 271000000000, "rank": 84, "distance": 9, "time": 2540.0}}, "day": 4, "month": 5, "livingplace": "Sion"}}, "location": "Bouveret"}}, "name": "Titz\u00e9 Patrick", "birth": 1970}