{"sex": "F", "races": {"Tour du Chablais #4 Yvorne": {"race": "Tour du Chablais #4 Yvorne", "date": {"mer. 28.04.2010": {"weekday": "wednesday", "year": 2010, "categories": {"F-F20": {"pace": 390000000000, "rank": 94, "distance": 8, "time": 3233.9}}, "day": 28, "month": 4, "livingplace": "Montreux"}}, "location": "Les Mosses"}, "Tour du Chablais #3 Bex": {"race": "Tour du Chablais #3 Bex", "longitude": 7.0223787, "latitude": 46.1782231, "date": {"mer. 21.04.2010": {"weekday": "wednesday", "year": 2010, "categories": {"F-F20": {"pace": 360000000000, "rank": 99, "distance": 10, "time": 3600.6}}, "day": 21, "month": 4, "livingplace": "Montreux"}}, "location": "Evionnaz"}, "Tour du Chablais #1 Roche": {"race": "Tour du Chablais #1 Roche", "longitude": 6.9916269, "latitude": 46.2957462, "date": {"mer. 07.04.2010": {"weekday": "wednesday", "year": 2010, "categories": {"F-F20": {"pace": 354000000000, "rank": 105, "distance": 9, "time": 3172.8}}, "day": 7, "month": 4, "livingplace": "Montreux"}}, "location": "Ollon VD"}, "Tour du Chablais #2 St-Gingolph": {"race": "Tour du Chablais #2 St-Gingolph", "longitude": 6.854975199999999, "latitude": 46.3835529, "date": {"mer. 14.04.2010": {"weekday": "wednesday", "year": 2010, "categories": {"F-F20": {"pace": 394000000000, "rank": 91, "distance": 8, "time": 3290.6}}, "day": 14, "month": 4, "livingplace": "Montreux"}}, "location": "Bouveret"}, "20km de Lausanne": {"race": "20km de Lausanne", "longitude": 6.6322734, "latitude": 46.5196535, "date": {"sam. 24.04.2010": {"weekday": "saturday", "year": 2010, "categories": {"10-F30": {"pace": 349000000000, "rank": 229, "distance": 10, "time": 3499.8}}, "day": 24, "month": 4, "livingplace": "Montreux"}, "sam. 25.04.2009": {"weekday": "saturday", "year": 2009, "categories": {"10-F30": {"pace": 367000000000, "rank": 356, "distance": 10, "time": 3676.7}}, "day": 25, "month": 4, "livingplace": "Montreux"}}, "location": "Lausanne"}, "Tour du Chablais #6 Mouthey": {"race": "Tour du Chablais #6 Mouthey", "longitude": 6.970566, "latitude": 46.3190253, "date": {"mer. 12.05.2010": {"weekday": "wednesday", "year": 2010, "categories": {"F-F20": {"pace": 342000000000, "rank": 88, "distance": 9, "time": 3152.3}}, "day": 12, "month": 5, "livingplace": "Montreux"}}, "location": "Aigle"}}, "name": "Toesca Marie", "birth": 1977}