{"sex": "M", "races": {"Corrida Bulloise, Bulle": {"race": "Corrida Bulloise, Bulle", "longitude": 7.057726799999999, "latitude": 46.6154512, "date": {"sam. 21.11.2009": {"weekday": "saturday", "year": 2009, "categories": {"M40": {"pace": 328000000000, "rank": 174, "distance": 8, "time": 2679.8}}, "day": 21, "month": 11, "livingplace": "Ins"}}, "location": "Bulle"}, "Int Greifenseelauf, Uster": {"race": "Int Greifenseelauf, Uster", "longitude": 8.717873899999999, "latitude": 47.3482747, "date": {"sam. 20.09.2008": {"weekday": "saturday", "year": 2008, "categories": {"H-M45": {"pace": 365000000000, "rank": 835, "distance": 21, "time": 7715.2}}, "day": 20, "month": 9, "livingplace": "Ins"}}, "location": "Uster"}, "Gurtenclassic, Wabern": {"race": "Gurtenclassic, Wabern", "longitude": 7.448973199999999, "latitude": 46.92901639999999, "date": {"dim. 04.11.2007": {"weekday": "sunday", "year": 2007, "categories": {"M40": {"pace": 434000000000, "rank": 158, "distance": 15, "time": 6524.9}}, "day": 4, "month": 11, "livingplace": "Ins"}}, "location": "Wabern"}, "Hallwilerseelauf, Beinwil am See": {"race": "Hallwilerseelauf, Beinwil am See", "date": {"sam. 10.10.2009": {"weekday": "saturday", "year": 2009, "categories": {"21-M40": {"pace": 351000000000, "rank": 816, "distance": 21, "time": 7426.3}}, "day": 10, "month": 10, "livingplace": "Ins"}}, "location": "Beinwil am See"}, "ASICS Bremgarter Reusslauf": {"race": "ASICS Bremgarter Reusslauf", "longitude": 8.3397905, "latitude": 47.34917739999999, "date": {"sam. 23.02.2008": {"weekday": "saturday", "year": 2008, "categories": {"M40": {"pace": 342000000000, "rank": 628, "distance": 11, "time": 3764.0}}, "day": 23, "month": 2, "livingplace": "Ins"}}, "location": "Bremgarten AG"}, "Kerzerslauf": {"race": "Kerzerslauf", "longitude": 7.1954365, "latitude": 46.97488999999999, "date": {"sam. 15.03.2008": {"weekday": "saturday", "year": 2008, "categories": {"15/M45": {"pace": 355000000000, "rank": 548, "distance": 15, "time": 5328.5}}, "day": 15, "month": 3, "livingplace": "Ins"}, "sam. 20.03.2010": {"weekday": "saturday", "year": 2010, "categories": {"15-M45": {"pace": 372000000000, "rank": 525, "distance": 15, "time": 5585.5}}, "day": 20, "month": 3, "livingplace": "Ins"}, "sam. 16.03.2013": {"weekday": "saturday", "year": 2013, "categories": {"15-M50": {"pace": 350000000000, "rank": 389, "distance": 15, "time": 5253.2}}, "day": 16, "month": 3, "livingplace": "Ins"}}, "location": "Kerzers"}, "Morat-Fribourg": {"race": "Morat-Fribourg", "longitude": 7.120184, "latitude": 46.92922110000001, "date": {"sam. 06.10.2012": {"weekday": "saturday", "year": 2012, "categories": {"17-M50": {"pace": 377000000000, "rank": 463, "distance": 17, "time": 6579.6}}, "day": 6, "month": 10, "livingplace": "Ins"}}, "location": "Murten"}, "Z\u00fcrcher Silvesterlauf, Z\u00fcrich": {"race": "Z\u00fcrcher Silvesterlauf, Z\u00fcrich", "longitude": 8.541694, "latitude": 47.3768866, "date": {"dim. 16.12.2007": {"weekday": "sunday", "year": 2007, "categories": {"MenAK2-8": {"pace": 342000000000, "rank": 1191, "distance": 9, "time": 2941.7}}, "day": 16, "month": 12, "livingplace": "Ins"}, "dim. 13.12.2009": {"weekday": "sunday", "year": 2009, "categories": {"8-MenAK2": {"pace": 328000000000, "rank": 1086, "distance": 9, "time": 2824.7}}, "day": 13, "month": 12, "livingplace": "Ins"}}, "location": "Z\u00fcrich"}, "D\u00e9fi Val-de-Travers, Couvet": {"race": "D\u00e9fi Val-de-Travers, Couvet", "longitude": 6.6324944, "latitude": 46.9262933, "date": {"sam. 20.06.2009": {"weekday": "saturday", "year": 2009, "categories": {"SHS2": {"pace": 430000000000, "rank": 60, "distance": 20, "time": 8486.3}}, "day": 20, "month": 6, "livingplace": "Ins"}}, "location": "Couvet"}, "Bieler Lauftage, Biel Bienne": {"race": "Bieler Lauftage, Biel Bienne", "longitude": 7.2467909, "latitude": 47.1367785, "date": {"ven. 13.06.2008": {"weekday": "friday", "year": 2008, "categories": {"H/M45": {"pace": 401000000000, "rank": 39, "distance": 21, "time": 8462.1}}, "day": 13, "month": 6, "livingplace": "Ins"}}, "location": "Biel/Bienne"}, "IWB Basel Marathon": {"race": "IWB Basel Marathon", "longitude": 7.5885761, "latitude": 47.5595986, "date": {"dim. 23.09.2012": {"weekday": "sunday", "year": 2012, "categories": {"H-21-M50": {"pace": 369000000000, "rank": 74, "distance": 21, "time": 7806.8}}, "day": 23, "month": 9, "livingplace": "Ins"}}, "location": "Basel"}, "Thuner Stadtlauf, Thun": {"race": "Thuner Stadtlauf, Thun", "longitude": 7.6279881, "latitude": 46.7579868, "date": {"dim. 24.08.2008": {"weekday": "sunday", "year": 2008, "categories": {"10-M40": {"pace": 341000000000, "rank": 142, "distance": 10, "time": 3419.9}}, "day": 24, "month": 8, "livingplace": "Ins"}, "dim. 23.08.2009": {"weekday": "sunday", "year": 2009, "categories": {"10-M40": {"pace": 326000000000, "rank": 130, "distance": 10, "time": 3266.0}}, "day": 23, "month": 8, "livingplace": "Ins"}}, "location": "Thun"}, "Steinh\u00f6lzlilauf, Liebefeld": {"race": "Steinh\u00f6lzlilauf, Liebefeld", "longitude": 7.416668, "latitude": 46.933331, "date": {"dim. 06.12.2009": {"weekday": "sunday", "year": 2009, "categories": {"SenIIM": {"pace": 346000000000, "rank": 54, "distance": 11, "time": 3642.6}}, "day": 6, "month": 12, "livingplace": "Ins"}}, "location": "Liebefeld"}, "Hellebardenlauf Sempach": {"race": "Hellebardenlauf Sempach", "date": {"sam. 28.06.2008": {"weekday": "saturday", "year": 2008, "categories": {"LMS2": {"pace": 398000000000, "rank": 218, "distance": 16, "time": 6417.4}}, "day": 28, "month": 6, "livingplace": "Ins"}}, "location": "Sempach Stadt"}, "Giro Media Blenio, Dongio": {"race": "Giro Media Blenio, Dongio", "date": {"lun. 24.03.2008": {"weekday": "monday", "year": 2008, "categories": {"M40": {"pace": 343000000000, "rank": 173, "distance": 10, "time": 3432.3}}, "day": 24, "month": 3, "livingplace": "Ins"}}, "location": "Dongio"}}, "name": "Trinca Franco", "birth": 1962}