{"sex": "M", "races": {"Course p\u00e9destre Thyon-Dixence, Thyon": {"race": "Course p\u00e9destre Thyon-Dixence, Thyon", "date": {"dim. 02.08.2015": {"weekday": "sunday", "year": 2015, "categories": {"V\u00e9ter 1": {"pace": 420000000000, "rank": 35, "distance": 16, "time": 6883.0}}, "day": 2, "month": 8, "livingplace": "Collombey"}, "dim. 03.08.2014": {"weekday": "sunday", "year": 2014, "categories": {"V\u00e9ter 1": {"pace": 425000000000, "rank": 38, "distance": 16, "time": 6960.8}}, "day": 3, "month": 8, "livingplace": "Collombey"}, "dim. 04.08.2013": {"weekday": "sunday", "year": 2013, "categories": {"V\u00e9ter 1": {"pace": 405000000000, "rank": 32, "distance": 16, "time": 6630.8}}, "day": 4, "month": 8, "livingplace": "Collombey"}}, "location": "Thyon-Les Collons"}, "Tour du Chablais #5 Leysin": {"race": "Tour du Chablais #5 Leysin", "longitude": 6.931504599999999, "latitude": 46.3603257, "date": {"mer. 05.05.2010": {"weekday": "wednesday", "year": 2010, "categories": {"M-M40": {"pace": 309000000000, "rank": 72, "distance": 8, "time": 2618.7}}, "day": 5, "month": 5, "livingplace": "Collombey"}}, "location": "Roche VD"}, "Tour du Chablais #2 Yvorne": {"race": "Tour du Chablais #2 Yvorne", "longitude": 6.854975199999999, "latitude": 46.3835529, "date": {"mer. 10.04.2013": {"weekday": "wednesday", "year": 2013, "categories": {"M-M40": {"pace": 357000000000, "rank": 120, "distance": 8, "time": 2856.6}}, "day": 10, "month": 4, "livingplace": "Collombey"}}, "location": "Bouveret"}, "Tour du Chablais #6 Monthey": {"race": "Tour du Chablais #6 Monthey", "longitude": 6.970566, "latitude": 46.3190253, "date": {"mer. 08.05.2013": {"weekday": "wednesday", "year": 2013, "categories": {"M-M40": {"pace": 257000000000, "rank": 48, "distance": 9, "time": 2400.5}}, "day": 8, "month": 5, "livingplace": "Collombey"}}, "location": "Aigle"}, "Tour du Chablais #4 Yvorne": {"race": "Tour du Chablais #4 Yvorne", "date": {"mer. 28.04.2010": {"weekday": "wednesday", "year": 2010, "categories": {"M-M40": {"pace": 294000000000, "rank": 93, "distance": 8, "time": 2435.3}}, "day": 28, "month": 4, "livingplace": "Collombey"}}, "location": "Les Mosses"}, "Tour du Chablais #3 Bouveret": {"race": "Tour du Chablais #3 Bouveret", "longitude": 7.0223787, "latitude": 46.1782231, "date": {"mer. 17.04.2013": {"weekday": "wednesday", "year": 2013, "categories": {"M-M40": {"pace": 271000000000, "rank": 57, "distance": 10, "time": 2710.0}}, "day": 17, "month": 4, "livingplace": "Collombey"}}, "location": "Evionnaz"}, "Tour du Chablais #1 Roche": {"race": "Tour du Chablais #1 Roche", "longitude": 6.9916269, "latitude": 46.2957462, "date": {"mer. 03.04.2013": {"weekday": "wednesday", "year": 2013, "categories": {"M-M40": {"pace": 354000000000, "rank": 140, "distance": 9, "time": 3141.2}}, "day": 3, "month": 4, "livingplace": "Collombey"}}, "location": "Ollon VD"}, "Tour du Chablais #1 Martigny": {"race": "Tour du Chablais #1 Martigny", "longitude": 6.9916269, "latitude": 46.2957462, "date": {"mer. 23.04.2014": {"weekday": "wednesday", "year": 2014, "categories": {"M-M40": {"pace": 264000000000, "rank": 51, "distance": 9, "time": 2252.3}}, "day": 23, "month": 4, "livingplace": "Collombey"}}, "location": "Ollon VD"}, "Tour du Chablais #6 Aigle": {"race": "Tour du Chablais #6 Aigle", "longitude": 6.970566, "latitude": 46.3190253, "date": {"mer. 01.06.2011": {"weekday": "wednesday", "year": 2011, "categories": {"M-M40": {"pace": 248000000000, "rank": 35, "distance": 10, "time": 2536.6}}, "day": 1, "month": 6, "livingplace": "Collombey"}}, "location": "Aigle"}, "Tour du Chablais #4 Morgins": {"race": "Tour du Chablais #4 Morgins", "date": {"mer. 18.05.2011": {"weekday": "wednesday", "year": 2011, "categories": {"M-M40": {"pace": 275000000000, "rank": 47, "distance": 8, "time": 2298.4}}, "day": 18, "month": 5, "livingplace": "Collombey"}}, "location": "Les Mosses"}, "Tour du Chablais #6 Mouthey": {"race": "Tour du Chablais #6 Mouthey", "longitude": 6.970566, "latitude": 46.3190253, "date": {"mer. 12.05.2010": {"weekday": "wednesday", "year": 2010, "categories": {"M-M40": {"pace": 263000000000, "rank": 77, "distance": 9, "time": 2425.3}}, "day": 12, "month": 5, "livingplace": "Collombey"}}, "location": "Aigle"}, "Tour du Chablais #5 Les Mosses": {"race": "Tour du Chablais #5 Les Mosses", "longitude": 6.931504599999999, "latitude": 46.3603257, "date": {"mer. 25.05.2011": {"weekday": "wednesday", "year": 2011, "categories": {"M-M40": {"pace": 275000000000, "rank": 36, "distance": 8, "time": 2206.3}}, "day": 25, "month": 5, "livingplace": "Collombey"}}, "location": "Roche VD"}, "Tour du Chablais #1 Lavey": {"race": "Tour du Chablais #1 Lavey", "longitude": 6.9916269, "latitude": 46.2957462, "date": {"mer. 27.04.2011": {"weekday": "wednesday", "year": 2011, "categories": {"M-M40": {"pace": 345000000000, "rank": 162, "distance": 9, "time": 3112.6}}, "day": 27, "month": 4, "livingplace": "Collombey"}}, "location": "Ollon VD"}, "Sierre-Zinal, Sierre": {"race": "Sierre-Zinal, Sierre", "longitude": 7.533536199999999, "latitude": 46.29413110000001, "date": {"dim. 09.08.2015": {"weekday": "sunday", "year": 2015, "categories": {"V\u00e9t_I": {"pace": 526000000000, "rank": 129, "distance": 31, "time": 16325.5}}, "day": 9, "month": 8, "livingplace": "Collombey"}, "dim. 10.08.2014": {"weekday": "sunday", "year": 2014, "categories": {"V\u00e9t_I": {"pace": 558000000000, "rank": 174, "distance": 31, "time": 17322.4}}, "day": 10, "month": 8, "livingplace": "Collombey"}}, "location": "Sierre"}, "Tour du Chablais #5 Morgins": {"race": "Tour du Chablais #5 Morgins", "longitude": 6.931504599999999, "latitude": 46.3603257, "date": {"mer. 01.05.2013": {"weekday": "wednesday", "year": 2013, "categories": {"M-M40": {"pace": 276000000000, "rank": 41, "distance": 8, "time": 2097.8}}, "day": 1, "month": 5, "livingplace": "Collombey"}}, "location": "Roche VD"}, "Tour du Chablais #3 Le Bouveret": {"race": "Tour du Chablais #3 Le Bouveret", "longitude": 7.0223787, "latitude": 46.1782231, "date": {"mer. 11.05.2011": {"weekday": "wednesday", "year": 2011, "categories": {"M-M40": {"pace": 329000000000, "rank": 155, "distance": 10, "time": 3295.4}}, "day": 11, "month": 5, "livingplace": "Collombey"}}, "location": "Evionnaz"}, "Tour du Chablais #4 St  Maurice": {"race": "Tour du Chablais #4 St  Maurice", "date": {"mer. 24.04.2013": {"weekday": "wednesday", "year": 2013, "categories": {"M-M40": {"pace": 277000000000, "rank": 68, "distance": 10, "time": 2772.9}}, "day": 24, "month": 4, "livingplace": "Collombey"}}, "location": "Les Mosses"}, "Tour du Chablais #2 Rennaz": {"race": "Tour du Chablais #2 Rennaz", "longitude": 6.854975199999999, "latitude": 46.3835529, "date": {"mer. 04.05.2011": {"weekday": "wednesday", "year": 2011, "categories": {"M-M40": {"pace": 341000000000, "rank": 172, "distance": 9, "time": 3191.1}}, "day": 4, "month": 5, "livingplace": "Collombey"}}, "location": "Bouveret"}}, "name": "Truffer Philippe", "birth": 1968}