{"sex": "M", "races": {"BCN Tour #4 Fleurier": {"race": "BCN Tour #4 Fleurier", "longitude": 6.832783800000001, "latitude": 47.1034892, "date": {"mer. 15.05.2013": {"weekday": "wednesday", "year": 2013, "categories": {"HS1": {"pace": 237000000000, "rank": 9, "distance": 9, "time": 2050.7}}, "day": 15, "month": 5, "livingplace": "Le Paquier"}}, "location": "La Chaux-de-Fonds"}, "BCN Tour La Chaux-de-Fonds": {"race": "BCN Tour La Chaux-de-Fonds", "longitude": 6.832783800000001, "latitude": 47.1034892, "date": {"mer. 11.05.2011": {"weekday": "wednesday", "year": 2011, "categories": {"HS1": {"pace": 290000000000, "rank": 30, "distance": 11, "time": 3108.6}}, "day": 11, "month": 5, "livingplace": "Le Paquier"}, "mer. 23.05.2012": {"weekday": "wednesday", "year": 2012, "categories": {"HS1": {"pace": 254000000000, "rank": 40, "distance": 11, "time": 2749.9}}, "day": 23, "month": 5, "livingplace": "Le Paquier"}}, "location": "La Chaux-de-Fonds"}, "BCN Tour Auvernier": {"race": "BCN Tour Auvernier", "longitude": 6.8589727, "latitude": 46.9668714, "date": {"mer. 20.04.2011": {"weekday": "wednesday", "year": 2011, "categories": {"HS1": {"pace": 255000000000, "rank": 24, "distance": 11, "time": 2762.2}}, "day": 20, "month": 4, "livingplace": "Le Paquier"}}, "location": "Colombier NE"}, "La Trotteuse-Tissot, La Chaux-de-Fonds": {"race": "La Trotteuse-Tissot, La Chaux-de-Fonds", "longitude": 6.832783800000001, "latitude": 47.1034892, "date": {"sam. 08.12.2012": {"weekday": "saturday", "year": 2012, "categories": {"GC-H30": {"pace": 251000000000, "rank": 16, "distance": 8, "time": 2008.3}}, "day": 8, "month": 12, "livingplace": "Le Paquier"}, "sam. 12.12.2015": {"weekday": "saturday", "year": 2015, "categories": {"GC-H30": {"pace": 222000000000, "rank": 13, "distance": 8, "time": 1778.2}}, "day": 12, "month": 12, "livingplace": "Le Paquier"}, "sam. 13.12.2014": {"weekday": "saturday", "year": 2014, "categories": {"GC-H30": {"pace": 233000000000, "rank": 18, "distance": 8, "time": 1864.1}}, "day": 13, "month": 12, "livingplace": "Le Paquier"}, "sam. 18.12.2010": {"weekday": "saturday", "year": 2010, "categories": {"GC-H30": {"pace": 258000000000, "rank": 21, "distance": 8, "time": 2071.0}}, "day": 18, "month": 12, "livingplace": "Le Paquier"}}, "location": "La Chaux-de-Fonds"}, "BCN Tour Les Ponts de Martel": {"race": "BCN Tour Les Ponts de Martel", "longitude": 6.6324944, "latitude": 46.9262933, "date": {"mer. 18.05.2011": {"weekday": "wednesday", "year": 2011, "categories": {"HS1": {"pace": 256000000000, "rank": 26, "distance": 13, "time": 3279.4}}, "day": 18, "month": 5, "livingplace": "Le Paquier"}}, "location": "Couvet"}, "BCN Tour Couvet": {"race": "BCN Tour Couvet", "longitude": 6.9175754, "latitude": 47.0624261, "date": {"mer. 02.05.2012": {"weekday": "wednesday", "year": 2012, "categories": {"HS1": {"pace": 256000000000, "rank": 30, "distance": 11, "time": 2854.9}}, "day": 2, "month": 5, "livingplace": "Le Paquier"}}, "location": "Ch\u00e9zard-St-Martin"}, "BCN Tour Fontaine Cernier": {"race": "BCN Tour Fontaine Cernier", "longitude": 6.9175754, "latitude": 47.0624261, "date": {"mer. 27.04.2011": {"weekday": "wednesday", "year": 2011, "categories": {"HS1": {"pace": 242000000000, "rank": 28, "distance": 10, "time": 2497.7}}, "day": 27, "month": 4, "livingplace": "Le Paquier"}}, "location": "Ch\u00e9zard-St-Martin"}, "BCN Tour #5 Colombier": {"race": "BCN Tour #5 Colombier", "longitude": 6.6324944, "latitude": 46.9262933, "date": {"mer. 22.05.2013": {"weekday": "wednesday", "year": 2013, "categories": {"HS1": {"pace": 222000000000, "rank": 11, "distance": 11, "time": 2338.2}}, "day": 22, "month": 5, "livingplace": "Le Paquier"}}, "location": "Couvet"}, "BCN Tour Neuch\u00e2tel": {"race": "BCN Tour Neuch\u00e2tel", "longitude": 6.9292732, "latitude": 46.9899874, "date": {"mer. 25.05.2011": {"weekday": "wednesday", "year": 2011, "categories": {"HS1": {"pace": 258000000000, "rank": 30, "distance": 11, "time": 2945.0}}, "day": 25, "month": 5, "livingplace": "Le Paquier"}, "mer. 26.05.2010": {"weekday": "wednesday", "year": 2010, "categories": {"HS1": {"pace": 272000000000, "rank": 52, "distance": 10, "time": 2640.2}}, "day": 26, "month": 5, "livingplace": "Le Paquier"}, "mer. 30.05.2012": {"weekday": "wednesday", "year": 2012, "categories": {"HS1": {"pace": 261000000000, "rank": 28, "distance": 11, "time": 2924.9}}, "day": 30, "month": 5, "livingplace": "Le Paquier"}}, "location": "Neuch\u00e2tel"}, "BCN Tour #6 Neuch\u00e2tel": {"race": "BCN Tour #6 Neuch\u00e2tel", "longitude": 6.9292732, "latitude": 46.9899874, "date": {"mer. 29.05.2013": {"weekday": "wednesday", "year": 2013, "categories": {"HS1": {"pace": 242000000000, "rank": 12, "distance": 11, "time": 2662.0}}, "day": 29, "month": 5, "livingplace": "Le Paquier"}}, "location": "Neuch\u00e2tel"}, "BCN Tour Les Ponts-de-Martel": {"race": "BCN Tour Les Ponts-de-Martel", "longitude": 6.733554799999999, "latitude": 46.999113, "date": {"mer. 09.05.2012": {"weekday": "wednesday", "year": 2012, "categories": {"HS1": {"pace": 254000000000, "rank": 36, "distance": 10, "time": 2619.6}}, "day": 9, "month": 5, "livingplace": "Le Paquier"}}, "location": "Les Ponts-de-Martel"}, "Jungfrau-Marathon, Interlaken": {"race": "Jungfrau-Marathon, Interlaken", "date": {"sam. 08.09.2012": {"weekday": "saturday", "year": 2012, "categories": {"SO-M20": {"pace": 387000000000, "rank": 296, "distance": 42, "time": 16348.4}}, "day": 8, "month": 9, "livingplace": "Le Paquier"}}, "location": "Interlaken"}, "BCN Tour Le Locle": {"race": "BCN Tour Le Locle", "longitude": 6.733554799999999, "latitude": 46.999113, "date": {"mer. 05.05.2010": {"weekday": "wednesday", "year": 2010, "categories": {"HS1": {"pace": 249000000000, "rank": 32, "distance": 11, "time": 2714.2}}, "day": 5, "month": 5, "livingplace": "Le Paquier"}}, "location": "Les Ponts-de-Martel"}, "Corrida Bulloise, Bulle": {"race": "Corrida Bulloise, Bulle", "longitude": 7.057726799999999, "latitude": 46.6154512, "date": {"sam. 16.11.2013": {"weekday": "saturday", "year": 2013, "categories": {"M20": {"pace": 232000000000, "rank": 49, "distance": 8, "time": 1890.8}}, "day": 16, "month": 11, "livingplace": "Le Paquier"}, "sam. 21.11.2015": {"weekday": "saturday", "year": 2015, "categories": {"8-M20": {"pace": 222000000000, "rank": 20, "distance": 8, "time": 1810.1}}, "day": 21, "month": 11, "livingplace": "Le Paquier"}}, "location": "Bulle"}, "BCN Tour #3 Dombresson": {"race": "BCN Tour #3 Dombresson", "longitude": 6.733554799999999, "latitude": 46.999113, "date": {"mer. 08.05.2013": {"weekday": "wednesday", "year": 2013, "categories": {"HS1": {"pace": 235000000000, "rank": 17, "distance": 10, "time": 2334.0}}, "day": 8, "month": 5, "livingplace": "Le Paquier"}}, "location": "Les Ponts-de-Martel"}, "BCN Tour #1 Corcelles": {"race": "BCN Tour #1 Corcelles", "longitude": 6.8589727, "latitude": 46.9668714, "date": {"mer. 24.04.2013": {"weekday": "wednesday", "year": 2013, "categories": {"HS1": {"pace": 235000000000, "rank": 11, "distance": 10, "time": 2311.4}}, "day": 24, "month": 4, "livingplace": "Le Paquier"}}, "location": "Colombier NE"}, "BCN Tour M\u00f4tier": {"race": "BCN Tour M\u00f4tier", "longitude": 6.6324944, "latitude": 46.9262933, "date": {"mer. 19.05.2010": {"weekday": "wednesday", "year": 2010, "categories": {"HS1": {"pace": 250000000000, "rank": 45, "distance": 10, "time": 2480.1}}, "day": 19, "month": 5, "livingplace": "Le Paquier"}}, "location": "Couvet"}, "D\u00e9fi Val-de-Travers, Couvet": {"race": "D\u00e9fi Val-de-Travers, Couvet", "longitude": 6.6324944, "latitude": 46.9262933, "date": {"sam. 19.06.2010": {"weekday": "saturday", "year": 2010, "categories": {"21-HSen1": {"pace": 302000000000, "rank": 10, "distance": 20, "time": 5962.0}}, "day": 19, "month": 6, "livingplace": "Le Paquier"}}, "location": "Couvet"}, "Morat-Fribourg": {"race": "Morat-Fribourg", "longitude": 7.120184, "latitude": 46.92922110000001, "date": {"sam. 04.10.2014": {"weekday": "saturday", "year": 2014, "categories": {"17-M20": {"pace": 248000000000, "rank": 152, "distance": 17, "time": 4262.5}}, "day": 4, "month": 10, "livingplace": "Le Paquier"}}, "location": "Murten"}, "BCN Tour Colombier": {"race": "BCN Tour Colombier", "longitude": 6.8589727, "latitude": 46.9668714, "date": {"mer. 16.05.2012": {"weekday": "wednesday", "year": 2012, "categories": {"HS1": {"pace": 249000000000, "rank": 33, "distance": 11, "time": 2693.7}}, "day": 16, "month": 5, "livingplace": "Le Paquier"}, "mer. 21.04.2010": {"weekday": "wednesday", "year": 2010, "categories": {"HS1": {"pace": 298000000000, "rank": 62, "distance": 10, "time": 2984.1}}, "day": 21, "month": 4, "livingplace": "Le Paquier"}}, "location": "Colombier NE"}, "BCN Tour Cornaux": {"race": "BCN Tour Cornaux", "longitude": 6.8589727, "latitude": 46.9668714, "date": {"mer. 25.04.2012": {"weekday": "wednesday", "year": 2012, "categories": {"HS1": {"pace": 266000000000, "rank": 26, "distance": 11, "time": 2929.0}}, "day": 25, "month": 4, "livingplace": "Le Paquier"}}, "location": "Colombier NE"}, "Les Traine-Savates, Cheseaux-sur-Lausanne": {"race": "Les Traine-Savates, Cheseaux-sur-Lausanne", "longitude": 6.6047712, "latitude": 46.585452, "date": {"sam. 12.04.2014": {"weekday": "saturday", "year": 2014, "categories": {"10-M20": {"pace": 233000000000, "rank": 25, "distance": 10, "time": 2405.7}}, "day": 12, "month": 4, "livingplace": "Le Paquier"}}, "location": "Cheseaux-sur-Lausanne"}, "BCN Tour Ponts-de-Martel": {"race": "BCN Tour Ponts-de-Martel", "longitude": 6.9175754, "latitude": 47.0624261, "date": {"mer. 28.04.2010": {"weekday": "wednesday", "year": 2010, "categories": {"HS1": {"pace": 267000000000, "rank": 40, "distance": 11, "time": 2995.6}}, "day": 28, "month": 4, "livingplace": "Le Paquier"}}, "location": "Ch\u00e9zard-St-Martin"}, "BCN Tour #2 La Chaux-de-Fonds": {"race": "BCN Tour #2 La Chaux-de-Fonds", "longitude": 6.9175754, "latitude": 47.0624261, "date": {"mer. 01.05.2013": {"weekday": "wednesday", "year": 2013, "categories": {"HS1": {"pace": 236000000000, "rank": 17, "distance": 11, "time": 2527.8}}, "day": 1, "month": 5, "livingplace": "Le Paquier"}}, "location": "Ch\u00e9zard-St-Martin"}, "Glacier 3000 Run, Gstaad": {"race": "Glacier 3000 Run, Gstaad", "longitude": 7.2865728, "latitude": 46.4717588, "date": {"sam. 09.08.2014": {"weekday": "saturday", "year": 2014, "categories": {"M30": {"pace": 470000000000, "rank": 24, "distance": 26, "time": 12220.1}}, "day": 9, "month": 8, "livingplace": "Le Paquier"}, "sam. 04.08.2012": {"weekday": "saturday", "year": 2012, "categories": {"M30": {"pace": 453000000000, "rank": 28, "distance": 26, "time": 11785.0}}, "day": 4, "month": 8, "livingplace": "Dombresson"}}, "location": "Gstaad"}, "Int  Bieler Cross, Biel-Bienne": {"race": "Int  Bieler Cross, Biel-Bienne", "longitude": 7.2467909, "latitude": 47.1367785, "date": {"dim. 10.11.2013": {"weekday": "sunday", "year": 2013, "categories": {"M30": {"pace": 234000000000, "rank": 5, "distance": 8, "time": 1876.6}}, "day": 10, "month": 11, "livingplace": "Le Paquier"}}, "location": "Biel/Bienne"}, "Lausanne Marathon": {"race": "Lausanne Marathon", "longitude": 6.6322734, "latitude": 46.5196535, "date": {"dim. 26.10.2014": {"weekday": "sunday", "year": 2014, "categories": {"42-H30": {"pace": 284000000000, "rank": 47, "distance": 42, "time": 11993.9}}, "day": 26, "month": 10, "livingplace": "Le Paquier"}, "dim. 28.10.2012": {"weekday": "sunday", "year": 2012, "categories": {"42-H2": {"pace": 283000000000, "rank": 44, "distance": 42, "time": 11981.1}}, "day": 28, "month": 10, "livingplace": "Le Paquier"}}, "location": "Lausanne"}, "BCN Tour La Br\u00e9vine": {"race": "BCN Tour La Br\u00e9vine", "longitude": 6.733554799999999, "latitude": 46.999113, "date": {"mer. 04.05.2011": {"weekday": "wednesday", "year": 2011, "categories": {"HS1": {"pace": 255000000000, "rank": 24, "distance": 10, "time": 2551.5}}, "day": 4, "month": 5, "livingplace": "Le Paquier"}}, "location": "Les Ponts-de-Martel"}, "BCN Tour La Chaux-de-fonds": {"race": "BCN Tour La Chaux-de-fonds", "longitude": 6.832783800000001, "latitude": 47.1034892, "date": {"mer. 12.05.2010": {"weekday": "wednesday", "year": 2010, "categories": {"HS1": {"pace": 324000000000, "rank": 52, "distance": 11, "time": 3476.9}}, "day": 12, "month": 5, "livingplace": "Le Paquier"}}, "location": "La Chaux-de-Fonds"}}, "name": "Truong Pascal", "birth": 1977}