{"sex": "M", "races": {"Hallwilerseelauf, Beinwil am See": {"race": "Hallwilerseelauf, Beinwil am See", "date": {"sam. 15.10.2005": {"weekday": "saturday", "year": 2005, "categories": {"M30": {"pace": 224000000000, "rank": 19, "distance": 21, "time": 4738.6}}, "day": 15, "month": 10, "livingplace": "Zurich"}, "sam. 14.10.2006": {"weekday": "saturday", "year": 2006, "categories": {"M30": {"pace": 228000000000, "rank": 22, "distance": 21, "time": 4825.3}}, "day": 14, "month": 10, "livingplace": "Basel"}}, "location": "Beinwil am See"}, "Birslauf Basel": {"race": "Birslauf Basel", "longitude": 7.5885761, "latitude": 47.5595986, "date": {"sam. 05.04.2008": {"weekday": "saturday", "year": 2008, "categories": {"M": {"pace": 213000000000, "rank": 24, "distance": 10, "time": 2132.8}}, "day": 5, "month": 4, "livingplace": "Basel"}}, "location": "Basel"}, "Int Greifenseelauf, Uster": {"race": "Int Greifenseelauf, Uster", "longitude": 8.717873899999999, "latitude": 47.3482747, "date": {"sam. 17.09.2005": {"weekday": "saturday", "year": 2005, "categories": {"H/M30": {"pace": 238000000000, "rank": 59, "distance": 21, "time": 5031.6}}, "day": 17, "month": 9, "livingplace": "Zurich"}}, "location": "Uster"}, "Pfingstlauf Wohlen AG": {"race": "Pfingstlauf Wohlen AG", "longitude": 8.2768762, "latitude": 47.3493653, "date": {"sam. 03.06.2006": {"weekday": "saturday", "year": 2006, "categories": {"M30": {"pace": 209000000000, "rank": 7, "distance": 8, "time": 1718.5}}, "day": 3, "month": 6, "livingplace": "Basel"}}, "location": "Wohlen AG"}, "ASICS Bremgarter Reusslauf": {"race": "ASICS Bremgarter Reusslauf", "longitude": 8.3397905, "latitude": 47.34917739999999, "date": {"sam. 21.02.2004": {"weekday": "saturday", "year": 2004, "categories": {"11": {"pace": 214000000000, "rank": 41, "distance": 11, "time": 2250.8}}, "day": 21, "month": 2, "livingplace": "Baden"}}, "location": "Bremgarten AG"}, "Z\u00fcrich Marathon, Teamrun und Cityrun": {"race": "Z\u00fcrich Marathon, Teamrun und Cityrun", "longitude": 8.541694, "latitude": 47.3768866, "date": {"dim. 04.04.2004": {"weekday": "sunday", "year": 2004, "categories": {"M30": {"pace": 239000000000, "rank": 66, "distance": 42, "time": 10121.0}}, "day": 4, "month": 4, "livingplace": "Baden"}}, "location": "Z\u00fcrich"}}, "name": "Tylli Niclas", "birth": 1972}