{"sex": "M", "races": {"SwissCityMarathon - Lucerne, Luzern": {"race": "SwissCityMarathon - Lucerne, Luzern", "longitude": 8.3093072, "latitude": 47.05016819999999, "date": {"dim. 26.10.2014": {"weekday": "sunday", "year": 2014, "categories": {"M-M40": {"pace": 365000000000, "rank": 343, "distance": 42, "time": 15408.8}}, "day": 26, "month": 10, "livingplace": "Urdorf"}}, "location": "Luzern"}, "Badener Limmat-Lauf, Baden": {"race": "Badener Limmat-Lauf, Baden", "longitude": 8.5303972, "latitude": 48.5699281, "date": {"sam. 29.03.2014": {"weekday": "saturday", "year": 2014, "categories": {"M40": {"pace": 296000000000, "rank": 134, "distance": 13, "time": 3900.2}}, "day": 29, "month": 3, "livingplace": "Urdorf"}, "sam. 28.03.2015": {"weekday": "saturday", "year": 2015, "categories": {"M50": {"pace": 290000000000, "rank": 63, "distance": 13, "time": 3826.3}}, "day": 28, "month": 3, "livingplace": "Urdorf"}}, "location": "Baden"}, "T\u00fcrlerseelauf Affoltern am Albis": {"race": "T\u00fcrlerseelauf Affoltern am Albis", "longitude": 8.4540083, "latitude": 47.2795081, "date": {"sam. 31.08.2013": {"weekday": "saturday", "year": 2013, "categories": {"C": {"pace": 301000000000, "rank": 83, "distance": 14, "time": 4252.4}}, "day": 31, "month": 8, "livingplace": "Urdorf"}}, "location": "Affoltern am Albis"}, "Z\u00fcrich Marathon, Teamrun und Cityrun": {"race": "Z\u00fcrich Marathon, Teamrun und Cityrun", "longitude": 8.541694, "latitude": 47.3768866, "date": {"dim. 19.04.2015": {"weekday": "sunday", "year": 2015, "categories": {"42-M50": {"pace": 328000000000, "rank": 167, "distance": 42, "time": 13848.7}}, "day": 19, "month": 4, "livingplace": "Urdorf"}}, "location": "Z\u00fcrich"}, "ASICS Bremgarter Reusslauf": {"race": "ASICS Bremgarter Reusslauf", "longitude": 8.3397905, "latitude": 47.34917739999999, "date": {"sam. 25.02.2012": {"weekday": "saturday", "year": 2012, "categories": {"M40": {"pace": 306000000000, "rank": 504, "distance": 11, "time": 3366.6}}, "day": 25, "month": 2, "livingplace": "Ttl"}}, "location": "Bremgarten AG"}, "Aletsch-Halbmarathon, Bettmeralp": {"race": "Aletsch-Halbmarathon, Bettmeralp", "date": {"dim. 26.06.2011": {"weekday": "sunday", "year": 2011, "categories": {"M45": {"pace": 568000000000, "rank": 229, "distance": 21, "time": 11935.6}}, "day": 26, "month": 6, "livingplace": "Urdorf"}}, "location": "Bettmeralp"}}, "name": "Valenti Salvi", "birth": 1965}