{"sex": "M", "races": {"Tour du Chablais #1 Montreux": {"race": "Tour du Chablais #1 Montreux", "longitude": 6.9916269, "latitude": 46.2957462, "date": {"mer. 11.04.2012": {"weekday": "wednesday", "year": 2012, "categories": {"M-M20": {"pace": 337000000000, "rank": 193, "distance": 8, "time": 2561.9}}, "day": 11, "month": 4, "livingplace": "Choex"}}, "location": "Ollon VD"}, "Tour du Chablais #4 Yvorne": {"race": "Tour du Chablais #4 Yvorne", "date": {"mer. 28.04.2010": {"weekday": "wednesday", "year": 2010, "categories": {"M-M20": {"pace": 349000000000, "rank": 188, "distance": 8, "time": 2897.9}}, "day": 28, "month": 4, "livingplace": "Choex"}}, "location": "Les Mosses"}, "Tour du Chablais #5 Leysin": {"race": "Tour du Chablais #5 Leysin", "longitude": 6.931504599999999, "latitude": 46.3603257, "date": {"mer. 05.05.2010": {"weekday": "wednesday", "year": 2010, "categories": {"M-M20": {"pace": 335000000000, "rank": 128, "distance": 8, "time": 2831.3}}, "day": 5, "month": 5, "livingplace": "Choex"}}, "location": "Roche VD"}, "Tour du Chablais #1 Roche": {"race": "Tour du Chablais #1 Roche", "longitude": 6.9916269, "latitude": 46.2957462, "date": {"mer. 07.04.2010": {"weekday": "wednesday", "year": 2010, "categories": {"M-M20": {"pace": 339000000000, "rank": 213, "distance": 9, "time": 3036.3}}, "day": 7, "month": 4, "livingplace": "Choex"}}, "location": "Ollon VD"}, "Tour du Chablais #3 Collombey-Muraz": {"race": "Tour du Chablais #3 Collombey-Muraz", "longitude": 7.0223787, "latitude": 46.1782231, "date": {"mer. 25.04.2012": {"weekday": "wednesday", "year": 2012, "categories": {"M-M20": {"pace": 317000000000, "rank": 181, "distance": 9, "time": 2847.3}}, "day": 25, "month": 4, "livingplace": "Choex"}}, "location": "Evionnaz"}, "Tour du Chablais #2 Bex": {"race": "Tour du Chablais #2 Bex", "longitude": 6.854975199999999, "latitude": 46.3835529, "date": {"mer. 18.04.2012": {"weekday": "wednesday", "year": 2012, "categories": {"M-M20": {"pace": 328000000000, "rank": 198, "distance": 8, "time": 2631.4}}, "day": 18, "month": 4, "livingplace": "Choex"}}, "location": "Bouveret"}, "Tour du Chablais #6 Aigle": {"race": "Tour du Chablais #6 Aigle", "longitude": 6.970566, "latitude": 46.3190253, "date": {"mer. 01.06.2011": {"weekday": "wednesday", "year": 2011, "categories": {"M-M20": {"pace": 305000000000, "rank": 204, "distance": 10, "time": 3111.3}}, "day": 1, "month": 6, "livingplace": "Choex"}}, "location": "Aigle"}, "Tour du Chablais #4 Morgins": {"race": "Tour du Chablais #4 Morgins", "date": {"mer. 18.05.2011": {"weekday": "wednesday", "year": 2011, "categories": {"M-M20": {"pace": 345000000000, "rank": 203, "distance": 8, "time": 2881.7}}, "day": 18, "month": 5, "livingplace": "Choex"}}, "location": "Les Mosses"}, "Tour du Chablais #6 Mouthey": {"race": "Tour du Chablais #6 Mouthey", "longitude": 6.970566, "latitude": 46.3190253, "date": {"mer. 12.05.2010": {"weekday": "wednesday", "year": 2010, "categories": {"M-M20": {"pace": 299000000000, "rank": 188, "distance": 9, "time": 2757.1}}, "day": 12, "month": 5, "livingplace": "Choex"}}, "location": "Aigle"}, "Tour du Chablais #4 Champ\u00e9ry": {"race": "Tour du Chablais #4 Champ\u00e9ry", "date": {"mer. 02.05.2012": {"weekday": "wednesday", "year": 2012, "categories": {"M-M20": {"pace": 328000000000, "rank": 192, "distance": 8, "time": 2723.2}}, "day": 2, "month": 5, "livingplace": "Choex"}}, "location": "Les Mosses"}, "Tour du Chablais #5 Les Mosses": {"race": "Tour du Chablais #5 Les Mosses", "longitude": 6.931504599999999, "latitude": 46.3603257, "date": {"mer. 25.05.2011": {"weekday": "wednesday", "year": 2011, "categories": {"M-M20": {"pace": 369000000000, "rank": 203, "distance": 8, "time": 2953.1}}, "day": 25, "month": 5, "livingplace": "Choex"}}, "location": "Roche VD"}, "Tour du Chablais #1 Lavey": {"race": "Tour du Chablais #1 Lavey", "longitude": 6.9916269, "latitude": 46.2957462, "date": {"mer. 27.04.2011": {"weekday": "wednesday", "year": 2011, "categories": {"M-M20": {"pace": 325000000000, "rank": 221, "distance": 9, "time": 2929.6}}, "day": 27, "month": 4, "livingplace": "Choex"}}, "location": "Ollon VD"}, "Tour du Chablais #3 Le Bouveret": {"race": "Tour du Chablais #3 Le Bouveret", "longitude": 7.0223787, "latitude": 46.1782231, "date": {"mer. 11.05.2011": {"weekday": "wednesday", "year": 2011, "categories": {"M-M20": {"pace": 325000000000, "rank": 235, "distance": 10, "time": 3255.2}}, "day": 11, "month": 5, "livingplace": "Choex"}}, "location": "Evionnaz"}, "Tour du Chablais #2 St-Gingolph": {"race": "Tour du Chablais #2 St-Gingolph", "longitude": 6.854975199999999, "latitude": 46.3835529, "date": {"mer. 14.04.2010": {"weekday": "wednesday", "year": 2010, "categories": {"M-M20": {"pace": 384000000000, "rank": 172, "distance": 8, "time": 3210.0}}, "day": 14, "month": 4, "livingplace": "Choex"}}, "location": "Bouveret"}, "Tour du Chablais #2 Rennaz": {"race": "Tour du Chablais #2 Rennaz", "longitude": 6.854975199999999, "latitude": 46.3835529, "date": {"mer. 04.05.2011": {"weekday": "wednesday", "year": 2011, "categories": {"M-M20": {"pace": 321000000000, "rank": 219, "distance": 9, "time": 3007.0}}, "day": 4, "month": 5, "livingplace": "Choex"}}, "location": "Bouveret"}}, "name": "Varone Eric", "birth": 1973}