{"sex": "F", "races": {"Tour du Chablais #5 Leysin": {"race": "Tour du Chablais #5 Leysin", "longitude": 6.931504599999999, "latitude": 46.3603257, "date": {"mer. 05.05.2010": {"weekday": "wednesday", "year": 2010, "categories": {"F-F20": {"pace": 352000000000, "rank": 53, "distance": 8, "time": 2975.6}}, "day": 5, "month": 5, "livingplace": "La Tour de Peilz"}}, "location": "Roche VD"}, "Tour du Chablais #4 Yvorne": {"race": "Tour du Chablais #4 Yvorne", "date": {"mer. 28.04.2010": {"weekday": "wednesday", "year": 2010, "categories": {"F-F20": {"pace": 342000000000, "rank": 52, "distance": 8, "time": 2837.3}}, "day": 28, "month": 4, "livingplace": "La Tour de Peilz"}}, "location": "Les Mosses"}, "Tour du Chablais #3 Bex": {"race": "Tour du Chablais #3 Bex", "longitude": 7.0223787, "latitude": 46.1782231, "date": {"mer. 21.04.2010": {"weekday": "wednesday", "year": 2010, "categories": {"F-F20": {"pace": 309000000000, "rank": 36, "distance": 10, "time": 3093.4}}, "day": 21, "month": 4, "livingplace": "La Tour de Peilz"}}, "location": "Evionnaz"}, "Tour du Chablais #1 Roche": {"race": "Tour du Chablais #1 Roche", "longitude": 6.9916269, "latitude": 46.2957462, "date": {"mer. 07.04.2010": {"weekday": "wednesday", "year": 2010, "categories": {"F-F20": {"pace": 320000000000, "rank": 63, "distance": 9, "time": 2868.4}}, "day": 7, "month": 4, "livingplace": "La Tour de Peilz"}}, "location": "Ollon VD"}, "Tour du Chablais #2 St-Gingolph": {"race": "Tour du Chablais #2 St-Gingolph", "longitude": 6.854975199999999, "latitude": 46.3835529, "date": {"mer. 14.04.2010": {"weekday": "wednesday", "year": 2010, "categories": {"F-F20": {"pace": 351000000000, "rank": 55, "distance": 8, "time": 2934.1}}, "day": 14, "month": 4, "livingplace": "La Tour de Peilz"}}, "location": "Bouveret"}, "20km de Lausanne": {"race": "20km de Lausanne", "longitude": 6.6322734, "latitude": 46.5196535, "date": {"sam. 24.04.2010": {"weekday": "saturday", "year": 2010, "categories": {"10-F20": {"pace": 323000000000, "rank": 116, "distance": 10, "time": 3236.9}}, "day": 24, "month": 4, "livingplace": "La Tour de Peilz"}, "sam. 25.04.2009": {"weekday": "saturday", "year": 2009, "categories": {"10-F20": {"pace": 347000000000, "rank": 220, "distance": 10, "time": 3475.0}}, "day": 25, "month": 4, "livingplace": "La Tour de Peilz"}}, "location": "Lausanne"}, "Tour du Chablais #6 Mouthey": {"race": "Tour du Chablais #6 Mouthey", "longitude": 6.970566, "latitude": 46.3190253, "date": {"mer. 12.05.2010": {"weekday": "wednesday", "year": 2010, "categories": {"F-F20": {"pace": 302000000000, "rank": 43, "distance": 9, "time": 2781.1}}, "day": 12, "month": 5, "livingplace": "La Tour de Peilz"}}, "location": "Aigle"}}, "name": "Vauthey Cindy", "birth": 1986}