{"sex": "M", "races": {"BCN Tour La Chaux-de-Fonds": {"race": "BCN Tour La Chaux-de-Fonds", "longitude": 6.832783800000001, "latitude": 47.1034892, "date": {"mer. 11.05.2011": {"weekday": "wednesday", "year": 2011, "categories": {"HS2": {"pace": 300000000000, "rank": 46, "distance": 11, "time": 3214.3}}, "day": 11, "month": 5, "livingplace": "Bole"}, "mer. 23.05.2012": {"weekday": "wednesday", "year": 2012, "categories": {"HS2": {"pace": 262000000000, "rank": 45, "distance": 11, "time": 2834.2}}, "day": 23, "month": 5, "livingplace": "Bole"}}, "location": "La Chaux-de-Fonds"}, "BCN Tour Auvernier": {"race": "BCN Tour Auvernier", "longitude": 6.8589727, "latitude": 46.9668714, "date": {"mer. 20.04.2011": {"weekday": "wednesday", "year": 2011, "categories": {"HS2": {"pace": 266000000000, "rank": 42, "distance": 11, "time": 2876.7}}, "day": 20, "month": 4, "livingplace": "Bole"}}, "location": "Colombier NE"}, "BCN Tour Colombier": {"race": "BCN Tour Colombier", "longitude": 6.8589727, "latitude": 46.9668714, "date": {"mer. 21.04.2010": {"weekday": "wednesday", "year": 2010, "categories": {"HS2": {"pace": 290000000000, "rank": 56, "distance": 10, "time": 2900.0}}, "day": 21, "month": 4, "livingplace": "Bole"}, "mer. 16.05.2012": {"weekday": "wednesday", "year": 2012, "categories": {"HS2": {"pace": 256000000000, "rank": 41, "distance": 11, "time": 2770.3}}, "day": 16, "month": 5, "livingplace": "Bole"}, "mer. 23.04.2008": {"weekday": "wednesday", "year": 2008, "categories": {"HS1": {"pace": 273000000000, "rank": 49, "distance": 10, "time": 2785.0}}, "day": 23, "month": 4, "livingplace": "Marti sports\"  1\""}}, "location": "Colombier NE"}, "Morat-Fribourg": {"race": "Morat-Fribourg", "longitude": 7.120184, "latitude": 46.92922110000001, "date": {"dim. 05.10.2003": {"weekday": "sunday", "year": 2003, "categories": {"M20": {"pace": 292000000000, "rank": 1087, "distance": 17, "time": 5018.4}}, "day": 5, "month": 10, "livingplace": "Bole"}}, "location": "Murten"}, "Kerzerslauf": {"race": "Kerzerslauf", "longitude": 7.1954365, "latitude": 46.97488999999999, "date": {"sam. 20.03.2004": {"weekday": "saturday", "year": 2004, "categories": {"M20": {"pace": 280000000000, "rank": 340, "distance": 15, "time": 4206.0}}, "day": 20, "month": 3, "livingplace": "Bole"}}, "location": "Kerzers"}, "20km de Lausanne": {"race": "20km de Lausanne", "longitude": 6.6322734, "latitude": 46.5196535, "date": {"sam. 24.04.2010": {"weekday": "saturday", "year": 2010, "categories": {"20-H40": {"pace": 261000000000, "rank": 57, "distance": 20, "time": 5233.0}}, "day": 24, "month": 4, "livingplace": "Bole"}, "sam. 25.04.2009": {"weekday": "saturday", "year": 2009, "categories": {"20-H30": {"pace": 261000000000, "rank": 124, "distance": 20, "time": 5220.1}}, "day": 25, "month": 4, "livingplace": "Bole"}, "sam. 25.04.2015": {"weekday": "saturday", "year": 2015, "categories": {"20-H45": {"pace": 266000000000, "rank": 86, "distance": 20, "time": 5322.0}}, "day": 25, "month": 4, "livingplace": "Meneurs d'allure"}, "sam. 28.04.2012": {"weekday": "saturday", "year": 2012, "categories": {"20-H40": {"pace": 298000000000, "rank": 180, "distance": 20, "time": 5962.5}}, "day": 28, "month": 4, "livingplace": "Meneurs d'allure"}, "sam. 26.04.2014": {"weekday": "saturday", "year": 2014, "categories": {"20-H40": {"pace": 296000000000, "rank": 221, "distance": 20, "time": 5939.6}}, "day": 26, "month": 4, "livingplace": "Meneur d'allure 20 km"}}, "location": "Lausanne"}, "BCN Tour Neuch\u00e2tel": {"race": "BCN Tour Neuch\u00e2tel", "longitude": 6.9292732, "latitude": 46.9899874, "date": {"mer. 25.05.2011": {"weekday": "wednesday", "year": 2011, "categories": {"HS2": {"pace": 269000000000, "rank": 45, "distance": 11, "time": 3068.3}}, "day": 25, "month": 5, "livingplace": "Bole"}, "mer. 26.05.2010": {"weekday": "wednesday", "year": 2010, "categories": {"HS2": {"pace": 277000000000, "rank": 45, "distance": 10, "time": 2688.3}}, "day": 26, "month": 5, "livingplace": "Bole"}, "mer. 30.05.2012": {"weekday": "wednesday", "year": 2012, "categories": {"HS2": {"pace": 263000000000, "rank": 32, "distance": 11, "time": 2950.5}}, "day": 30, "month": 5, "livingplace": "Bole"}}, "location": "Neuch\u00e2tel"}, "Grand Prix Craft, Neuch\u00e2tel": {"race": "Grand Prix Craft, Neuch\u00e2tel", "longitude": 6.9292732, "latitude": 46.9899874, "date": {"dim. 16.12.2007": {"weekday": "sunday", "year": 2007, "categories": {"HS1": {"pace": 238000000000, "rank": 32, "distance": 7, "time": 1668.8}}, "day": 16, "month": 12, "livingplace": "Bole"}}, "location": "Neuch\u00e2tel"}, "BCN Tour Les Ponts-de-Martel": {"race": "BCN Tour Les Ponts-de-Martel", "longitude": 6.733554799999999, "latitude": 46.999113, "date": {"mer. 09.05.2012": {"weekday": "wednesday", "year": 2012, "categories": {"HS2": {"pace": 259000000000, "rank": 32, "distance": 10, "time": 2670.7}}, "day": 9, "month": 5, "livingplace": "Bole"}}, "location": "Les Ponts-de-Martel"}, "Jungfrau-Marathon, Interlaken": {"race": "Jungfrau-Marathon, Interlaken", "date": {"sam. 09.09.2006": {"weekday": "saturday", "year": 2006, "categories": {"M20": {"pace": 452000000000, "rank": 602, "distance": 42, "time": 19097.6}}, "day": 9, "month": 9, "livingplace": "Bole"}}, "location": "Interlaken"}, "BCN Tour Le Locle": {"race": "BCN Tour Le Locle", "longitude": 6.733554799999999, "latitude": 46.999113, "date": {"mer. 05.05.2010": {"weekday": "wednesday", "year": 2010, "categories": {"HS2": {"pace": 260000000000, "rank": 43, "distance": 11, "time": 2839.8}}, "day": 5, "month": 5, "livingplace": "Bole"}}, "location": "Les Ponts-de-Martel"}, "BCN Tour Les Ponts de Martel": {"race": "BCN Tour Les Ponts de Martel", "longitude": 6.6324944, "latitude": 46.9262933, "date": {"mer. 18.05.2011": {"weekday": "wednesday", "year": 2011, "categories": {"HS2": {"pace": 277000000000, "rank": 53, "distance": 13, "time": 3546.4}}, "day": 18, "month": 5, "livingplace": "Bole"}}, "location": "Couvet"}, "BCN Tour M\u00f4tier": {"race": "BCN Tour M\u00f4tier", "longitude": 6.6324944, "latitude": 46.9262933, "date": {"mer. 19.05.2010": {"weekday": "wednesday", "year": 2010, "categories": {"HS2": {"pace": 250000000000, "rank": 36, "distance": 10, "time": 2478.2}}, "day": 19, "month": 5, "livingplace": "Bole"}}, "location": "Couvet"}, "BCN Tour Ponts-de-Martel": {"race": "BCN Tour Ponts-de-Martel", "longitude": 6.9175754, "latitude": 47.0624261, "date": {"mer. 28.04.2010": {"weekday": "wednesday", "year": 2010, "categories": {"HS2": {"pace": 265000000000, "rank": 42, "distance": 11, "time": 2976.9}}, "day": 28, "month": 4, "livingplace": "Bole"}}, "location": "Ch\u00e9zard-St-Martin"}, "BCN Tour Couvet": {"race": "BCN Tour Couvet", "longitude": 6.9175754, "latitude": 47.0624261, "date": {"mer. 02.05.2012": {"weekday": "wednesday", "year": 2012, "categories": {"HS2": {"pace": 270000000000, "rank": 51, "distance": 11, "time": 3012.4}}, "day": 2, "month": 5, "livingplace": "Bole"}}, "location": "Ch\u00e9zard-St-Martin"}, "BCN Tour Cornaux": {"race": "BCN Tour Cornaux", "longitude": 6.8589727, "latitude": 46.9668714, "date": {"mer. 25.04.2012": {"weekday": "wednesday", "year": 2012, "categories": {"HS2": {"pace": 283000000000, "rank": 37, "distance": 11, "time": 3121.7}}, "day": 25, "month": 4, "livingplace": "Bole"}}, "location": "Colombier NE"}, "BCN Tour La Br\u00e9vine": {"race": "BCN Tour La Br\u00e9vine", "longitude": 6.733554799999999, "latitude": 46.999113, "date": {"mer. 04.05.2011": {"weekday": "wednesday", "year": 2011, "categories": {"HS2": {"pace": 298000000000, "rank": 114, "distance": 10, "time": 2989.9}}, "day": 4, "month": 5, "livingplace": "Bole"}}, "location": "Les Ponts-de-Martel"}, "D\u00e9fi Val-de-Travers, Couvet": {"race": "D\u00e9fi Val-de-Travers, Couvet", "longitude": 6.6324944, "latitude": 46.9262933, "date": {"sam. 21.06.2008": {"weekday": "saturday", "year": 2008, "categories": {"MHS1": {"pace": 348000000000, "rank": 9, "distance": 41, "time": 14359.2}}, "day": 21, "month": 6, "livingplace": "Bole"}, "sam. 20.06.2009": {"weekday": "saturday", "year": 2009, "categories": {"SHS1": {"pace": 291000000000, "rank": 11, "distance": 20, "time": 5751.0}}, "day": 20, "month": 6, "livingplace": "Bole"}}, "location": "Couvet"}, "BCN Tour Le Landeron": {"race": "BCN Tour Le Landeron", "longitude": 6.8589727, "latitude": 46.9668714, "date": {"mer. 22.04.2009": {"weekday": "wednesday", "year": 2009, "categories": {"HS1": {"pace": 266000000000, "rank": 59, "distance": 11, "time": 2957.5}}, "day": 22, "month": 4, "livingplace": "Marti Sports 1"}}, "location": "Colombier NE"}, "Lausanne Marathon": {"race": "Lausanne Marathon", "longitude": 6.6322734, "latitude": 46.5196535, "date": {"dim. 26.10.2014": {"weekday": "sunday", "year": 2014, "categories": {"21-H40": {"pace": 258000000000, "rank": 57, "distance": 21, "time": 5449.1}}, "day": 26, "month": 10, "livingplace": "Bole"}, "sam. 24.10.2015": {"weekday": "saturday", "year": 2015, "categories": {"21-H40": {"pace": 276000000000, "rank": 126, "distance": 21, "time": 5825.3}}, "day": 24, "month": 10, "livingplace": "Bole"}, "dim. 27.10.2013": {"weekday": "sunday", "year": 2013, "categories": {"21-H3": {"pace": 309000000000, "rank": 418, "distance": 21, "time": 6526.0}}, "day": 27, "month": 10, "livingplace": "Bole"}}, "location": "Lausanne"}, "BCN Tour Fontaine Cernier": {"race": "BCN Tour Fontaine Cernier", "longitude": 6.9175754, "latitude": 47.0624261, "date": {"mer. 27.04.2011": {"weekday": "wednesday", "year": 2011, "categories": {"HS2": {"pace": 257000000000, "rank": 48, "distance": 10, "time": 2649.4}}, "day": 27, "month": 4, "livingplace": "Bole"}}, "location": "Ch\u00e9zard-St-Martin"}, "BCN Tour La Chaux-de-fonds": {"race": "BCN Tour La Chaux-de-fonds", "longitude": 6.832783800000001, "latitude": 47.1034892, "date": {"mer. 12.05.2010": {"weekday": "wednesday", "year": 2010, "categories": {"HS2": {"pace": 491000000000, "rank": 285, "distance": 11, "time": 5259.2}}, "day": 12, "month": 5, "livingplace": "Bole"}}, "location": "La Chaux-de-Fonds"}}, "name": "Veloso Jos\u00e9", "birth": 1970}