{"sex": "F", "races": {"Corrida Bulloise, Bulle": {"race": "Corrida Bulloise, Bulle", "longitude": 7.057726799999999, "latitude": 46.6154512, "date": {"sam. 15.11.2014": {"weekday": "saturday", "year": 2014, "categories": {"6-F40": {"pace": 372000000000, "rank": 94, "distance": 6, "time": 2292.4}}, "day": 15, "month": 11, "livingplace": "Monthey"}}, "location": "Bulle"}, "Tour du Chablais #3 Bouveret": {"race": "Tour du Chablais #3 Bouveret", "longitude": 7.0223787, "latitude": 46.1782231, "date": {"mer. 17.04.2013": {"weekday": "wednesday", "year": 2013, "categories": {"F-F40": {"pace": 382000000000, "rank": 77, "distance": 10, "time": 3827.0}}, "day": 17, "month": 4, "livingplace": "Monthey"}}, "location": "Evionnaz"}, "Tour du Chablais #6 Monthey": {"race": "Tour du Chablais #6 Monthey", "longitude": 6.970566, "latitude": 46.3190253, "date": {"mer. 08.05.2013": {"weekday": "wednesday", "year": 2013, "categories": {"F-F40": {"pace": 370000000000, "rank": 79, "distance": 9, "time": 3450.9}}, "day": 8, "month": 5, "livingplace": "Monthey"}}, "location": "Aigle"}, "Tour du Chablais #5 Morgins": {"race": "Tour du Chablais #5 Morgins", "longitude": 6.931504599999999, "latitude": 46.3603257, "date": {"mer. 01.05.2013": {"weekday": "wednesday", "year": 2013, "categories": {"F-F40": {"pace": 402000000000, "rank": 51, "distance": 8, "time": 3055.6}}, "day": 1, "month": 5, "livingplace": "Monthey"}}, "location": "Roche VD"}, "Tour du Chablais #4 St  Maurice": {"race": "Tour du Chablais #4 St  Maurice", "date": {"mer. 24.04.2013": {"weekday": "wednesday", "year": 2013, "categories": {"F-F40": {"pace": 373000000000, "rank": 66, "distance": 10, "time": 3735.1}}, "day": 24, "month": 4, "livingplace": "Monthey"}}, "location": "Les Mosses"}, "Morat-Fribourg": {"race": "Morat-Fribourg", "longitude": 7.120184, "latitude": 46.92922110000001, "date": {"sam. 05.10.2013": {"weekday": "saturday", "year": 2013, "categories": {"17-W45": {"pace": 425000000000, "rank": 272, "distance": 17, "time": 7416.7}}, "day": 5, "month": 10, "livingplace": "Monthey"}}, "location": "Murten"}, "La Montheysanne, Monthey": {"race": "La Montheysanne, Monthey", "longitude": 6.9469598, "latitude": 46.2521873, "date": {"dim. 23.08.2015": {"weekday": "sunday", "year": 2015, "categories": {"5-DA3": {"pace": 382000000000, "rank": 20, "distance": 5, "time": 1912.1}}, "day": 23, "month": 8, "livingplace": "Monthey"}}, "location": "Monthey"}}, "name": "Vernaz Nathalie", "birth": 1965}