{"sex": "M", "races": {"Course de l'Escalade, Gen\u00e8ve": {"race": "Course de l'Escalade, Gen\u00e8ve", "longitude": 6.1431577, "latitude": 46.2043907, "date": {"sam. 05.12.2009": {"weekday": "saturday", "year": 2009, "categories": {"Jun H": {"pace": 236000000000, "rank": 29, "distance": 7, "time": 1718.2}}, "day": 5, "month": 12, "livingplace": "Bex"}, "sam. 06.12.2014": {"weekday": "saturday", "year": 2014, "categories": {"Elite-M": {"pace": 222000000000, "rank": 153, "distance": 7, "time": 1632.7}}, "day": 6, "month": 12, "livingplace": "Bex"}}, "location": "Gen\u00e8ve"}, "Tour du Chablais #5 Leysin": {"race": "Tour du Chablais #5 Leysin", "longitude": 6.931504599999999, "latitude": 46.3603257, "date": {"mer. 05.05.2010": {"weekday": "wednesday", "year": 2010, "categories": {"M-Jun": {"pace": 245000000000, "rank": 2, "distance": 8, "time": 2077.4}}, "day": 5, "month": 5, "livingplace": "Bex"}}, "location": "Roche VD"}, "Course p\u00e9destre Thyon-Dixence, Thyon": {"race": "Course p\u00e9destre Thyon-Dixence, Thyon", "date": {"dim. 02.08.2015": {"weekday": "sunday", "year": 2015, "categories": {"HomElite": {"pace": 342000000000, "rank": 34, "distance": 16, "time": 5595.0}}, "day": 2, "month": 8, "livingplace": "Bex"}}, "location": "Thyon-Les Collons"}, "Tour du Chablais #6 Monthey": {"race": "Tour du Chablais #6 Monthey", "longitude": 6.970566, "latitude": 46.3190253, "date": {"mer. 08.05.2013": {"weekday": "wednesday", "year": 2013, "categories": {"M-M20": {"pace": 225000000000, "rank": 23, "distance": 9, "time": 2101.0}}, "day": 8, "month": 5, "livingplace": "Bex"}}, "location": "Aigle"}, "Tour du Chablais #4 Yvorne": {"race": "Tour du Chablais #4 Yvorne", "date": {"mer. 28.04.2010": {"weekday": "wednesday", "year": 2010, "categories": {"M-Jun": {"pace": 229000000000, "rank": 2, "distance": 8, "time": 1902.3}}, "day": 28, "month": 4, "livingplace": "Bex"}}, "location": "Les Mosses"}, "Tour du Chablais #1 Roche": {"race": "Tour du Chablais #1 Roche", "longitude": 6.9916269, "latitude": 46.2957462, "date": {"mer. 07.04.2010": {"weekday": "wednesday", "year": 2010, "categories": {"M-Jun": {"pace": 219000000000, "rank": 3, "distance": 9, "time": 1966.4}}, "day": 7, "month": 4, "livingplace": "Bex"}}, "location": "Ollon VD"}, "20km de Lausanne": {"race": "20km de Lausanne", "longitude": 6.6322734, "latitude": 46.5196535, "date": {"sam. 25.04.2015": {"weekday": "saturday", "year": 2015, "categories": {"20-H20": {"pace": 224000000000, "rank": 21, "distance": 20, "time": 4495.2}}, "day": 25, "month": 4, "livingplace": "Oerlikon"}}, "location": "Lausanne"}, "Tour du Chablais #2 St-Gingolph": {"race": "Tour du Chablais #2 St-Gingolph", "longitude": 6.854975199999999, "latitude": 46.3835529, "date": {"mer. 14.04.2010": {"weekday": "wednesday", "year": 2010, "categories": {"M-Jun": {"pace": 237000000000, "rank": 4, "distance": 8, "time": 1982.8}}, "day": 14, "month": 4, "livingplace": "Bex"}}, "location": "Bouveret"}, "Dreil\u00e4nder-Lauf, Basel": {"race": "Dreil\u00e4nder-Lauf, Basel", "longitude": 7.5885761, "latitude": 47.5595986, "date": {"dim. 25.05.2014": {"weekday": "sunday", "year": 2014, "categories": {"10M20": {"pace": 214000000000, "rank": 2, "distance": 10, "time": 2166.5}}, "day": 25, "month": 5, "livingplace": "Bex"}}, "location": "Basel"}, "Tour du Chablais #3 Bex": {"race": "Tour du Chablais #3 Bex", "longitude": 7.0223787, "latitude": 46.1782231, "date": {"mer. 21.04.2010": {"weekday": "wednesday", "year": 2010, "categories": {"M-Jun": {"pace": 224000000000, "rank": 5, "distance": 10, "time": 2241.6}}, "day": 21, "month": 4, "livingplace": "Bex"}}, "location": "Evionnaz"}, "Course de l'Avent, Fribourg": {"race": "Course de l'Avent, Fribourg", "longitude": 7.161971899999999, "latitude": 46.8064773, "date": {"dim. 23.11.2014": {"weekday": "sunday", "year": 2014, "categories": {"E-H20": {"pace": 218000000000, "rank": 1, "distance": 7, "time": 1616.5}}, "day": 23, "month": 11, "livingplace": "Bex"}}, "location": "Fribourg"}, "Lausanne Marathon": {"race": "Lausanne Marathon", "longitude": 6.6322734, "latitude": 46.5196535, "date": {"dim. 26.10.2014": {"weekday": "sunday", "year": 2014, "categories": {"10-H20": {"pace": 212000000000, "rank": 21, "distance": 10, "time": 2121.6}}, "day": 26, "month": 10, "livingplace": "Bex"}, "sam. 24.10.2015": {"weekday": "saturday", "year": 2015, "categories": {"21-H20": {"pace": 235000000000, "rank": 23, "distance": 21, "time": 4963.9}}, "day": 24, "month": 10, "livingplace": "Bex"}, "dim. 27.10.2013": {"weekday": "sunday", "year": 2013, "categories": {"10-H1": {"pace": 219000000000, "rank": 36, "distance": 10, "time": 2196.6}}, "day": 27, "month": 10, "livingplace": "Bex"}, "dim. 30.10.2011": {"weekday": "sunday", "year": 2011, "categories": {"10-H1": {"pace": 219000000000, "rank": 24, "distance": 10, "time": 2198.3}}, "day": 30, "month": 10, "livingplace": "Bex"}}, "location": "Lausanne"}, "Tour du Chablais #6 Mouthey": {"race": "Tour du Chablais #6 Mouthey", "longitude": 6.970566, "latitude": 46.3190253, "date": {"mer. 12.05.2010": {"weekday": "wednesday", "year": 2010, "categories": {"M-Jun": {"pace": 212000000000, "rank": 2, "distance": 9, "time": 1958.5}}, "day": 12, "month": 5, "livingplace": "Bex"}}, "location": "Aigle"}, "Les Traine-Savates, Cheseaux-sur-Lausanne": {"race": "Les Traine-Savates, Cheseaux-sur-Lausanne", "longitude": 6.6047712, "latitude": 46.585452, "date": {"sam. 18.04.2015": {"weekday": "saturday", "year": 2015, "categories": {"10-M20": {"pace": 219000000000, "rank": 16, "distance": 10, "time": 2265.9}}, "day": 18, "month": 4, "livingplace": "Bex"}}, "location": "Cheseaux-sur-Lausanne"}}, "name": "Vetterli Samir", "birth": 1991}