{"sex": "M", "races": {"Tour du Chablais #5 Leysin": {"race": "Tour du Chablais #5 Leysin", "longitude": 6.931504599999999, "latitude": 46.3603257, "date": {"mer. 05.05.2010": {"weekday": "wednesday", "year": 2010, "categories": {"M-M20": {"pace": 247000000000, "rank": 24, "distance": 8, "time": 2095.1}}, "day": 5, "month": 5, "livingplace": "Torgon"}}, "location": "Roche VD"}, "Tour du Chablais #1 Lavey": {"race": "Tour du Chablais #1 Lavey", "longitude": 6.9916269, "latitude": 46.2957462, "date": {"mer. 27.04.2011": {"weekday": "wednesday", "year": 2011, "categories": {"M-M20": {"pace": 240000000000, "rank": 44, "distance": 9, "time": 2161.3}}, "day": 27, "month": 4, "livingplace": "Torgon"}}, "location": "Ollon VD"}, "Tour du Chablais #4 Yvorne": {"race": "Tour du Chablais #4 Yvorne", "date": {"mer. 28.04.2010": {"weekday": "wednesday", "year": 2010, "categories": {"M-M20": {"pace": 235000000000, "rank": 16, "distance": 8, "time": 1947.5}}, "day": 28, "month": 4, "livingplace": "Torgon"}}, "location": "Les Mosses"}, "D\u00e9fi Val-de-Travers, Couvet": {"race": "D\u00e9fi Val-de-Travers, Couvet", "longitude": 6.6324944, "latitude": 46.9262933, "date": {"sam. 19.06.2010": {"weekday": "saturday", "year": 2010, "categories": {"75-Hom": {"pace": 429000000000, "rank": 2, "distance": 75, "time": 32177.6}}, "day": 19, "month": 6, "livingplace": "Torgon"}}, "location": "Couvet"}, "Tour du Chablais #1 Roche": {"race": "Tour du Chablais #1 Roche", "longitude": 6.9916269, "latitude": 46.2957462, "date": {"mer. 07.04.2010": {"weekday": "wednesday", "year": 2010, "categories": {"M-M20": {"pace": 224000000000, "rank": 26, "distance": 9, "time": 2010.5}}, "day": 7, "month": 4, "livingplace": "Torgon"}}, "location": "Ollon VD"}, "Tour du Chablais #2 St-Gingolph": {"race": "Tour du Chablais #2 St-Gingolph", "longitude": 6.854975199999999, "latitude": 46.3835529, "date": {"mer. 14.04.2010": {"weekday": "wednesday", "year": 2010, "categories": {"M-M20": {"pace": 240000000000, "rank": 22, "distance": 8, "time": 2006.2}}, "day": 14, "month": 4, "livingplace": "Torgon"}}, "location": "Bouveret"}, "Tour du Chablais #6 Aigle": {"race": "Tour du Chablais #6 Aigle", "longitude": 6.970566, "latitude": 46.3190253, "date": {"mer. 01.06.2011": {"weekday": "wednesday", "year": 2011, "categories": {"M-M20": {"pace": 252000000000, "rank": 90, "distance": 10, "time": 2579.6}}, "day": 1, "month": 6, "livingplace": "Torgon"}}, "location": "Aigle"}, "Tour du Chablais #4 Morgins": {"race": "Tour du Chablais #4 Morgins", "date": {"mer. 18.05.2011": {"weekday": "wednesday", "year": 2011, "categories": {"M-M20": {"pace": 247000000000, "rank": 33, "distance": 8, "time": 2064.2}}, "day": 18, "month": 5, "livingplace": "Torgon"}}, "location": "Les Mosses"}, "Tour du Chablais #2 Rennaz": {"race": "Tour du Chablais #2 Rennaz", "longitude": 6.854975199999999, "latitude": 46.3835529, "date": {"mer. 04.05.2011": {"weekday": "wednesday", "year": 2011, "categories": {"M-M20": {"pace": 240000000000, "rank": 48, "distance": 9, "time": 2248.8}}, "day": 4, "month": 5, "livingplace": "Torgon"}}, "location": "Bouveret"}}, "name": "Voeffray Julien", "birth": 1981}