{"sex": "F", "races": {"Tour du Chablais #1 Montreux": {"race": "Tour du Chablais #1 Montreux", "longitude": 6.9916269, "latitude": 46.2957462, "date": {"mer. 11.04.2012": {"weekday": "wednesday", "year": 2012, "categories": {"F-F40": {"pace": 314000000000, "rank": 17, "distance": 8, "time": 2389.1}}, "day": 11, "month": 4, "livingplace": "Vouvry"}}, "location": "Ollon VD"}, "Tour du Chablais #4 Champ\u00e9ry": {"race": "Tour du Chablais #4 Champ\u00e9ry", "date": {"mer. 02.05.2012": {"weekday": "wednesday", "year": 2012, "categories": {"F-F40": {"pace": 296000000000, "rank": 15, "distance": 8, "time": 2457.4}}, "day": 2, "month": 5, "livingplace": "Miex"}}, "location": "Les Mosses"}, "Tour du Chablais #2 Bex": {"race": "Tour du Chablais #2 Bex", "longitude": 6.854975199999999, "latitude": 46.3835529, "date": {"mer. 18.04.2012": {"weekday": "wednesday", "year": 2012, "categories": {"F-F40": {"pace": 297000000000, "rank": 16, "distance": 8, "time": 2379.4}}, "day": 18, "month": 4, "livingplace": "Vouvry"}}, "location": "Bouveret"}, "Tour du Chablais #3 Collombey-Muraz": {"race": "Tour du Chablais #3 Collombey-Muraz", "longitude": 7.0223787, "latitude": 46.1782231, "date": {"mer. 25.04.2012": {"weekday": "wednesday", "year": 2012, "categories": {"F-F40": {"pace": 288000000000, "rank": 13, "distance": 9, "time": 2587.2}}, "day": 25, "month": 4, "livingplace": "Miex"}}, "location": "Evionnaz"}, "Tour du Chablais #5 Bex": {"race": "Tour du Chablais #5 Bex", "longitude": 6.931504599999999, "latitude": 46.3603257, "date": {"mer. 09.05.2012": {"weekday": "wednesday", "year": 2012, "categories": {"F-F40": {"pace": 276000000000, "rank": 12, "distance": 9, "time": 2452.3}}, "day": 9, "month": 5, "livingplace": "Miex"}}, "location": "Roche VD"}, "20km de Lausanne": {"race": "20km de Lausanne", "longitude": 6.6322734, "latitude": 46.5196535, "date": {"sam. 28.04.2012": {"weekday": "saturday", "year": 2012, "categories": {"10-F40": {"pace": 326000000000, "rank": 61, "distance": 10, "time": 3261.3}}, "day": 28, "month": 4, "livingplace": "Vouvry"}}, "location": "Lausanne"}}, "name": "Vogel Regula", "birth": 1970}