{"sex": "M", "races": {"BCN Tour #3 Dombresson": {"race": "BCN Tour #3 Dombresson", "longitude": 6.733554799999999, "latitude": 46.999113, "date": {"mer. 08.05.2013": {"weekday": "wednesday", "year": 2013, "categories": {"HS2": {"pace": 278000000000, "rank": 110, "distance": 10, "time": 2761.8}}, "day": 8, "month": 5, "livingplace": "Chezard St Martin"}}, "location": "Les Ponts-de-Martel"}, "BCN Tour M\u00f4tier": {"race": "BCN Tour M\u00f4tier", "longitude": 6.6324944, "latitude": 46.9262933, "date": {"mer. 19.05.2010": {"weekday": "wednesday", "year": 2010, "categories": {"HS1": {"pace": 267000000000, "rank": 76, "distance": 10, "time": 2652.2}}, "day": 19, "month": 5, "livingplace": "Chezard St Martin"}}, "location": "Couvet"}, "BCN Tour Auvernier": {"race": "BCN Tour Auvernier", "longitude": 6.8589727, "latitude": 46.9668714, "date": {"mer. 20.04.2011": {"weekday": "wednesday", "year": 2011, "categories": {"HS1": {"pace": 291000000000, "rank": 92, "distance": 11, "time": 3148.9}}, "day": 20, "month": 4, "livingplace": "Chezard St Martin"}}, "location": "Colombier NE"}, "La Trotteuse-Tissot, La Chaux-de-Fonds": {"race": "La Trotteuse-Tissot, La Chaux-de-Fonds", "longitude": 6.832783800000001, "latitude": 47.1034892, "date": {"sam. 08.12.2012": {"weekday": "saturday", "year": 2012, "categories": {"GC-H40": {"pace": 285000000000, "rank": 47, "distance": 8, "time": 2284.3}}, "day": 8, "month": 12, "livingplace": "Chezard St Martin"}, "sam. 12.12.2015": {"weekday": "saturday", "year": 2015, "categories": {"GC-H40": {"pace": 251000000000, "rank": 37, "distance": 8, "time": 2013.9}}, "day": 12, "month": 12, "livingplace": "Cernier"}, "sam. 18.12.2010": {"weekday": "saturday", "year": 2010, "categories": {"GC-H30": {"pace": 270000000000, "rank": 38, "distance": 8, "time": 2166.7}}, "day": 18, "month": 12, "livingplace": "Chezard St Martin"}}, "location": "La Chaux-de-Fonds"}, "Groupe E Tour Fribourg #5, Givisiez": {"race": "Groupe E Tour Fribourg #5, Givisiez", "longitude": 7.131657799999999, "latitude": 46.8128615, "date": {"mer. 17.09.2014": {"weekday": "wednesday", "year": 2014, "categories": {"H-Sen2": {"pace": 271000000000, "rank": 12, "distance": 10, "time": 2784.6}}, "day": 17, "month": 9, "livingplace": "Chezard St Martin"}}, "location": "Givisiez"}, "D\u00e9fi Val-de-Travers, Couvet": {"race": "D\u00e9fi Val-de-Travers, Couvet", "longitude": 6.6324944, "latitude": 46.9262933, "date": {"sam. 21.06.2008": {"weekday": "saturday", "year": 2008, "categories": {"SHS1": {"pace": 347000000000, "rank": 12, "distance": 20, "time": 6851.0}}, "day": 21, "month": 6, "livingplace": "Chezard St Martin"}, "sam. 20.06.2009": {"weekday": "saturday", "year": 2009, "categories": {"SHS1": {"pace": 306000000000, "rank": 15, "distance": 20, "time": 6032.4}}, "day": 20, "month": 6, "livingplace": "Chezard St Martin"}, "sam. 19.06.2010": {"weekday": "saturday", "year": 2010, "categories": {"21-HSen1": {"pace": 324000000000, "rank": 15, "distance": 20, "time": 6388.4}}, "day": 19, "month": 6, "livingplace": "Chezard St Martin"}}, "location": "Couvet"}, "BCN Tour Fontaine Cernier": {"race": "BCN Tour Fontaine Cernier", "longitude": 6.9175754, "latitude": 47.0624261, "date": {"mer. 27.04.2011": {"weekday": "wednesday", "year": 2011, "categories": {"HS1": {"pace": 261000000000, "rank": 75, "distance": 10, "time": 2697.2}}, "day": 27, "month": 4, "livingplace": "Chezard St Martin"}}, "location": "Ch\u00e9zard-St-Martin"}, "BCN Tour Cornaux": {"race": "BCN Tour Cornaux", "longitude": 6.8589727, "latitude": 46.9668714, "date": {"mer. 25.04.2012": {"weekday": "wednesday", "year": 2012, "categories": {"HS2": {"pace": 309000000000, "rank": 79, "distance": 11, "time": 3398.7}}, "day": 25, "month": 4, "livingplace": "Chezard St Martin"}}, "location": "Colombier NE"}, "BCN Tour Couvet": {"race": "BCN Tour Couvet", "longitude": 6.9175754, "latitude": 47.0624261, "date": {"mer. 02.05.2012": {"weekday": "wednesday", "year": 2012, "categories": {"HS2": {"pace": 285000000000, "rank": 77, "distance": 11, "time": 3179.4}}, "day": 2, "month": 5, "livingplace": "Chezard St Martin"}}, "location": "Ch\u00e9zard-St-Martin"}, "BCN Tour #2 La Chaux-de-Fonds": {"race": "BCN Tour #2 La Chaux-de-Fonds", "longitude": 6.9175754, "latitude": 47.0624261, "date": {"mer. 01.05.2013": {"weekday": "wednesday", "year": 2013, "categories": {"HS2": {"pace": 288000000000, "rank": 135, "distance": 11, "time": 3082.8}}, "day": 1, "month": 5, "livingplace": "Chezard St Martin"}}, "location": "Ch\u00e9zard-St-Martin"}, "Basler Stadtlauf": {"race": "Basler Stadtlauf", "longitude": 7.5885761, "latitude": 47.5595986, "date": {"sam. 28.11.2015": {"weekday": "saturday", "year": 2015, "categories": {"M40": {"pace": 235000000000, "rank": 51, "distance": 6, "time": 1295.0}}, "day": 28, "month": 11, "livingplace": "Cernier"}, "sam. 24.11.2012": {"weekday": "saturday", "year": 2012, "categories": {"M40": {"pace": 255000000000, "rank": 113, "distance": 6, "time": 1404.5}}, "day": 24, "month": 11, "livingplace": "Chezard St Martin"}}, "location": "Basel"}, "BCN Tour #5 Colombier": {"race": "BCN Tour #5 Colombier", "longitude": 6.6324944, "latitude": 46.9262933, "date": {"mer. 22.05.2013": {"weekday": "wednesday", "year": 2013, "categories": {"HS2": {"pace": 262000000000, "rank": 97, "distance": 11, "time": 2760.4}}, "day": 22, "month": 5, "livingplace": "Chezard St Martin"}}, "location": "Couvet"}, "BCN Tour Neuch\u00e2tel": {"race": "BCN Tour Neuch\u00e2tel", "longitude": 6.9292732, "latitude": 46.9899874, "date": {"mer. 25.05.2011": {"weekday": "wednesday", "year": 2011, "categories": {"HS1": {"pace": 285000000000, "rank": 95, "distance": 11, "time": 3256.3}}, "day": 25, "month": 5, "livingplace": "Chezard St Martin"}, "mer. 26.05.2010": {"weekday": "wednesday", "year": 2010, "categories": {"HS1": {"pace": 304000000000, "rank": 91, "distance": 10, "time": 2949.8}}, "day": 26, "month": 5, "livingplace": "Chezard St Martin"}, "mer. 30.05.2012": {"weekday": "wednesday", "year": 2012, "categories": {"HS2": {"pace": 339000000000, "rank": 188, "distance": 11, "time": 3806.3}}, "day": 30, "month": 5, "livingplace": "Chezard St Martin"}}, "location": "Neuch\u00e2tel"}, "BCN Tour Le Landeron": {"race": "BCN Tour Le Landeron", "longitude": 6.8589727, "latitude": 46.9668714, "date": {"mer. 22.04.2009": {"weekday": "wednesday", "year": 2009, "categories": {"HS1": {"pace": 301000000000, "rank": 109, "distance": 11, "time": 3344.0}}, "day": 22, "month": 4, "livingplace": "Voegtli Team"}}, "location": "Colombier NE"}, "BCN Tour Colombier": {"race": "BCN Tour Colombier", "longitude": 6.8589727, "latitude": 46.9668714, "date": {"mer. 23.04.2008": {"weekday": "wednesday", "year": 2008, "categories": {"HS1": {"pace": 290000000000, "rank": 85, "distance": 10, "time": 2963.7}}, "day": 23, "month": 4, "livingplace": "Chezard St Martin"}}, "location": "Colombier NE"}, "BCN Tour Le Locle": {"race": "BCN Tour Le Locle", "longitude": 6.733554799999999, "latitude": 46.999113, "date": {"mer. 05.05.2010": {"weekday": "wednesday", "year": 2010, "categories": {"HS1": {"pace": 279000000000, "rank": 76, "distance": 11, "time": 3049.9}}, "day": 5, "month": 5, "livingplace": "Chezard St Martin"}}, "location": "Les Ponts-de-Martel"}, "Aletsch-Halbmarathon, Bettmeralp": {"race": "Aletsch-Halbmarathon, Bettmeralp", "date": {"dim. 29.06.2008": {"weekday": "sunday", "year": 2008, "categories": {"M30": {"pace": 473000000000, "rank": 196, "distance": 21, "time": 9950.9}}, "day": 29, "month": 6, "livingplace": "Amicale Val de Ruz"}}, "location": "Bettmeralp"}}, "name": "Voirol Yan", "birth": 1972}