{"sex": "F", "races": {"Derendinger Abendlauf, Derendingen": {"race": "Derendinger Abendlauf, Derendingen", "longitude": 7.585593099999999, "latitude": 47.1952433, "date": {"ven. 28.06.2013": {"weekday": "friday", "year": 2013, "categories": {"F30": {"pace": 258000000000, "rank": 2, "distance": 10, "time": 2631.7}}, "day": 28, "month": 6, "livingplace": "Thorigen"}}, "location": "Derendingen"}, "Schweizer Frauenlauf Bern": {"race": "Schweizer Frauenlauf Bern", "longitude": 7.4474468, "latitude": 46.9479739, "date": {"dim. 13.06.2010": {"weekday": "sunday", "year": 2010, "categories": {"10-W30": {"pace": 276000000000, "rank": 22, "distance": 10, "time": 2763.5}}, "day": 13, "month": 6, "livingplace": "Thalwil"}}, "location": "Bern"}, "Badener Limmat-Lauf, Baden": {"race": "Badener Limmat-Lauf, Baden", "longitude": 8.5303972, "latitude": 48.5699281, "date": {"sam. 16.03.2013": {"weekday": "saturday", "year": 2013, "categories": {"F30": {"pace": 276000000000, "rank": 8, "distance": 13, "time": 3640.9}}, "day": 16, "month": 3, "livingplace": "Thorigen"}}, "location": "Baden"}, "Int Greifenseelauf, Uster": {"race": "Int Greifenseelauf, Uster", "longitude": 8.717873899999999, "latitude": 47.3482747, "date": {"sam. 18.09.2004": {"weekday": "saturday", "year": 2004, "categories": {"H/W20": {"pace": 344000000000, "rank": 243, "distance": 21, "time": 7262.0}}, "day": 18, "month": 9, "livingplace": "Sunikon"}}, "location": "Uster"}, "ASICS Bremgarter Reusslauf": {"race": "ASICS Bremgarter Reusslauf", "longitude": 8.3397905, "latitude": 47.34917739999999, "date": {"sam. 23.02.2013": {"weekday": "saturday", "year": 2013, "categories": {"11-F30": {"pace": 280000000000, "rank": 48, "distance": 11, "time": 3080.5}}, "day": 23, "month": 2, "livingplace": "Thorigen"}}, "location": "Bremgarten AG"}, "Ch\u00e4sitzerlouf, Kehrsatz": {"race": "Ch\u00e4sitzerlouf, Kehrsatz", "date": {"sam. 04.05.2013": {"weekday": "saturday", "year": 2013, "categories": {"12-F30": {"pace": 278000000000, "rank": 9, "distance": 12, "time": 3338.2}}, "day": 4, "month": 5, "livingplace": "Thorigen"}}, "location": "Kehrsatz"}, "Kerzerslauf": {"race": "Kerzerslauf", "longitude": 7.1954365, "latitude": 46.97488999999999, "date": {"sam. 17.03.2012": {"weekday": "saturday", "year": 2012, "categories": {"15-F35": {"pace": 303000000000, "rank": 63, "distance": 15, "time": 4556.1}}, "day": 17, "month": 3, "livingplace": "Langenthal"}}, "location": "Kerzers"}}, "name": "Von Arx V\u00e9ronique", "birth": 1977}