{"sex": "M", "races": {"BCN Tour Les Ponts de Martel": {"race": "BCN Tour Les Ponts de Martel", "longitude": 6.6324944, "latitude": 46.9262933, "date": {"mer. 18.05.2011": {"weekday": "wednesday", "year": 2011, "categories": {"HS2": {"pace": 315000000000, "rank": 151, "distance": 13, "time": 4032.1}}, "day": 18, "month": 5, "livingplace": "St Blaise"}}, "location": "Couvet"}, "BCN Tour M\u00f4tier": {"race": "BCN Tour M\u00f4tier", "longitude": 6.6324944, "latitude": 46.9262933, "date": {"mer. 19.05.2010": {"weekday": "wednesday", "year": 2010, "categories": {"HS2": {"pace": 272000000000, "rank": 81, "distance": 10, "time": 2698.8}}, "day": 19, "month": 5, "livingplace": "St Blaise"}}, "location": "Couvet"}, "BCN Tour Le Locle": {"race": "BCN Tour Le Locle", "longitude": 6.733554799999999, "latitude": 46.999113, "date": {"mer. 05.05.2010": {"weekday": "wednesday", "year": 2010, "categories": {"HS2": {"pace": 295000000000, "rank": 114, "distance": 11, "time": 3225.4}}, "day": 5, "month": 5, "livingplace": "St Blaise"}}, "location": "Les Ponts-de-Martel"}, "BCN Tour Boudry": {"race": "BCN Tour Boudry", "longitude": 6.8589727, "latitude": 46.9668714, "date": {"mer. 26.04.2006": {"weekday": "wednesday", "year": 2006, "categories": {"HS2": {"pace": 286000000000, "rank": 69, "distance": 10, "time": 2922.9}}, "day": 26, "month": 4, "livingplace": "Vinelz"}}, "location": "Colombier NE"}, "BCN Tour Ponts-de-Martel": {"race": "BCN Tour Ponts-de-Martel", "longitude": 6.9175754, "latitude": 47.0624261, "date": {"mer. 28.04.2010": {"weekday": "wednesday", "year": 2010, "categories": {"HS2": {"pace": 301000000000, "rank": 121, "distance": 11, "time": 3381.0}}, "day": 28, "month": 4, "livingplace": "St Blaise"}}, "location": "Ch\u00e9zard-St-Martin"}, "BCN Tour La Chaux-de-Fonds": {"race": "BCN Tour La Chaux-de-Fonds", "longitude": 6.832783800000001, "latitude": 47.1034892, "date": {"mer. 11.05.2011": {"weekday": "wednesday", "year": 2011, "categories": {"HS2": {"pace": 333000000000, "rank": 107, "distance": 11, "time": 3566.1}}, "day": 11, "month": 5, "livingplace": "St Blaise"}}, "location": "La Chaux-de-Fonds"}, "BCN Tour Fontaine Cernier": {"race": "BCN Tour Fontaine Cernier", "longitude": 6.9175754, "latitude": 47.0624261, "date": {"mer. 27.04.2011": {"weekday": "wednesday", "year": 2011, "categories": {"HS2": {"pace": 278000000000, "rank": 102, "distance": 10, "time": 2869.2}}, "day": 27, "month": 4, "livingplace": "St Blaise"}}, "location": "Ch\u00e9zard-St-Martin"}, "BCN Tour La Chaux-de-fonds": {"race": "BCN Tour La Chaux-de-fonds", "longitude": 6.832783800000001, "latitude": 47.1034892, "date": {"mer. 12.05.2010": {"weekday": "wednesday", "year": 2010, "categories": {"HS2": {"pace": 344000000000, "rank": 77, "distance": 11, "time": 3687.6}}, "day": 12, "month": 5, "livingplace": "St Blaise"}}, "location": "La Chaux-de-Fonds"}, "BCN Tour La Br\u00e9vine": {"race": "BCN Tour La Br\u00e9vine", "longitude": 6.733554799999999, "latitude": 46.999113, "date": {"mer. 04.05.2011": {"weekday": "wednesday", "year": 2011, "categories": {"HS2": {"pace": 289000000000, "rank": 88, "distance": 10, "time": 2891.6}}, "day": 4, "month": 5, "livingplace": "St Blaise"}}, "location": "Les Ponts-de-Martel"}, "BCN Tour Le Landeron": {"race": "BCN Tour Le Landeron", "longitude": 6.8589727, "latitude": 46.9668714, "date": {"mer. 22.04.2009": {"weekday": "wednesday", "year": 2009, "categories": {"HS2": {"pace": 287000000000, "rank": 80, "distance": 11, "time": 3196.0}}, "day": 22, "month": 4, "livingplace": "St Blaise"}}, "location": "Colombier NE"}, "Jungfrau-Marathon, Interlaken": {"race": "Jungfrau-Marathon, Interlaken", "date": {"sam. 05.09.2009": {"weekday": "saturday", "year": 2009, "categories": {"M45": {"pace": 428000000000, "rank": 300, "distance": 42, "time": 18072.7}}, "day": 5, "month": 9, "livingplace": "St Blaise"}, "sam. 10.09.2011": {"weekday": "saturday", "year": 2011, "categories": {"M45": {"pace": 451000000000, "rank": 354, "distance": 42, "time": 19041.6}}, "day": 10, "month": 9, "livingplace": "St Blaise"}, "sam. 09.09.2006": {"weekday": "saturday", "year": 2006, "categories": {"M40": {"pace": 436000000000, "rank": 348, "distance": 42, "time": 18418.5}}, "day": 9, "month": 9, "livingplace": "St Blaise"}, "sam. 11.09.2010": {"weekday": "saturday", "year": 2010, "categories": {"M45": {"pace": 438000000000, "rank": 312, "distance": 42, "time": 18502.8}}, "day": 11, "month": 9, "livingplace": "St Blaise"}}, "location": "Interlaken"}}, "name": "Von Der Weid Eric", "birth": 1962}