{"sex": "M", "races": {"Tour du Pays de Vaud printanier #2 Yens": {"race": "Tour du Pays de Vaud printanier #2 Yens", "longitude": 6.7975224, "latitude": 46.6698891, "date": {"mer. 06.06.2012": {"weekday": "wednesday", "year": 2012, "categories": {"H-Sen1": {"pace": 205000000000, "rank": 1, "distance": 9, "time": 1874.3}}, "day": 6, "month": 6, "livingplace": "Molondin"}}, "location": "Moudon"}, "Tour du Pays de Vaud #4 - La Sarraz": {"race": "Tour du Pays de Vaud #4 - La Sarraz", "longitude": 6.5707689, "latitude": 46.7088129, "date": {"mer. 29.08.2012": {"weekday": "wednesday", "year": 2012, "categories": {"H-Sen1": {"pace": 200000000000, "rank": 1, "distance": 9, "time": 1700.8}}, "day": 29, "month": 8, "livingplace": "Molondin"}}, "location": "Chavornay"}, "Tour du Pays de Vaud etape 1 - Le Mont sur Lausanne": {"race": "Tour du Pays de Vaud etape 1 - Le Mont sur Lausanne", "longitude": 6.641183, "latitude": 46.7784736, "date": {"mer. 15.08.2007": {"weekday": "wednesday", "year": 2007, "categories": {"HS1": {"pace": 214000000000, "rank": 1, "distance": 8, "time": 1782.0}}, "day": 15, "month": 8, "livingplace": "Savigny"}}, "location": "Yverdon-les-Bains"}, "Tour du pays de Vaud #1 - Mezi\u00e8res": {"race": "Tour du pays de Vaud #1 - Mezi\u00e8res", "longitude": 6.641183, "latitude": 46.7784736, "date": {"mer. 10.08.2011": {"weekday": "wednesday", "year": 2011, "categories": {"H-Sen1": {"pace": 207000000000, "rank": 2, "distance": 9, "time": 1764.5}}, "day": 10, "month": 8, "livingplace": "Yvonand"}}, "location": "Yverdon-les-Bains"}, "10km, Payerne": {"race": "10km, Payerne", "longitude": 6.9405663, "latitude": 46.8220266, "date": {"sam. 16.04.2011": {"weekday": "saturday", "year": 2011, "categories": {"M30": {"pace": 208000000000, "rank": 3, "distance": 10, "time": 2082.7}}, "day": 16, "month": 4, "livingplace": "Yvonand"}, "sam. 10.03.2012": {"weekday": "saturday", "year": 2012, "categories": {"M30": {"pace": 201000000000, "rank": 5, "distance": 10, "time": 2015.8}}, "day": 10, "month": 3, "livingplace": "Yvonand"}}, "location": "Payerne"}, "20km de Lausanne": {"race": "20km de Lausanne", "longitude": 6.6322734, "latitude": 46.5196535, "date": {"sam. 30.04.2011": {"weekday": "saturday", "year": 2011, "categories": {"10-H30": {"pace": 207000000000, "rank": 1, "distance": 10, "time": 2073.5}}, "day": 30, "month": 4, "livingplace": "Yvonand"}, "sam. 28.04.2012": {"weekday": "saturday", "year": 2012, "categories": {"10-H30": {"pace": 206000000000, "rank": 4, "distance": 10, "time": 2066.8}}, "day": 28, "month": 4, "livingplace": "Molondin"}}, "location": "Lausanne"}, "Tour du pays de Vaud #6 - St  Prex": {"race": "Tour du pays de Vaud #6 - St  Prex", "longitude": 6.458343500000001, "latitude": 46.4829113, "date": {"mer. 14.09.2011": {"weekday": "wednesday", "year": 2011, "categories": {"H-Sen1": {"pace": 207000000000, "rank": 1, "distance": 9, "time": 1786.9}}, "day": 14, "month": 9, "livingplace": "Yvonand"}}, "location": "St-Prex"}, "Tour du Pays de Vaud printanier #1 Chavornay": {"race": "Tour du Pays de Vaud printanier #1 Chavornay", "longitude": 6.2347852, "latitude": 46.3832683, "date": {"mer. 30.05.2012": {"weekday": "wednesday", "year": 2012, "categories": {"H-Sen1": {"pace": 205000000000, "rank": 2, "distance": 9, "time": 1841.0}}, "day": 30, "month": 5, "livingplace": "Molondin"}}, "location": "Nyon"}, "Tour du Pays de Vaud etape 3 - Aubonne": {"race": "Tour du Pays de Vaud etape 3 - Aubonne", "longitude": 6.5728678, "latitude": 46.7829756, "date": {"mer. 29.08.2007": {"weekday": "wednesday", "year": 2007, "categories": {"HS1": {"pace": 214000000000, "rank": 1, "distance": 8, "time": 1733.7}}, "day": 29, "month": 8, "livingplace": "Savigny"}}, "location": "Champvent"}, "Tour du Chablais #4 Morgins": {"race": "Tour du Chablais #4 Morgins", "date": {"mer. 18.05.2011": {"weekday": "wednesday", "year": 2011, "categories": {"M-M20": {"pace": 216000000000, "rank": 4, "distance": 8, "time": 1807.9}}, "day": 18, "month": 5, "livingplace": "Yvonand"}}, "location": "Les Mosses"}, "Sierre-Zinal, Sierre": {"race": "Sierre-Zinal, Sierre", "longitude": 7.533536199999999, "latitude": 46.29413110000001, "date": {"dim. 09.08.2015": {"weekday": "sunday", "year": 2015, "categories": {"V\u00e9t_I": {"pace": 334000000000, "rank": 6, "distance": 31, "time": 10383.4}}, "day": 9, "month": 8, "livingplace": "Molondin"}, "dim. 12.08.2012": {"weekday": "sunday", "year": 2012, "categories": {"Elites": {"pace": 341000000000, "rank": 32, "distance": 31, "time": 10599.6}}, "day": 12, "month": 8, "livingplace": "Molondin"}}, "location": "Sierre"}, "Tour du Pays de Vaud #3 - Mezi\u00e8res": {"race": "Tour du Pays de Vaud #3 - Mezi\u00e8res", "longitude": 6.641183, "latitude": 46.7784736, "date": {"mer. 22.08.2012": {"weekday": "wednesday", "year": 2012, "categories": {"H-Sen1": {"pace": 213000000000, "rank": 1, "distance": 8, "time": 1789.5}}, "day": 22, "month": 8, "livingplace": "Molondin"}}, "location": "Yverdon-les-Bains"}, "Lausanne Marathon": {"race": "Lausanne Marathon", "longitude": 6.6322734, "latitude": 46.5196535, "date": {"dim. 26.10.2014": {"weekday": "sunday", "year": 2014, "categories": {"10-H40": {"pace": 197000000000, "rank": 2, "distance": 10, "time": 1971.9}}, "day": 26, "month": 10, "livingplace": "Molondin"}}, "location": "Lausanne"}, "Tour du pays de Vaud #1 - Penthaz": {"race": "Tour du pays de Vaud #1 - Penthaz", "longitude": 6.539251200000001, "latitude": 46.5993131, "date": {"mer. 08.08.2012": {"weekday": "wednesday", "year": 2012, "categories": {"H-Sen1": {"pace": 205000000000, "rank": 1, "distance": 9, "time": 1753.8}}, "day": 8, "month": 8, "livingplace": "Molondin"}}, "location": "Penthaz"}, "Les Traine-Savates, Cheseaux-sur-Lausanne": {"race": "Les Traine-Savates, Cheseaux-sur-Lausanne", "longitude": 6.6047712, "latitude": 46.585452, "date": {"sam. 18.04.2015": {"weekday": "saturday", "year": 2015, "categories": {"10-M40": {"pace": 205000000000, "rank": 1, "distance": 10, "time": 2113.0}}, "day": 18, "month": 4, "livingplace": "Molondin"}}, "location": "Cheseaux-sur-Lausanne"}, "Aletsch-Halbmarathon, Bettmeralp": {"race": "Aletsch-Halbmarathon, Bettmeralp", "date": {"dim. 26.06.2011": {"weekday": "sunday", "year": 2011, "categories": {"M30": {"pace": 288000000000, "rank": 3, "distance": 21, "time": 6061.0}}, "day": 26, "month": 6, "livingplace": "wasimolo"}, "dim. 24.06.2012": {"weekday": "sunday", "year": 2012, "categories": {"M30": {"pace": 286000000000, "rank": 3, "distance": 21, "time": 6074.7}}, "day": 24, "month": 6, "livingplace": "Wasimolo"}}, "location": "Bettmeralp"}}, "name": "Vonlanthen Patrick", "birth": 1974}