{"sex": "M", "races": {"Course de l'Escalade, Gen\u00e8ve": {"race": "Course de l'Escalade, Gen\u00e8ve", "longitude": 6.1431577, "latitude": 46.2043907, "date": {"sam. 06.12.2014": {"weekday": "saturday", "year": 2014, "categories": {"Elite-M": {"pace": 245000000000, "rank": 366, "distance": 7, "time": 1795.7}}, "day": 6, "month": 12, "livingplace": "Arzier"}}, "location": "Gen\u00e8ve"}, "20km de Lausanne": {"race": "20km de Lausanne", "longitude": 6.6322734, "latitude": 46.5196535, "date": {"sam. 25.04.2015": {"weekday": "saturday", "year": 2015, "categories": {"20-H30": {"pace": 247000000000, "rank": 96, "distance": 20, "time": 4959.1}}, "day": 25, "month": 4, "livingplace": "Arzier"}, "sam. 22.04.2006": {"weekday": "saturday", "year": 2006, "categories": {"20/H20": {"pace": 271000000000, "rank": 63, "distance": 20, "time": 5422.7}}, "day": 22, "month": 4, "livingplace": "Yverdon les Bains"}}, "location": "Lausanne"}, "Course p\u00e9destre Thyon-Dixence, Thyon": {"race": "Course p\u00e9destre Thyon-Dixence, Thyon", "date": {"dim. 02.08.2015": {"weekday": "sunday", "year": 2015, "categories": {"HomElite": {"pace": 422000000000, "rank": 86, "distance": 16, "time": 6902.5}}, "day": 2, "month": 8, "livingplace": "Arzier"}}, "location": "Thyon-Les Collons"}, "Bieler Lauftage, Biel Bienne": {"race": "Bieler Lauftage, Biel Bienne", "longitude": 7.2467909, "latitude": 47.1367785, "date": {"jeu. 11.06.2015": {"weekday": "thursday", "year": 2015, "categories": {"100-M35": {"pace": 395000000000, "rank": 22, "distance": 100, "time": 39520.7}}, "day": 11, "month": 6, "livingplace": "Arzier"}}, "location": "Biel/Bienne"}, "Sierre-Zinal, Sierre": {"race": "Sierre-Zinal, Sierre", "longitude": 7.533536199999999, "latitude": 46.29413110000001, "date": {"dim. 10.08.2014": {"weekday": "sunday", "year": 2014, "categories": {"ElitesHo": {"pace": 514000000000, "rank": 384, "distance": 31, "time": 15938.2}}, "day": 10, "month": 8, "livingplace": "Arzier"}}, "location": "Sierre"}, "Humani'Trail, Les Diablerets": {"race": "Humani'Trail, Les Diablerets", "longitude": 7.158055999999999, "latitude": 46.351389, "date": {"sam. 21.09.2013": {"weekday": "saturday", "year": 2013, "categories": {"25-HS": {"pace": 672000000000, "rank": 76, "distance": 25, "time": 16807.8}}, "day": 21, "month": 9, "livingplace": "Lausanne"}}, "location": "Les Diablerets"}, "Montreux - Les Rochers de Naye": {"race": "Montreux - Les Rochers de Naye", "longitude": 6.9106799, "latitude": 46.4312213, "date": {"dim. 06.07.2014": {"weekday": "sunday", "year": 2014, "categories": {"M-HElite": {"pace": 445000000000, "rank": 108, "distance": 19, "time": 8368.9}}, "day": 6, "month": 7, "livingplace": "Arzier"}}, "location": "Montreux"}, "Tour du Pays de Vaud etape 2 - Genolier": {"race": "Tour du Pays de Vaud etape 2 - Genolier", "longitude": 6.7702883, "latitude": 46.5955273, "date": {"mer. 19.08.2009": {"weekday": "wednesday", "year": 2009, "categories": {"Hom": {"pace": 311000000000, "rank": 50, "distance": 8, "time": 2525.1}}, "day": 19, "month": 8, "livingplace": "Grandson"}}, "location": "M\u00e9zi\u00e8res VD"}, "Semi-Marathon de la C\u00f4te, Allaman-Nyon": {"race": "Semi-Marathon de la C\u00f4te, Allaman-Nyon", "longitude": 6.2347852, "latitude": 46.3832683, "date": {"dim. 14.09.2014": {"weekday": "sunday", "year": 2014, "categories": {"21-H30": {"pace": 253000000000, "rank": 31, "distance": 21, "time": 5345.9}}, "day": 14, "month": 9, "livingplace": "Arzier"}}, "location": "Nyon"}}, "name": "Vout Nicolas", "birth": 1980}