{"sex": "F", "races": {"Tour du Chablais #5 Morgins": {"race": "Tour du Chablais #5 Morgins", "longitude": 6.931504599999999, "latitude": 46.3603257, "date": {"mer. 01.05.2013": {"weekday": "wednesday", "year": 2013, "categories": {"F-F20": {"pace": 331000000000, "rank": 53, "distance": 8, "time": 2522.6}}, "day": 1, "month": 5, "livingplace": "Sembrancher"}}, "location": "Roche VD"}, "Tour du Chablais #1 Montreux": {"race": "Tour du Chablais #1 Montreux", "longitude": 6.9916269, "latitude": 46.2957462, "date": {"mer. 11.04.2012": {"weekday": "wednesday", "year": 2012, "categories": {"F-F20": {"pace": 372000000000, "rank": 112, "distance": 8, "time": 2828.6}}, "day": 11, "month": 4, "livingplace": "Sembrancher"}}, "location": "Ollon VD"}, "Tour du Chablais #2 Yvorne": {"race": "Tour du Chablais #2 Yvorne", "longitude": 6.854975199999999, "latitude": 46.3835529, "date": {"mer. 10.04.2013": {"weekday": "wednesday", "year": 2013, "categories": {"F-F20": {"pace": 351000000000, "rank": 77, "distance": 8, "time": 2809.8}}, "day": 10, "month": 4, "livingplace": "Sembrancher"}}, "location": "Bouveret"}, "Tour du Chablais #6 Monthey": {"race": "Tour du Chablais #6 Monthey", "longitude": 6.970566, "latitude": 46.3190253, "date": {"mer. 08.05.2013": {"weekday": "wednesday", "year": 2013, "categories": {"F-F20": {"pace": 317000000000, "rank": 73, "distance": 9, "time": 2957.2}}, "day": 8, "month": 5, "livingplace": "Sembrancher"}}, "location": "Aigle"}, "Tour du Chablais #4 Champ\u00e9ry": {"race": "Tour du Chablais #4 Champ\u00e9ry", "date": {"mer. 02.05.2012": {"weekday": "wednesday", "year": 2012, "categories": {"F-F20": {"pace": 313000000000, "rank": 55, "distance": 8, "time": 2605.0}}, "day": 2, "month": 5, "livingplace": "Sembrancher"}}, "location": "Les Mosses"}, "Tour du Chablais #3 Bouveret": {"race": "Tour du Chablais #3 Bouveret", "longitude": 7.0223787, "latitude": 46.1782231, "date": {"mer. 17.04.2013": {"weekday": "wednesday", "year": 2013, "categories": {"F-F20": {"pace": 325000000000, "rank": 71, "distance": 10, "time": 3251.1}}, "day": 17, "month": 4, "livingplace": "Sembrancher"}}, "location": "Evionnaz"}, "Tour du Chablais #1 Roche": {"race": "Tour du Chablais #1 Roche", "longitude": 6.9916269, "latitude": 46.2957462, "date": {"mer. 03.04.2013": {"weekday": "wednesday", "year": 2013, "categories": {"F-F20": {"pace": 325000000000, "rank": 80, "distance": 9, "time": 2881.7}}, "day": 3, "month": 4, "livingplace": "Sembrancher"}}, "location": "Ollon VD"}, "Tour du Chablais #2 Bex": {"race": "Tour du Chablais #2 Bex", "longitude": 6.854975199999999, "latitude": 46.3835529, "date": {"mer. 18.04.2012": {"weekday": "wednesday", "year": 2012, "categories": {"F-F20": {"pace": 337000000000, "rank": 94, "distance": 8, "time": 2700.0}}, "day": 18, "month": 4, "livingplace": "Sembrancher"}}, "location": "Bouveret"}, "Tour du Chablais #5 Bex": {"race": "Tour du Chablais #5 Bex", "longitude": 6.931504599999999, "latitude": 46.3603257, "date": {"mer. 09.05.2012": {"weekday": "wednesday", "year": 2012, "categories": {"F-F20": {"pace": 308000000000, "rank": 52, "distance": 9, "time": 2732.7}}, "day": 9, "month": 5, "livingplace": "Sembrancher"}}, "location": "Roche VD"}, "Tour du Chablais #6 Montreux": {"race": "Tour du Chablais #6 Montreux", "longitude": 6.970566, "latitude": 46.3190253, "date": {"mer. 16.05.2012": {"weekday": "wednesday", "year": 2012, "categories": {"F-F20": {"pace": 308000000000, "rank": 58, "distance": 9, "time": 2850.3}}, "day": 16, "month": 5, "livingplace": "Sembrancher"}}, "location": "Aigle"}, "Tour du Chablais #3 Collombey-Muraz": {"race": "Tour du Chablais #3 Collombey-Muraz", "longitude": 7.0223787, "latitude": 46.1782231, "date": {"mer. 25.04.2012": {"weekday": "wednesday", "year": 2012, "categories": {"F-F20": {"pace": 325000000000, "rank": 70, "distance": 9, "time": 2920.4}}, "day": 25, "month": 4, "livingplace": "Sembrancher"}}, "location": "Evionnaz"}}, "name": "Voutaz Aur\u00e9lie", "birth": 1991}