{"sex": "M", "races": {"Tour du Chablais #6 Montreux": {"race": "Tour du Chablais #6 Montreux", "longitude": 6.970566, "latitude": 46.3190253, "date": {"mer. 16.05.2012": {"weekday": "wednesday", "year": 2012, "categories": {"M-M60": {"pace": 307000000000, "rank": 19, "distance": 9, "time": 2841.0}}, "day": 16, "month": 5, "livingplace": "Troistorrents"}}, "location": "Aigle"}, "Tour du Chablais #4 Champ\u00e9ry": {"race": "Tour du Chablais #4 Champ\u00e9ry", "date": {"mer. 02.05.2012": {"weekday": "wednesday", "year": 2012, "categories": {"M-M60": {"pace": 318000000000, "rank": 16, "distance": 8, "time": 2645.7}}, "day": 2, "month": 5, "livingplace": "Troistorrents"}}, "location": "Les Mosses"}, "Course Titz\u00e9 de no\u00ebl Sion": {"race": "Course Titz\u00e9 de no\u00ebl Sion", "longitude": 7.360625999999999, "latitude": 46.2331221, "date": {"sam. 15.12.2001": {"weekday": "saturday", "year": 2001, "categories": {"53": {"pace": 301000000000, "rank": 60, "distance": 7, "time": 2215.2}}, "day": 15, "month": 12, "livingplace": "Troistorrents"}}, "location": "Sion"}, "Tour du Chablais #2 Yvorne": {"race": "Tour du Chablais #2 Yvorne", "longitude": 6.854975199999999, "latitude": 46.3835529, "date": {"mer. 10.04.2013": {"weekday": "wednesday", "year": 2013, "categories": {"M-M60": {"pace": 349000000000, "rank": 16, "distance": 8, "time": 2797.7}}, "day": 10, "month": 4, "livingplace": "Troistorrents"}}, "location": "Bouveret"}, "Tour du Chablais #6 Monthey": {"race": "Tour du Chablais #6 Monthey", "longitude": 6.970566, "latitude": 46.3190253, "date": {"mer. 08.05.2013": {"weekday": "wednesday", "year": 2013, "categories": {"M-M60": {"pace": 302000000000, "rank": 19, "distance": 9, "time": 2820.6}}, "day": 8, "month": 5, "livingplace": "Troistorrents"}}, "location": "Aigle"}, "Tour du Chablais #4 Yvorne": {"race": "Tour du Chablais #4 Yvorne", "date": {"mer. 28.04.2010": {"weekday": "wednesday", "year": 2010, "categories": {"M-M60": {"pace": 352000000000, "rank": 30, "distance": 8, "time": 2921.7}}, "day": 28, "month": 4, "livingplace": "Troistorrents"}}, "location": "Les Mosses"}, "Tour du Chablais #3 Bouveret": {"race": "Tour du Chablais #3 Bouveret", "longitude": 7.0223787, "latitude": 46.1782231, "date": {"mer. 17.04.2013": {"weekday": "wednesday", "year": 2013, "categories": {"M-M60": {"pace": 314000000000, "rank": 16, "distance": 10, "time": 3146.7}}, "day": 17, "month": 4, "livingplace": "Troistorrents"}}, "location": "Evionnaz"}, "Tour du Chablais #1 Roche": {"race": "Tour du Chablais #1 Roche", "longitude": 6.9916269, "latitude": 46.2957462, "date": {"mer. 07.04.2010": {"weekday": "wednesday", "year": 2010, "categories": {"M-M60": {"pace": 304000000000, "rank": 24, "distance": 9, "time": 2729.3}}, "day": 7, "month": 4, "livingplace": "Troistorrents"}}, "location": "Ollon VD"}, "Tour du Chablais #1 Martigny": {"race": "Tour du Chablais #1 Martigny", "longitude": 6.9916269, "latitude": 46.2957462, "date": {"mer. 23.04.2014": {"weekday": "wednesday", "year": 2014, "categories": {"M-M60": {"pace": 318000000000, "rank": 29, "distance": 9, "time": 2704.8}}, "day": 23, "month": 4, "livingplace": "Grimisuat"}}, "location": "Ollon VD"}, "Morat-Fribourg": {"race": "Morat-Fribourg", "longitude": 7.120184, "latitude": 46.92922110000001, "date": {"sam. 04.10.2014": {"weekday": "saturday", "year": 2014, "categories": {"17-M65": {"pace": 363000000000, "rank": 57, "distance": 17, "time": 6246.1}}, "day": 4, "month": 10, "livingplace": "Grimisuat"}, "sam. 03.10.2015": {"weekday": "saturday", "year": 2015, "categories": {"17-M65": {"pace": 361000000000, "rank": 58, "distance": 17, "time": 6199.6}}, "day": 3, "month": 10, "livingplace": "Grimisuat"}, "sam. 04.10.2008": {"weekday": "saturday", "year": 2008, "categories": {"C-M60": {"pace": 312000000000, "rank": 68, "distance": 17, "time": 5367.6}}, "day": 4, "month": 10, "livingplace": "Troistorrents"}, "sam. 06.10.2012": {"weekday": "saturday", "year": 2012, "categories": {"17-M60": {"pace": 355000000000, "rank": 117, "distance": 17, "time": 6208.2}}, "day": 6, "month": 10, "livingplace": "Troistorrents"}, "sam. 06.10.2007": {"weekday": "saturday", "year": 2007, "categories": {"C/M55": {"pace": 310000000000, "rank": 112, "distance": 17, "time": 5327.4}}, "day": 6, "month": 10, "livingplace": "Troistorrents"}, "sam. 02.10.2010": {"weekday": "saturday", "year": 2010, "categories": {"17-M60": {"pace": 387000000000, "rank": 150, "distance": 17, "time": 6651.4}}, "day": 2, "month": 10, "livingplace": "Troistorrents"}}, "location": "Murten"}, "20km de Lausanne": {"race": "20km de Lausanne", "longitude": 6.6322734, "latitude": 46.5196535, "date": {"sam. 26.04.2014": {"weekday": "saturday", "year": 2014, "categories": {"10-H65": {"pace": 333000000000, "rank": 26, "distance": 10, "time": 3337.6}}, "day": 26, "month": 4, "livingplace": "Grimisuat"}}, "location": "Lausanne"}, "Tour du Chablais #6 Mouthey": {"race": "Tour du Chablais #6 Mouthey", "longitude": 6.970566, "latitude": 46.3190253, "date": {"mer. 12.05.2010": {"weekday": "wednesday", "year": 2010, "categories": {"M-M60": {"pace": 298000000000, "rank": 19, "distance": 9, "time": 2747.2}}, "day": 12, "month": 5, "livingplace": "Troistorrents"}}, "location": "Aigle"}, "Tour du Chablais #5 Morgins": {"race": "Tour du Chablais #5 Morgins", "longitude": 6.931504599999999, "latitude": 46.3603257, "date": {"mer. 01.05.2013": {"weekday": "wednesday", "year": 2013, "categories": {"M-M60": {"pace": 343000000000, "rank": 21, "distance": 8, "time": 2609.3}}, "day": 1, "month": 5, "livingplace": "Troistorrents"}}, "location": "Roche VD"}, "Tour du Chablais #5 Leysin": {"race": "Tour du Chablais #5 Leysin", "longitude": 6.931504599999999, "latitude": 46.3603257, "date": {"mer. 05.05.2010": {"weekday": "wednesday", "year": 2010, "categories": {"M-M60": {"pace": 340000000000, "rank": 20, "distance": 8, "time": 2878.1}}, "day": 5, "month": 5, "livingplace": "Troistorrents"}}, "location": "Roche VD"}, "Tour du Chablais #3 Bex": {"race": "Tour du Chablais #3 Bex", "longitude": 7.0223787, "latitude": 46.1782231, "date": {"mer. 21.04.2010": {"weekday": "wednesday", "year": 2010, "categories": {"M-M60": {"pace": 329000000000, "rank": 32, "distance": 10, "time": 3293.3}}, "day": 21, "month": 4, "livingplace": "Troistorrents"}}, "location": "Evionnaz"}, "Tour du Chablais #4 St  Maurice": {"race": "Tour du Chablais #4 St  Maurice", "date": {"mer. 24.04.2013": {"weekday": "wednesday", "year": 2013, "categories": {"M-M60": {"pace": 319000000000, "rank": 21, "distance": 10, "time": 3199.8}}, "day": 24, "month": 4, "livingplace": "Troistorrents"}}, "location": "Les Mosses"}, "Tour du Chablais #2 St-Gingolph": {"race": "Tour du Chablais #2 St-Gingolph", "longitude": 6.854975199999999, "latitude": 46.3835529, "date": {"mer. 14.04.2010": {"weekday": "wednesday", "year": 2010, "categories": {"M-M60": {"pace": 340000000000, "rank": 27, "distance": 8, "time": 2845.5}}, "day": 14, "month": 4, "livingplace": "Troistorrents"}}, "location": "Bouveret"}, "Lausanne Marathon": {"race": "Lausanne Marathon", "longitude": 6.6322734, "latitude": 46.5196535, "date": {"dim. 26.10.2014": {"weekday": "sunday", "year": 2014, "categories": {"21-H60": {"pace": 367000000000, "rank": 89, "distance": 21, "time": 7760.1}}, "day": 26, "month": 10, "livingplace": "Grimisuat"}}, "location": "Lausanne"}}, "name": "Vuignier Jean-Michel", "birth": 1948}