{"sex": "F", "races": {"Tour du Chablais #2 Yvorne": {"race": "Tour du Chablais #2 Yvorne", "longitude": 6.854975199999999, "latitude": 46.3835529, "date": {"mer. 10.04.2013": {"weekday": "wednesday", "year": 2013, "categories": {"F-F20": {"pace": 318000000000, "rank": 31, "distance": 8, "time": 2551.0}}, "day": 10, "month": 4, "livingplace": "Chexbres"}}, "location": "Bouveret"}, "Tour du Chablais #4 Yvorne": {"race": "Tour du Chablais #4 Yvorne", "date": {"mer. 28.04.2010": {"weekday": "wednesday", "year": 2010, "categories": {"F-F20": {"pace": 331000000000, "rank": 40, "distance": 8, "time": 2747.0}}, "day": 28, "month": 4, "livingplace": "Vevey"}}, "location": "Les Mosses"}, "Tour du Chablais #3 Bex": {"race": "Tour du Chablais #3 Bex", "longitude": 7.0223787, "latitude": 46.1782231, "date": {"mer. 21.04.2010": {"weekday": "wednesday", "year": 2010, "categories": {"F-F20": {"pace": 292000000000, "rank": 22, "distance": 10, "time": 2922.4}}, "day": 21, "month": 4, "livingplace": "Vevey"}}, "location": "Evionnaz"}, "Tour du Chablais #1 Roche": {"race": "Tour du Chablais #1 Roche", "longitude": 6.9916269, "latitude": 46.2957462, "date": {"mer. 07.04.2010": {"weekday": "wednesday", "year": 2010, "categories": {"F-F20": {"pace": 288000000000, "rank": 24, "distance": 9, "time": 2584.9}}, "day": 7, "month": 4, "livingplace": "Vevey"}}, "location": "Ollon VD"}, "Tour du Chablais #2 St-Gingolph": {"race": "Tour du Chablais #2 St-Gingolph", "longitude": 6.854975199999999, "latitude": 46.3835529, "date": {"mer. 14.04.2010": {"weekday": "wednesday", "year": 2010, "categories": {"F-F20": {"pace": 356000000000, "rank": 65, "distance": 8, "time": 2976.3}}, "day": 14, "month": 4, "livingplace": "Vevey"}}, "location": "Bouveret"}, "Morat-Fribourg": {"race": "Morat-Fribourg", "longitude": 7.120184, "latitude": 46.92922110000001, "date": {"sam. 02.10.2010": {"weekday": "saturday", "year": 2010, "categories": {"17-W20": {"pace": 306000000000, "rank": 66, "distance": 17, "time": 5266.7}}, "day": 2, "month": 10, "livingplace": "Vevey"}}, "location": "Murten"}, "20km de Lausanne": {"race": "20km de Lausanne", "longitude": 6.6322734, "latitude": 46.5196535, "date": {"sam. 27.04.2013": {"weekday": "saturday", "year": 2013, "categories": {"10-F30": {"pace": 289000000000, "rank": 45, "distance": 10, "time": 2894.8}}, "day": 27, "month": 4, "livingplace": "Chexbres"}}, "location": "Lausanne"}, "Tour du Chablais #6 Mouthey": {"race": "Tour du Chablais #6 Mouthey", "longitude": 6.970566, "latitude": 46.3190253, "date": {"mer. 12.05.2010": {"weekday": "wednesday", "year": 2010, "categories": {"F-F20": {"pace": 283000000000, "rank": 21, "distance": 9, "time": 2602.3}}, "day": 12, "month": 5, "livingplace": "Vevey"}}, "location": "Aigle"}}, "name": "W\u00e4lchli C\u00e9line", "birth": 1981}