{"sex": "M", "races": {"BCN Tour Les Ponts de Martel": {"race": "BCN Tour Les Ponts de Martel", "longitude": 6.6324944, "latitude": 46.9262933, "date": {"mer. 18.05.2011": {"weekday": "wednesday", "year": 2011, "categories": {"HJ": {"pace": 368000000000, "rank": 69, "distance": 13, "time": 4713.1}}, "day": 18, "month": 5, "livingplace": "Montezillon"}}, "location": "Couvet"}, "BCN Tour Neuch\u00e2tel": {"race": "BCN Tour Neuch\u00e2tel", "longitude": 6.9292732, "latitude": 46.9899874, "date": {"mer. 25.05.2011": {"weekday": "wednesday", "year": 2011, "categories": {"HJ": {"pace": 399000000000, "rank": 107, "distance": 11, "time": 4556.8}}, "day": 25, "month": 5, "livingplace": "Montezillon"}}, "location": "Neuch\u00e2tel"}, "BCN Tour Auvernier": {"race": "BCN Tour Auvernier", "longitude": 6.8589727, "latitude": 46.9668714, "date": {"mer. 20.04.2011": {"weekday": "wednesday", "year": 2011, "categories": {"HJ": {"pace": 396000000000, "rank": 65, "distance": 11, "time": 4278.2}}, "day": 20, "month": 4, "livingplace": "Montezillon"}}, "location": "Colombier NE"}, "BCN Tour La Chaux-de-Fonds": {"race": "BCN Tour La Chaux-de-Fonds", "longitude": 6.832783800000001, "latitude": 47.1034892, "date": {"mer. 11.05.2011": {"weekday": "wednesday", "year": 2011, "categories": {"HJ": {"pace": 424000000000, "rank": 75, "distance": 11, "time": 4538.1}}, "day": 11, "month": 5, "livingplace": "Montezillon"}}, "location": "La Chaux-de-Fonds"}, "BCN Tour Fontaine Cernier": {"race": "BCN Tour Fontaine Cernier", "longitude": 6.9175754, "latitude": 47.0624261, "date": {"mer. 27.04.2011": {"weekday": "wednesday", "year": 2011, "categories": {"HJ": {"pace": 333000000000, "rank": 83, "distance": 10, "time": 3438.5}}, "day": 27, "month": 4, "livingplace": "Montezillon"}}, "location": "Ch\u00e9zard-St-Martin"}, "Ch\u00e4sitzerlouf, Kehrsatz": {"race": "Ch\u00e4sitzerlouf, Kehrsatz", "date": {"sam. 04.05.2013": {"weekday": "saturday", "year": 2013, "categories": {"12-M20": {"pace": 340000000000, "rank": 66, "distance": 12, "time": 4090.5}}, "day": 4, "month": 5, "livingplace": "Montmollin"}}, "location": "Kehrsatz"}, "BCN Tour La Br\u00e9vine": {"race": "BCN Tour La Br\u00e9vine", "longitude": 6.733554799999999, "latitude": 46.999113, "date": {"mer. 04.05.2011": {"weekday": "wednesday", "year": 2011, "categories": {"HJ": {"pace": 354000000000, "rank": 80, "distance": 10, "time": 3542.2}}, "day": 4, "month": 5, "livingplace": "Montezillon"}}, "location": "Les Ponts-de-Martel"}}, "name": "Weber Kevin", "birth": 1993}