{"sex": "M", "races": {"Bieler Lauftage, Biel Bienne": {"race": "Bieler Lauftage, Biel Bienne", "longitude": 7.2467909, "latitude": 47.1367785, "date": {"jeu. 11.06.2015": {"weekday": "thursday", "year": 2015, "categories": {"100-M35": {"pace": 410000000000, "rank": 28, "distance": 100, "time": 41087.1}}, "day": 11, "month": 6, "livingplace": "Zollikofen"}}, "location": "Biel/Bienne"}, "Glacier 3000 Run, Gstaad": {"race": "Glacier 3000 Run, Gstaad", "longitude": 7.2865728, "latitude": 46.4717588, "date": {"sam. 10.08.2013": {"weekday": "saturday", "year": 2013, "categories": {"M30": {"pace": 631000000000, "rank": 88, "distance": 26, "time": 16410.5}}, "day": 10, "month": 8, "livingplace": "Zollikofen"}}, "location": "Gstaad"}, "Eiger Ultra Trail, Grindelwald": {"race": "Eiger Ultra Trail, Grindelwald", "longitude": 8.0413962, "latitude": 46.624164, "date": {"sam. 18.07.2015": {"weekday": "saturday", "year": 2015, "categories": {"A-H": {"pace": 696000000000, "rank": 83, "distance": 101, "time": 70369.5}}, "day": 18, "month": 7, "livingplace": "Zollikofen"}}, "location": "Grindelwald"}, "Bl\u00fcemlisalp-Lauf, Reichenbach": {"race": "Bl\u00fcemlisalp-Lauf, Reichenbach", "longitude": 7.6940529, "latitude": 46.6254387, "date": {"dim. 24.05.2015": {"weekday": "sunday", "year": 2015, "categories": {"M30": {"pace": 380000000000, "rank": 71, "distance": 16, "time": 6129.7}}, "day": 24, "month": 5, "livingplace": "Zollikofen"}, "dim. 25.05.2014": {"weekday": "sunday", "year": 2014, "categories": {"M30": {"pace": 388000000000, "rank": 84, "distance": 16, "time": 6255.7}}, "day": 25, "month": 5, "livingplace": "Zollikofen"}}, "location": "Reichenbach im Kandertal"}, "Brienzerseelauf, B\u00f6nigen": {"race": "Brienzerseelauf, B\u00f6nigen", "date": {"sam. 10.10.2015": {"weekday": "saturday", "year": 2015, "categories": {"1-M20": {"pace": 314000000000, "rank": 29, "distance": 35, "time": 10990.6}}, "day": 10, "month": 10, "livingplace": "Zollikofen"}}, "location": "B\u00f6nigen b. Interlaken"}, "ASICS Bremgarter Reusslauf": {"race": "ASICS Bremgarter Reusslauf", "longitude": 8.3397905, "latitude": 47.34917739999999, "date": {"sam. 22.02.2014": {"weekday": "saturday", "year": 2014, "categories": {"11-M30": {"pace": 273000000000, "rank": 245, "distance": 11, "time": 3005.6}}, "day": 22, "month": 2, "livingplace": "Zollikofen"}}, "location": "Bremgarten AG"}, "Z\u00fcrich Marathon, Teamrun und Cityrun": {"race": "Z\u00fcrich Marathon, Teamrun und Cityrun", "longitude": 8.541694, "latitude": 47.3768866, "date": {"dim. 19.04.2015": {"weekday": "sunday", "year": 2015, "categories": {"42-M30": {"pace": 335000000000, "rank": 438, "distance": 42, "time": 14171.7}}, "day": 19, "month": 4, "livingplace": "Zollikofen"}}, "location": "Z\u00fcrich"}, "Kerzerslauf": {"race": "Kerzerslauf", "longitude": 7.1954365, "latitude": 46.97488999999999, "date": {"sam. 15.03.2014": {"weekday": "saturday", "year": 2014, "categories": {"15-M20": {"pace": 283000000000, "rank": 332, "distance": 15, "time": 4250.7}}, "day": 15, "month": 3, "livingplace": "Zollikofen"}}, "location": "Kerzers"}, "Aletsch-Halbmarathon, Bettmeralp": {"race": "Aletsch-Halbmarathon, Bettmeralp", "date": {"dim. 28.06.2015": {"weekday": "sunday", "year": 2015, "categories": {"M35": {"pace": 447000000000, "rank": 89, "distance": 21, "time": 9449.0}}, "day": 28, "month": 6, "livingplace": "Zollikofen"}}, "location": "Bettmeralp"}}, "name": "Weber Andreas", "birth": 1980}