{"sex": "M", "races": {"Course de l'Escalade, Gen\u00e8ve": {"race": "Course de l'Escalade, Gen\u00e8ve", "longitude": 6.1431577, "latitude": 46.2043907, "date": {"sam. 05.12.2009": {"weekday": "saturday", "year": 2009, "categories": {"Hommes2": {"pace": 354000000000, "rank": 1723, "distance": 7, "time": 2572.3}}, "day": 5, "month": 12, "livingplace": "Senarclens"}, "sam. 01.12.2012": {"weekday": "saturday", "year": 2012, "categories": {"Esc-Hom2": {"pace": 282000000000, "rank": 518, "distance": 7, "time": 2048.3}}, "day": 1, "month": 12, "livingplace": "Echichens"}, "sam. 04.12.2010": {"weekday": "saturday", "year": 2010, "categories": {"H-H2": {"pace": 307000000000, "rank": 1402, "distance": 7, "time": 2231.4}}, "day": 4, "month": 12, "livingplace": "Echichens"}}, "location": "Gen\u00e8ve"}, "Tour du Pays de Vaud #3 - Chavornay": {"race": "Tour du Pays de Vaud #3 - Chavornay", "longitude": 6.641183, "latitude": 46.7784736, "date": {"mer. 28.08.2013": {"weekday": "wednesday", "year": 2013, "categories": {"H-Sen1": {"pace": 299000000000, "rank": 105, "distance": 9, "time": 2669.8}}, "day": 28, "month": 8, "livingplace": "Echichens"}}, "location": "Yverdon-les-Bains"}, "Tour du Pays de Vaud #2 - Genolier": {"race": "Tour du Pays de Vaud #2 - Genolier", "longitude": 6.7702883, "latitude": 46.5955273, "date": {"mer. 15.08.2012": {"weekday": "wednesday", "year": 2012, "categories": {"H-Sen1": {"pace": 283000000000, "rank": 81, "distance": 9, "time": 2412.1}}, "day": 15, "month": 8, "livingplace": "Echichens"}}, "location": "M\u00e9zi\u00e8res VD"}, "Tour du Pays de Vaud #4 - La Sarraz": {"race": "Tour du Pays de Vaud #4 - La Sarraz", "longitude": 6.5707689, "latitude": 46.7088129, "date": {"mer. 29.08.2012": {"weekday": "wednesday", "year": 2012, "categories": {"H-Sen1": {"pace": 268000000000, "rank": 61, "distance": 9, "time": 2279.7}}, "day": 29, "month": 8, "livingplace": "Echichens"}}, "location": "Chavornay"}, "Tour de Presinge": {"race": "Tour de Presinge", "longitude": 6.2535283, "latitude": 46.21860299999999, "date": {"dim. 18.03.2012": {"weekday": "sunday", "year": 2012, "categories": {"10-H1": {"pace": 289000000000, "rank": 62, "distance": 10, "time": 2893.8}}, "day": 18, "month": 3, "livingplace": "Echichens"}, "dim. 17.03.2013": {"weekday": "sunday", "year": 2013, "categories": {"10-H1": {"pace": 288000000000, "rank": 57, "distance": 10, "time": 2883.9}}, "day": 17, "month": 3, "livingplace": "Echichens"}}, "location": "Presinge"}, "Internationaler Matterhornlauf, Zermatt": {"race": "Internationaler Matterhornlauf, Zermatt", "date": {"sam. 25.08.2012": {"weekday": "saturday", "year": 2012, "categories": {"MHL-M30": {"pace": 472000000000, "rank": 36, "distance": 12, "time": 5904.6}}, "day": 25, "month": 8, "livingplace": "Echichens"}}, "location": "Zermatt"}, "Lausanne Marathon": {"race": "Lausanne Marathon", "longitude": 6.6322734, "latitude": 46.5196535, "date": {"dim. 26.10.2014": {"weekday": "sunday", "year": 2014, "categories": {"10-H30": {"pace": 280000000000, "rank": 261, "distance": 10, "time": 2804.2}}, "day": 26, "month": 10, "livingplace": "Echichens"}}, "location": "Lausanne"}, "Tour du pays de Vaud #1 - Penthaz": {"race": "Tour du pays de Vaud #1 - Penthaz", "longitude": 6.539251200000001, "latitude": 46.5993131, "date": {"mer. 08.08.2012": {"weekday": "wednesday", "year": 2012, "categories": {"H-Sen1": {"pace": 277000000000, "rank": 58, "distance": 9, "time": 2368.8}}, "day": 8, "month": 8, "livingplace": "Echichens"}}, "location": "Penthaz"}, "Morat-Fribourg": {"race": "Morat-Fribourg", "longitude": 7.120184, "latitude": 46.92922110000001, "date": {"sam. 06.10.2012": {"weekday": "saturday", "year": 2012, "categories": {"17-M20": {"pace": 301000000000, "rank": 993, "distance": 17, "time": 5260.8}}, "day": 6, "month": 10, "livingplace": "Echichens"}}, "location": "Murten"}, "20km de Lausanne": {"race": "20km de Lausanne", "longitude": 6.6322734, "latitude": 46.5196535, "date": {"sam. 28.04.2012": {"weekday": "saturday", "year": 2012, "categories": {"20-H30": {"pace": 346000000000, "rank": 632, "distance": 20, "time": 6939.0}}, "day": 28, "month": 4, "livingplace": "Echichens"}}, "location": "Lausanne"}, "Semi-Marathon de la C\u00f4te, Allaman-Nyon": {"race": "Semi-Marathon de la C\u00f4te, Allaman-Nyon", "longitude": 6.2347852, "latitude": 46.3832683, "date": {"dim. 14.09.2014": {"weekday": "sunday", "year": 2014, "categories": {"21-H30": {"pace": 318000000000, "rank": 166, "distance": 21, "time": 6722.0}}, "day": 14, "month": 9, "livingplace": "Echichens"}}, "location": "Nyon"}}, "name": "Wegmann Alexandre", "birth": 1978}