{"sex": "M", "races": {"Pfingstlauf Wohlen AG": {"race": "Pfingstlauf Wohlen AG", "longitude": 8.2768762, "latitude": 47.3493653, "date": {"sam. 26.05.2012": {"weekday": "saturday", "year": 2012, "categories": {"8-10-M20": {"pace": 283000000000, "rank": 22, "distance": 10, "time": 2832.3}}, "day": 26, "month": 5, "livingplace": "Sulz"}}, "location": "Wohlen AG"}, "Glacier 3000 Run, Gstaad": {"race": "Glacier 3000 Run, Gstaad", "longitude": 7.2865728, "latitude": 46.4717588, "date": {"sam. 10.08.2013": {"weekday": "saturday", "year": 2013, "categories": {"M20": {"pace": 571000000000, "rank": 23, "distance": 26, "time": 14870.8}}, "day": 10, "month": 8, "livingplace": "Sulz"}}, "location": "Gstaad"}, "Bl\u00fcemlisalp-Lauf, Reichenbach": {"race": "Bl\u00fcemlisalp-Lauf, Reichenbach", "longitude": 7.6940529, "latitude": 46.6254387, "date": {"dim. 25.05.2014": {"weekday": "sunday", "year": 2014, "categories": {"M30": {"pace": 377000000000, "rank": 71, "distance": 16, "time": 6081.5}}, "day": 25, "month": 5, "livingplace": "Sulz"}}, "location": "Reichenbach im Kandertal"}, "Badener Limmat-Lauf, Baden": {"race": "Badener Limmat-Lauf, Baden", "longitude": 8.5303972, "latitude": 48.5699281, "date": {"sam. 24.03.2012": {"weekday": "saturday", "year": 2012, "categories": {"M20": {"pace": 272000000000, "rank": 33, "distance": 13, "time": 3594.1}}, "day": 24, "month": 3, "livingplace": "Sulz"}}, "location": "Baden"}, "IWB Basel Marathon": {"race": "IWB Basel Marathon", "longitude": 7.5885761, "latitude": 47.5595986, "date": {"dim. 28.09.2014": {"weekday": "sunday", "year": 2014, "categories": {"21-M30": {"pace": 284000000000, "rank": 76, "distance": 21, "time": 6002.2}}, "day": 28, "month": 9, "livingplace": "Arlesheim"}}, "location": "Basel"}, "Hallwilerseelauf, Beinwil am See": {"race": "Hallwilerseelauf, Beinwil am See", "date": {"sam. 15.10.2011": {"weekday": "saturday", "year": 2011, "categories": {"21-M20": {"pace": 294000000000, "rank": 156, "distance": 21, "time": 6208.1}}, "day": 15, "month": 10, "livingplace": "Sulz"}}, "location": "Beinwil am See"}, "ASICS Bremgarter Reusslauf": {"race": "ASICS Bremgarter Reusslauf", "longitude": 8.3397905, "latitude": 47.34917739999999, "date": {"sam. 25.02.2012": {"weekday": "saturday", "year": 2012, "categories": {"M20": {"pace": 261000000000, "rank": 100, "distance": 11, "time": 2878.8}}, "day": 25, "month": 2, "livingplace": "Sulz"}}, "location": "Bremgarten AG"}, "Kerzerslauf": {"race": "Kerzerslauf", "longitude": 7.1954365, "latitude": 46.97488999999999, "date": {"sam. 21.03.2015": {"weekday": "saturday", "year": 2015, "categories": {"15-M20": {"pace": 267000000000, "rank": 225, "distance": 15, "time": 4019.5}}, "day": 21, "month": 3, "livingplace": "Arlesheim"}}, "location": "Kerzers"}, "Basler Stadtlauf": {"race": "Basler Stadtlauf", "longitude": 7.5885761, "latitude": 47.5595986, "date": {"sam. 29.11.2014": {"weekday": "saturday", "year": 2014, "categories": {"M30": {"pace": 265000000000, "rank": 176, "distance": 6, "time": 1459.4}}, "day": 29, "month": 11, "livingplace": "Arlesheim"}}, "location": "Basel"}}, "name": "Weiss Pascal", "birth": 1984}