{"sex": "M", "races": {"Int Greifenseelauf, Uster": {"race": "Int Greifenseelauf, Uster", "longitude": 8.717873899999999, "latitude": 47.3482747, "date": {"sam. 22.09.2007": {"weekday": "saturday", "year": 2007, "categories": {"H/M30": {"pace": 312000000000, "rank": 321, "distance": 21, "time": 6596.3}}, "day": 22, "month": 9, "livingplace": "Zurich"}}, "location": "Uster"}, "Birslauf Basel": {"race": "Birslauf Basel", "longitude": 7.5885761, "latitude": 47.5595986, "date": {"sam. 27.03.2010": {"weekday": "saturday", "year": 2010, "categories": {"M": {"pace": 258000000000, "rank": 105, "distance": 10, "time": 2588.9}}, "day": 27, "month": 3, "livingplace": "Zurich"}}, "location": "Basel"}, "Birslauf (Herbst), Basel": {"race": "Birslauf (Herbst), Basel", "longitude": 7.5885761, "latitude": 47.5595986, "date": {"sam. 06.09.2008": {"weekday": "saturday", "year": 2008, "categories": {"M": {"pace": 268000000000, "rank": 143, "distance": 10, "time": 2685.6}}, "day": 6, "month": 9, "livingplace": "Zurich"}}, "location": "Basel"}, "Hallwilerseelauf, Beinwil am See": {"race": "Hallwilerseelauf, Beinwil am See", "date": {"sam. 16.10.2010": {"weekday": "saturday", "year": 2010, "categories": {"21-M30": {"pace": 252000000000, "rank": 102, "distance": 21, "time": 5317.2}}, "day": 16, "month": 10, "livingplace": "Zurich"}}, "location": "Beinwil am See"}, "Kerzerslauf": {"race": "Kerzerslauf", "longitude": 7.1954365, "latitude": 46.97488999999999, "date": {"sam. 20.03.2010": {"weekday": "saturday", "year": 2010, "categories": {"15-M35": {"pace": 249000000000, "rank": 96, "distance": 15, "time": 3737.1}}, "day": 20, "month": 3, "livingplace": "Zurich"}}, "location": "Kerzers"}, "Z\u00fcrich Marathon, Teamrun und Cityrun": {"race": "Z\u00fcrich Marathon, Teamrun und Cityrun", "longitude": 8.541694, "latitude": 47.3768866, "date": {"dim. 20.04.2008": {"weekday": "sunday", "year": 2008, "categories": {"M30": {"pace": 372000000000, "rank": 956, "distance": 42, "time": 15724.7}}, "day": 20, "month": 4, "livingplace": "Zurich"}, "dim. 11.04.2010": {"weekday": "sunday", "year": 2010, "categories": {"M30": {"pace": 273000000000, "rank": 131, "distance": 42, "time": 11522.2}}, "day": 11, "month": 4, "livingplace": "Zurich"}, "dim. 26.04.2009": {"weekday": "sunday", "year": 2009, "categories": {"M30": {"pace": 298000000000, "rank": 360, "distance": 42, "time": 12594.7}}, "day": 26, "month": 4, "livingplace": "Zurich"}}, "location": "Z\u00fcrich"}, "Lausanne Marathon": {"race": "Lausanne Marathon", "longitude": 6.6322734, "latitude": 46.5196535, "date": {"dim. 30.10.2011": {"weekday": "sunday", "year": 2011, "categories": {"42-H2": {"pace": 295000000000, "rank": 97, "distance": 42, "time": 12456.1}}, "day": 30, "month": 10, "livingplace": "Zurich"}}, "location": "Lausanne"}, "Basler Stadtlauf": {"race": "Basler Stadtlauf", "longitude": 7.5885761, "latitude": 47.5595986, "date": {"sam. 29.11.2008": {"weekday": "saturday", "year": 2008, "categories": {"N": {"pace": 248000000000, "rank": 65, "distance": 6, "time": 1364.2}}, "day": 29, "month": 11, "livingplace": "Zurich"}}, "location": "Basel"}, "Z\u00fcrcher Silvesterlauf, Z\u00fcrich": {"race": "Z\u00fcrcher Silvesterlauf, Z\u00fcrich", "longitude": 8.541694, "latitude": 47.3768866, "date": {"dim. 14.12.2008": {"weekday": "sunday", "year": 2008, "categories": {"MenAK1-8": {"pace": 256000000000, "rank": 234, "distance": 9, "time": 2209.4}}, "day": 14, "month": 12, "livingplace": "Zurich"}, "dim. 13.12.2009": {"weekday": "sunday", "year": 2009, "categories": {"8-MenAK1": {"pace": 301000000000, "rank": 707, "distance": 9, "time": 2590.9}}, "day": 13, "month": 12, "livingplace": "Zurich"}}, "location": "Z\u00fcrich"}}, "name": "Westphalen Alexander", "birth": 1974}