{"sex": "F", "races": {"Gempenlauf, Dornach": {"race": "Gempenlauf, Dornach", "longitude": 7.6170412, "latitude": 47.4790491, "date": {"mer. 04.06.2014": {"weekday": "wednesday", "year": 2014, "categories": {"F45": {"pace": 424000000000, "rank": 28, "distance": 8, "time": 3311.0}}, "day": 4, "month": 6, "livingplace": "Nuglar"}}, "location": "Dornach"}, "Int Greifenseelauf, Uster": {"race": "Int Greifenseelauf, Uster", "longitude": 8.717873899999999, "latitude": 47.3482747, "date": {"sam. 19.09.2009": {"weekday": "saturday", "year": 2009, "categories": {"H-W40": {"pace": 357000000000, "rank": 294, "distance": 21, "time": 7534.5}}, "day": 19, "month": 9, "livingplace": "Nuglar"}}, "location": "Uster"}, "Lucerne Marathon, Luzern": {"race": "Lucerne Marathon, Luzern", "longitude": 8.3093072, "latitude": 47.05016819999999, "date": {"dim. 25.10.2009": {"weekday": "sunday", "year": 2009, "categories": {"H-F40": {"pace": 336000000000, "rank": 231, "distance": 21, "time": 7095.1}}, "day": 25, "month": 10, "livingplace": "Nuglar"}, "dim. 28.10.2012": {"weekday": "sunday", "year": 2012, "categories": {"M-F40": {"pace": 362000000000, "rank": 61, "distance": 42, "time": 15289.6}}, "day": 28, "month": 10, "livingplace": "Nuglar"}}, "location": "Luzern"}, "Bieler Lauftage, Biel Bienne": {"race": "Bieler Lauftage, Biel Bienne", "longitude": 7.2467909, "latitude": 47.1367785, "date": {"jeu. 11.06.2015": {"weekday": "thursday", "year": 2015, "categories": {"H-W50": {"pace": 357000000000, "rank": 9, "distance": 21, "time": 7532.9}}, "day": 11, "month": 6, "livingplace": "Nuglar"}}, "location": "Biel/Bienne"}, "Basel City Marathon": {"race": "Basel City Marathon", "longitude": 7.5885761, "latitude": 47.5595986, "date": {"dim. 28.08.2005": {"weekday": "sunday", "year": 2005, "categories": {"F40": {"pace": 359000000000, "rank": 58, "distance": 42, "time": 15181.0}}, "day": 28, "month": 8, "livingplace": "Nuglar"}, "dim. 03.09.2006": {"weekday": "sunday", "year": 2006, "categories": {"M-F40": {"pace": 376000000000, "rank": 30, "distance": 42, "time": 15906.0}}, "day": 3, "month": 9, "livingplace": "Nuglar"}}, "location": "Basel"}, "IWB Basel Marathon": {"race": "IWB Basel Marathon", "longitude": 7.5885761, "latitude": 47.5595986, "date": {"dim. 23.09.2012": {"weekday": "sunday", "year": 2012, "categories": {"H-21-F45": {"pace": 337000000000, "rank": 17, "distance": 21, "time": 7111.2}}, "day": 23, "month": 9, "livingplace": "Nuglar"}}, "location": "Basel"}, "Z\u00fcrich Marathon, Teamrun und Cityrun": {"race": "Z\u00fcrich Marathon, Teamrun und Cityrun", "longitude": 8.541694, "latitude": 47.3768866, "date": {"dim. 17.04.2011": {"weekday": "sunday", "year": 2011, "categories": {"42-W45": {"pace": 364000000000, "rank": 82, "distance": 42, "time": 15383.0}}, "day": 17, "month": 4, "livingplace": "Nuglar"}}, "location": "Z\u00fcrich"}, "Jungfrau-Marathon, Interlaken": {"race": "Jungfrau-Marathon, Interlaken", "date": {"sam. 11.09.2004": {"weekday": "saturday", "year": 2004, "categories": {"F20": {"pace": 472000000000, "rank": 164, "distance": 42, "time": 19927.5}}, "day": 11, "month": 9, "livingplace": "Nuglar"}, "sam. 10.09.2011": {"weekday": "saturday", "year": 2011, "categories": {"F45": {"pace": 508000000000, "rank": 128, "distance": 42, "time": 21442.8}}, "day": 10, "month": 9, "livingplace": "Nuglar"}}, "location": "Interlaken"}, "Z\u00fcrcher Silvesterlauf, Z\u00fcrich": {"race": "Z\u00fcrcher Silvesterlauf, Z\u00fcrich", "longitude": 8.541694, "latitude": 47.3768866, "date": {"dim. 12.12.2010": {"weekday": "sunday", "year": 2010, "categories": {"8-DaAK2": {"pace": 326000000000, "rank": 242, "distance": 9, "time": 2809.7}}, "day": 12, "month": 12, "livingplace": "Nuglar"}}, "location": "Z\u00fcrich"}}, "name": "Wey Mirjam", "birth": 1965}