{"sex": "M", "races": {"La Trotteuse-Tissot, La Chaux-de-Fonds": {"race": "La Trotteuse-Tissot, La Chaux-de-Fonds", "longitude": 6.832783800000001, "latitude": 47.1034892, "date": {"sam. 17.12.2011": {"weekday": "saturday", "year": 2011, "categories": {"GC-H30": {"pace": 296000000000, "rank": 64, "distance": 8, "time": 2372.9}}, "day": 17, "month": 12, "livingplace": "Ittigen"}}, "location": "La Chaux-de-Fonds"}, "Winterthur Marathon": {"race": "Winterthur Marathon", "longitude": -75.6037351, "latitude": 39.8088766, "date": {"dim. 29.05.2011": {"weekday": "sunday", "year": 2011, "categories": {"H-M30": {"pace": 295000000000, "rank": 123, "distance": 21, "time": 6200.5}}, "day": 29, "month": 5, "livingplace": "Ittigen"}}, "location": "Winterthur"}, "ASICS Bremgarter Reusslauf": {"race": "ASICS Bremgarter Reusslauf", "longitude": 8.3397905, "latitude": 47.34917739999999, "date": {"sam. 27.02.2010": {"weekday": "saturday", "year": 2010, "categories": {"M30": {"pace": 285000000000, "rank": 254, "distance": 11, "time": 3139.1}}, "day": 27, "month": 2, "livingplace": "Lyss"}}, "location": "Bremgarten AG"}, "Ch\u00e4sitzerlouf, Kehrsatz": {"race": "Ch\u00e4sitzerlouf, Kehrsatz", "date": {"sam. 30.04.2011": {"weekday": "saturday", "year": 2011, "categories": {"12-M30": {"pace": 288000000000, "rank": 81, "distance": 12, "time": 3461.9}}, "day": 30, "month": 4, "livingplace": "Ittigen"}, "sam. 25.04.2015": {"weekday": "saturday", "year": 2015, "categories": {"12-M30": {"pace": 313000000000, "rank": 106, "distance": 12, "time": 3767.2}}, "day": 25, "month": 4, "livingplace": "Ittigen"}}, "location": "Kehrsatz"}, "10km, Payerne": {"race": "10km, Payerne", "longitude": 6.9405663, "latitude": 46.8220266, "date": {"sam. 16.04.2011": {"weekday": "saturday", "year": 2011, "categories": {"M30": {"pace": 266000000000, "rank": 32, "distance": 10, "time": 2661.9}}, "day": 16, "month": 4, "livingplace": "Ittigen"}}, "location": "Payerne"}, "Kerzerslauf": {"race": "Kerzerslauf", "longitude": 7.1954365, "latitude": 46.97488999999999, "date": {"sam. 19.03.2011": {"weekday": "saturday", "year": 2011, "categories": {"15-M20": {"pace": 314000000000, "rank": 400, "distance": 15, "time": 4713.7}}, "day": 19, "month": 3, "livingplace": "Ittigen"}, "sam. 21.03.2015": {"weekday": "saturday", "year": 2015, "categories": {"15-M35": {"pace": 328000000000, "rank": 338, "distance": 15, "time": 4932.9}}, "day": 21, "month": 3, "livingplace": "Ittigen"}}, "location": "Kerzers"}, "20km de Lausanne": {"race": "20km de Lausanne", "longitude": 6.6322734, "latitude": 46.5196535, "date": {"sam. 24.04.2010": {"weekday": "saturday", "year": 2010, "categories": {"20-H30": {"pace": 298000000000, "rank": 367, "distance": 20, "time": 5960.0}}, "day": 24, "month": 4, "livingplace": "Lyss"}}, "location": "Lausanne"}, "Z\u00fcrcher Silvesterlauf, Z\u00fcrich": {"race": "Z\u00fcrcher Silvesterlauf, Z\u00fcrich", "longitude": 8.541694, "latitude": 47.3768866, "date": {"dim. 12.12.2010": {"weekday": "sunday", "year": 2010, "categories": {"8-MenAK1": {"pace": 294000000000, "rank": 591, "distance": 9, "time": 2535.0}}, "day": 12, "month": 12, "livingplace": "Ittigen"}}, "location": "Z\u00fcrich"}}, "name": "Widmer Alexander", "birth": 1977}