{"sex": "M", "races": {"Laufsporttag Winterthur": {"race": "Laufsporttag Winterthur", "longitude": -75.6037351, "latitude": 39.8088766, "date": {"sam. 06.03.2004": {"weekday": "saturday", "year": 2004, "categories": {"A": {"pace": 216000000000, "rank": 9, "distance": 11, "time": 2386.2}}, "day": 6, "month": 3, "livingplace": "Wil"}}, "location": "Winterthur"}, "Frauenfelder": {"race": "Frauenfelder", "date": {"dim. 20.11.2011": {"weekday": "sunday", "year": 2011, "categories": {"HM-M30": {"pace": 225000000000, "rank": 10, "distance": 21, "time": 4753.9}}, "day": 20, "month": 11, "livingplace": "Mosnang"}}, "location": "Frauenfeld"}, "Schlosslauf Rapperswil-Jona": {"race": "Schlosslauf Rapperswil-Jona", "longitude": 8.818437399999999, "latitude": 47.2266239, "date": {"dim. 18.10.2015": {"weekday": "sunday", "year": 2015, "categories": {"10-M2": {"pace": 203000000000, "rank": 2, "distance": 10, "time": 2031.5}}, "day": 18, "month": 10, "livingplace": "Mosnang"}}, "location": "Rapperswil SG"}, "Z\u00fcrich Marathon, Teamrun und Cityrun": {"race": "Z\u00fcrich Marathon, Teamrun und Cityrun", "longitude": 8.541694, "latitude": 47.3768866, "date": {"dim. 03.04.2005": {"weekday": "sunday", "year": 2005, "categories": {"M20": {"pace": 223000000000, "rank": 19, "distance": 42, "time": 9416.4}}, "day": 3, "month": 4, "livingplace": "Wil"}}, "location": "Z\u00fcrich"}, "SwissCityMarathon - Lucerne, Luzern": {"race": "SwissCityMarathon - Lucerne, Luzern", "longitude": 8.3093072, "latitude": 47.05016819999999, "date": {"dim. 25.10.2015": {"weekday": "sunday", "year": 2015, "categories": {"M-M35": {"pace": 229000000000, "rank": 2, "distance": 42, "time": 9669.5}}, "day": 25, "month": 10, "livingplace": "Mosnang"}}, "location": "Luzern"}, "Int Greifenseelauf, Uster": {"race": "Int Greifenseelauf, Uster", "longitude": 8.717873899999999, "latitude": 47.3482747, "date": {"sam. 17.09.2005": {"weekday": "saturday", "year": 2005, "categories": {"H/M20": {"pace": 235000000000, "rank": 38, "distance": 21, "time": 4974.7}}, "day": 17, "month": 9, "livingplace": "Wil"}}, "location": "Uster"}}, "name": "Widmer Stefan", "birth": 1978}