{"sex": "F", "races": {"Tour du Chablais #5 Leysin": {"race": "Tour du Chablais #5 Leysin", "longitude": 6.931504599999999, "latitude": 46.3603257, "date": {"mer. 05.05.2010": {"weekday": "wednesday", "year": 2010, "categories": {"F-F20": {"pace": 347000000000, "rank": 49, "distance": 8, "time": 2940.5}}, "day": 5, "month": 5, "livingplace": "Dorenaz"}}, "location": "Roche VD"}, "Tour du Chablais #4 Yvorne": {"race": "Tour du Chablais #4 Yvorne", "date": {"mer. 28.04.2010": {"weekday": "wednesday", "year": 2010, "categories": {"F-F20": {"pace": 341000000000, "rank": 51, "distance": 8, "time": 2829.3}}, "day": 28, "month": 4, "livingplace": "Dorenaz"}}, "location": "Les Mosses"}, "Tour du Chablais #3 Bex": {"race": "Tour du Chablais #3 Bex", "longitude": 7.0223787, "latitude": 46.1782231, "date": {"mer. 21.04.2010": {"weekday": "wednesday", "year": 2010, "categories": {"F-F20": {"pace": 324000000000, "rank": 60, "distance": 10, "time": 3249.1}}, "day": 21, "month": 4, "livingplace": "Dorenaz"}}, "location": "Evionnaz"}, "Tour du Chablais #1 Roche": {"race": "Tour du Chablais #1 Roche", "longitude": 6.9916269, "latitude": 46.2957462, "date": {"mer. 07.04.2010": {"weekday": "wednesday", "year": 2010, "categories": {"F-F20": {"pace": 317000000000, "rank": 58, "distance": 9, "time": 2838.0}}, "day": 7, "month": 4, "livingplace": "Dorenaz"}}, "location": "Ollon VD"}, "Morat-Fribourg": {"race": "Morat-Fribourg", "longitude": 7.120184, "latitude": 46.92922110000001, "date": {"sam. 03.10.2009": {"weekday": "saturday", "year": 2009, "categories": {"C-W20": {"pace": 387000000000, "rank": 351, "distance": 17, "time": 6656.1}}, "day": 3, "month": 10, "livingplace": "Dorenaz"}, "sam. 04.10.2008": {"weekday": "saturday", "year": 2008, "categories": {"C-W20": {"pace": 368000000000, "rank": 315, "distance": 17, "time": 6333.9}}, "day": 4, "month": 10, "livingplace": "Dorenaz"}}, "location": "Murten"}, "Tour du Chablais #2 St-Gingolph": {"race": "Tour du Chablais #2 St-Gingolph", "longitude": 6.854975199999999, "latitude": 46.3835529, "date": {"mer. 14.04.2010": {"weekday": "wednesday", "year": 2010, "categories": {"F-F20": {"pace": 341000000000, "rank": 43, "distance": 8, "time": 2848.5}}, "day": 14, "month": 4, "livingplace": "Dorenaz"}}, "location": "Bouveret"}}, "name": "Witschard Nadia", "birth": 1987}