{"sex": "F", "races": {"Int Greifenseelauf, Uster": {"race": "Int Greifenseelauf, Uster", "longitude": 8.717873899999999, "latitude": 47.3482747, "date": {"sam. 19.09.2009": {"weekday": "saturday", "year": 2009, "categories": {"H-W20": {"pace": 350000000000, "rank": 266, "distance": 21, "time": 7396.9}}, "day": 19, "month": 9, "livingplace": "Thun"}}, "location": "Uster"}, "Z\u00fcrich Marathon, Teamrun und Cityrun": {"race": "Z\u00fcrich Marathon, Teamrun und Cityrun", "longitude": 8.541694, "latitude": 47.3768866, "date": {"dim. 22.04.2012": {"weekday": "sunday", "year": 2012, "categories": {"42-W20": {"pace": 345000000000, "rank": 45, "distance": 42, "time": 14592.9}}, "day": 22, "month": 4, "livingplace": "Thun"}}, "location": "Z\u00fcrich"}, "Bl\u00fcemlisalp-Lauf, Reichenbach": {"race": "Bl\u00fcemlisalp-Lauf, Reichenbach", "longitude": 7.6940529, "latitude": 46.6254387, "date": {"dim. 27.05.2012": {"weekday": "sunday", "year": 2012, "categories": {"F20": {"pace": 473000000000, "rank": 12, "distance": 16, "time": 7616.1}}, "day": 27, "month": 5, "livingplace": "Thun"}, "dim. 25.05.2014": {"weekday": "sunday", "year": 2014, "categories": {"F30": {"pace": 422000000000, "rank": 42, "distance": 16, "time": 6799.7}}, "day": 25, "month": 5, "livingplace": "Thun"}}, "location": "Reichenbach im Kandertal"}, "Bieler Lauftage, Biel Bienne": {"race": "Bieler Lauftage, Biel Bienne", "longitude": 7.2467909, "latitude": 47.1367785, "date": {"ven. 12.06.2009": {"weekday": "friday", "year": 2009, "categories": {"H/W20": {"pace": 338000000000, "rank": 15, "distance": 21, "time": 7146.3}}, "day": 12, "month": 6, "livingplace": "Thun"}}, "location": "Biel/Bienne"}, "Thuner Stadtlauf, Thun": {"race": "Thuner Stadtlauf, Thun", "longitude": 7.6279881, "latitude": 46.7579868, "date": {"dim. 24.08.2014": {"weekday": "sunday", "year": 2014, "categories": {"10-F30": {"pace": 401000000000, "rank": 90, "distance": 11, "time": 4323.1}}, "day": 24, "month": 8, "livingplace": "Thun"}}, "location": "Thun"}, "Lausanne Marathon": {"race": "Lausanne Marathon", "longitude": 6.6322734, "latitude": 46.5196535, "date": {"dim. 30.10.2011": {"weekday": "sunday", "year": 2011, "categories": {"42-D1": {"pace": 372000000000, "rank": 17, "distance": 42, "time": 15735.6}}, "day": 30, "month": 10, "livingplace": "Thun"}}, "location": "Lausanne"}, "Lucerne Marathon, Luzern": {"race": "Lucerne Marathon, Luzern", "longitude": 8.3093072, "latitude": 47.05016819999999, "date": {"dim. 25.10.2009": {"weekday": "sunday", "year": 2009, "categories": {"M-F20": {"pace": 380000000000, "rank": 44, "distance": 42, "time": 16069.4}}, "day": 25, "month": 10, "livingplace": "Thun"}}, "location": "Luzern"}, "Jungfrau-Marathon, Interlaken": {"race": "Jungfrau-Marathon, Interlaken", "date": {"sam. 08.09.2012": {"weekday": "saturday", "year": 2012, "categories": {"SA-F20": {"pace": 509000000000, "rank": 296, "distance": 42, "time": 21495.0}}, "day": 8, "month": 9, "livingplace": "Thun"}}, "location": "Interlaken"}, "SwissCityMarathon - Lucerne, Luzern": {"race": "SwissCityMarathon - Lucerne, Luzern", "longitude": 8.3093072, "latitude": 47.05016819999999, "date": {"dim. 25.10.2015": {"weekday": "sunday", "year": 2015, "categories": {"M-W30": {"pace": 333000000000, "rank": 25, "distance": 42, "time": 14092.2}}, "day": 25, "month": 10, "livingplace": "Thun"}}, "location": "Luzern"}}, "name": "Wittwer Jennifer", "birth": 1984}