{"sex": "M", "races": {"Tour du Chablais #1 Lavey": {"race": "Tour du Chablais #1 Lavey", "longitude": 6.9916269, "latitude": 46.2957462, "date": {"mer. 27.04.2011": {"weekday": "wednesday", "year": 2011, "categories": {"M-M20": {"pace": 351000000000, "rank": 235, "distance": 9, "time": 3160.6}}, "day": 27, "month": 4, "livingplace": "Les Evouettes"}}, "location": "Ollon VD"}, "Tour du Chablais #5 Leysin": {"race": "Tour du Chablais #5 Leysin", "longitude": 6.931504599999999, "latitude": 46.3603257, "date": {"mer. 05.05.2010": {"weekday": "wednesday", "year": 2010, "categories": {"M-M20": {"pace": 390000000000, "rank": 146, "distance": 8, "time": 3299.4}}, "day": 5, "month": 5, "livingplace": "Les Evouettes"}}, "location": "Roche VD"}, "Tour du Chablais #4 Yvorne": {"race": "Tour du Chablais #4 Yvorne", "date": {"mer. 28.04.2010": {"weekday": "wednesday", "year": 2010, "categories": {"M-M20": {"pace": 382000000000, "rank": 206, "distance": 8, "time": 3170.6}}, "day": 28, "month": 4, "livingplace": "Les Evouettes"}}, "location": "Les Mosses"}, "Tour du Chablais #1 Roche": {"race": "Tour du Chablais #1 Roche", "longitude": 6.9916269, "latitude": 46.2957462, "date": {"mer. 07.04.2010": {"weekday": "wednesday", "year": 2010, "categories": {"M-M20": {"pace": 373000000000, "rank": 226, "distance": 9, "time": 3339.3}}, "day": 7, "month": 4, "livingplace": "Les Evouettes"}}, "location": "Ollon VD"}, "Lucerne Marathon, Luzern": {"race": "Lucerne Marathon, Luzern", "longitude": 8.3093072, "latitude": 47.05016819999999, "date": {"dim. 31.10.2010": {"weekday": "sunday", "year": 2010, "categories": {"H-M20": {"pace": 402000000000, "rank": 584, "distance": 21, "time": 8487.8}}, "day": 31, "month": 10, "livingplace": "Les Evouettes"}, "dim. 30.10.2011": {"weekday": "sunday", "year": 2011, "categories": {"H-M20": {"pace": 382000000000, "rank": 633, "distance": 21, "time": 8059.5}}, "day": 30, "month": 10, "livingplace": "Les Evouettes"}}, "location": "Luzern"}, "Morat-Fribourg": {"race": "Morat-Fribourg", "longitude": 7.120184, "latitude": 46.92922110000001, "date": {"sam. 01.10.2011": {"weekday": "saturday", "year": 2011, "categories": {"17-M20": {"pace": 383000000000, "rank": 1797, "distance": 17, "time": 6592.9}}, "day": 1, "month": 10, "livingplace": "Les Evouettes"}, "sam. 02.10.2010": {"weekday": "saturday", "year": 2010, "categories": {"17-M20": {"pace": 385000000000, "rank": 1851, "distance": 17, "time": 6616.1}}, "day": 2, "month": 10, "livingplace": "Les Evouettes"}}, "location": "Murten"}, "Tour du Chablais #6 Aigle": {"race": "Tour du Chablais #6 Aigle", "longitude": 6.970566, "latitude": 46.3190253, "date": {"mer. 01.06.2011": {"weekday": "wednesday", "year": 2011, "categories": {"M-M20": {"pace": 380000000000, "rank": 244, "distance": 10, "time": 3877.3}}, "day": 1, "month": 6, "livingplace": "Les Evouettes"}}, "location": "Aigle"}, "20km de Lausanne": {"race": "20km de Lausanne", "longitude": 6.6322734, "latitude": 46.5196535, "date": {"sam. 30.04.2011": {"weekday": "saturday", "year": 2011, "categories": {"20-H20": {"pace": 370000000000, "rank": 490, "distance": 20, "time": 7417.0}}, "day": 30, "month": 4, "livingplace": "Les Evouettes"}, "sam. 27.04.2013": {"weekday": "saturday", "year": 2013, "categories": {"10-H20": {"pace": 346000000000, "rank": 776, "distance": 10, "time": 3468.3}}, "day": 27, "month": 4, "livingplace": "Les Evouettes"}}, "location": "Lausanne"}, "Tour du Chablais #6 Mouthey": {"race": "Tour du Chablais #6 Mouthey", "longitude": 6.970566, "latitude": 46.3190253, "date": {"mer. 12.05.2010": {"weekday": "wednesday", "year": 2010, "categories": {"M-M20": {"pace": 367000000000, "rank": 226, "distance": 9, "time": 3380.6}}, "day": 12, "month": 5, "livingplace": "Les Evouettes"}}, "location": "Aigle"}, "Tour du Chablais #5 Les Mosses": {"race": "Tour du Chablais #5 Les Mosses", "longitude": 6.931504599999999, "latitude": 46.3603257, "date": {"mer. 25.05.2011": {"weekday": "wednesday", "year": 2011, "categories": {"M-M20": {"pace": 382000000000, "rank": 206, "distance": 8, "time": 3056.9}}, "day": 25, "month": 5, "livingplace": "Les Evouettes"}}, "location": "Roche VD"}, "Tour du Chablais #4 Morgins": {"race": "Tour du Chablais #4 Morgins", "date": {"mer. 18.05.2011": {"weekday": "wednesday", "year": 2011, "categories": {"M-M20": {"pace": 373000000000, "rank": 216, "distance": 8, "time": 3122.4}}, "day": 18, "month": 5, "livingplace": "Les Evouettes"}}, "location": "Les Mosses"}, "Tour du Chablais #3 Bex": {"race": "Tour du Chablais #3 Bex", "longitude": 7.0223787, "latitude": 46.1782231, "date": {"mer. 21.04.2010": {"weekday": "wednesday", "year": 2010, "categories": {"M-M20": {"pace": 374000000000, "rank": 203, "distance": 10, "time": 3744.7}}, "day": 21, "month": 4, "livingplace": "Les Evouettes"}}, "location": "Evionnaz"}, "Tour du Chablais #3 Le Bouveret": {"race": "Tour du Chablais #3 Le Bouveret", "longitude": 7.0223787, "latitude": 46.1782231, "date": {"mer. 11.05.2011": {"weekday": "wednesday", "year": 2011, "categories": {"M-M20": {"pace": 337000000000, "rank": 247, "distance": 10, "time": 3372.7}}, "day": 11, "month": 5, "livingplace": "Les Evouettes"}}, "location": "Evionnaz"}, "Tour du Chablais #2 St-Gingolph": {"race": "Tour du Chablais #2 St-Gingolph", "longitude": 6.854975199999999, "latitude": 46.3835529, "date": {"mer. 14.04.2010": {"weekday": "wednesday", "year": 2010, "categories": {"M-M20": {"pace": 395000000000, "rank": 178, "distance": 8, "time": 3298.9}}, "day": 14, "month": 4, "livingplace": "Les Evouettes"}}, "location": "Bouveret"}, "Tour du Chablais #2 Rennaz": {"race": "Tour du Chablais #2 Rennaz", "longitude": 6.854975199999999, "latitude": 46.3835529, "date": {"mer. 04.05.2011": {"weekday": "wednesday", "year": 2011, "categories": {"M-M20": {"pace": 344000000000, "rank": 239, "distance": 9, "time": 3225.6}}, "day": 4, "month": 5, "livingplace": "Les Evouettes"}}, "location": "Bouveret"}}, "name": "Woeffray Kevin", "birth": 1990}