{"sex": "M", "races": {"BCN Tour #4 Fleurier": {"race": "BCN Tour #4 Fleurier", "longitude": 6.832783800000001, "latitude": 47.1034892, "date": {"mer. 15.05.2013": {"weekday": "wednesday", "year": 2013, "categories": {"HS2": {"pace": 317000000000, "rank": 178, "distance": 9, "time": 2747.1}}, "day": 15, "month": 5, "livingplace": "Montezillon"}}, "location": "La Chaux-de-Fonds"}, "BCN Tour Les Ponts de Martel": {"race": "BCN Tour Les Ponts de Martel", "longitude": 6.6324944, "latitude": 46.9262933, "date": {"mer. 18.05.2011": {"weekday": "wednesday", "year": 2011, "categories": {"HS1": {"pace": 308000000000, "rank": 127, "distance": 13, "time": 3948.6}}, "day": 18, "month": 5, "livingplace": "Montezillon"}}, "location": "Couvet"}, "BCN Tour #1 Corcelles": {"race": "BCN Tour #1 Corcelles", "longitude": 6.8589727, "latitude": 46.9668714, "date": {"mer. 24.04.2013": {"weekday": "wednesday", "year": 2013, "categories": {"HS2": {"pace": 314000000000, "rank": 191, "distance": 10, "time": 3082.0}}, "day": 24, "month": 4, "livingplace": "Montezillon"}}, "location": "Colombier NE"}, "BCN Tour La Chaux-de-Fonds": {"race": "BCN Tour La Chaux-de-Fonds", "longitude": 6.832783800000001, "latitude": 47.1034892, "date": {"mer. 11.05.2011": {"weekday": "wednesday", "year": 2011, "categories": {"HS1": {"pace": 348000000000, "rank": 151, "distance": 11, "time": 3728.6}}, "day": 11, "month": 5, "livingplace": "Montezillon"}, "mer. 23.05.2012": {"weekday": "wednesday", "year": 2012, "categories": {"HS2": {"pace": 333000000000, "rank": 218, "distance": 11, "time": 3598.2}}, "day": 23, "month": 5, "livingplace": "Montezillon"}}, "location": "La Chaux-de-Fonds"}, "BCN Tour Auvernier": {"race": "BCN Tour Auvernier", "longitude": 6.8589727, "latitude": 46.9668714, "date": {"mer. 20.04.2011": {"weekday": "wednesday", "year": 2011, "categories": {"HS1": {"pace": 326000000000, "rank": 159, "distance": 11, "time": 3529.2}}, "day": 20, "month": 4, "livingplace": "Montezillon"}}, "location": "Colombier NE"}, "BCN Tour #3 Dombresson": {"race": "BCN Tour #3 Dombresson", "longitude": 6.733554799999999, "latitude": 46.999113, "date": {"mer. 08.05.2013": {"weekday": "wednesday", "year": 2013, "categories": {"HS2": {"pace": 317000000000, "rank": 250, "distance": 10, "time": 3138.7}}, "day": 8, "month": 5, "livingplace": "Montezillon"}}, "location": "Les Ponts-de-Martel"}, "BCN Tour Ponts-de-Martel": {"race": "BCN Tour Ponts-de-Martel", "longitude": 6.9175754, "latitude": 47.0624261, "date": {"mer. 28.04.2010": {"weekday": "wednesday", "year": 2010, "categories": {"HS1": {"pace": 312000000000, "rank": 120, "distance": 11, "time": 3502.6}}, "day": 28, "month": 4, "livingplace": "Montezillon"}}, "location": "Ch\u00e9zard-St-Martin"}, "BCN Tour Fontaine Cernier": {"race": "BCN Tour Fontaine Cernier", "longitude": 6.9175754, "latitude": 47.0624261, "date": {"mer. 27.04.2011": {"weekday": "wednesday", "year": 2011, "categories": {"HS1": {"pace": 297000000000, "rank": 159, "distance": 10, "time": 3065.7}}, "day": 27, "month": 4, "livingplace": "Montezillon"}}, "location": "Ch\u00e9zard-St-Martin"}, "Sierre-Zinal, Sierre": {"race": "Sierre-Zinal, Sierre", "longitude": 7.533536199999999, "latitude": 46.29413110000001, "date": {"dim. 11.08.2013": {"weekday": "sunday", "year": 2013, "categories": {"V\u00e9t_I": {"pace": 680000000000, "rank": 259, "distance": 31, "time": 21082.6}}, "day": 11, "month": 8, "livingplace": "Montezillon"}}, "location": "Sierre"}, "BCN Tour Couvet": {"race": "BCN Tour Couvet", "longitude": 6.9175754, "latitude": 47.0624261, "date": {"mer. 02.05.2012": {"weekday": "wednesday", "year": 2012, "categories": {"HS2": {"pace": 320000000000, "rank": 170, "distance": 11, "time": 3574.2}}, "day": 2, "month": 5, "livingplace": "Montezillon"}}, "location": "Ch\u00e9zard-St-Martin"}, "BCN Tour #5 Colombier": {"race": "BCN Tour #5 Colombier", "longitude": 6.6324944, "latitude": 46.9262933, "date": {"mer. 22.05.2013": {"weekday": "wednesday", "year": 2013, "categories": {"HS2": {"pace": 289000000000, "rank": 199, "distance": 11, "time": 3035.1}}, "day": 22, "month": 5, "livingplace": "Montezillon"}}, "location": "Couvet"}, "BCN Tour Cornaux": {"race": "BCN Tour Cornaux", "longitude": 6.8589727, "latitude": 46.9668714, "date": {"mer. 25.04.2012": {"weekday": "wednesday", "year": 2012, "categories": {"HS2": {"pace": 343000000000, "rank": 156, "distance": 11, "time": 3775.6}}, "day": 25, "month": 4, "livingplace": "Montezillon"}}, "location": "Colombier NE"}, "BCN Tour #2 La Chaux-de-Fonds": {"race": "BCN Tour #2 La Chaux-de-Fonds", "longitude": 6.9175754, "latitude": 47.0624261, "date": {"mer. 01.05.2013": {"weekday": "wednesday", "year": 2013, "categories": {"HS2": {"pace": 315000000000, "rank": 237, "distance": 11, "time": 3378.5}}, "day": 1, "month": 5, "livingplace": "Montezillon"}}, "location": "Ch\u00e9zard-St-Martin"}, "BCN Tour Neuch\u00e2tel": {"race": "BCN Tour Neuch\u00e2tel", "longitude": 6.9292732, "latitude": 46.9899874, "date": {"mer. 25.05.2011": {"weekday": "wednesday", "year": 2011, "categories": {"HS1": {"pace": 331000000000, "rank": 187, "distance": 11, "time": 3773.8}}, "day": 25, "month": 5, "livingplace": "Montezillon"}, "mer. 30.05.2012": {"weekday": "wednesday", "year": 2012, "categories": {"HS2": {"pace": 370000000000, "rank": 266, "distance": 11, "time": 4144.7}}, "day": 30, "month": 5, "livingplace": "Montezillon"}}, "location": "Neuch\u00e2tel"}, "BCN Tour Colombier": {"race": "BCN Tour Colombier", "longitude": 6.8589727, "latitude": 46.9668714, "date": {"mer. 16.05.2012": {"weekday": "wednesday", "year": 2012, "categories": {"HS2": {"pace": 315000000000, "rank": 204, "distance": 11, "time": 3407.5}}, "day": 16, "month": 5, "livingplace": "Montezillon"}, "mer. 21.04.2010": {"weekday": "wednesday", "year": 2010, "categories": {"HS1": {"pace": 322000000000, "rank": 96, "distance": 10, "time": 3226.1}}, "day": 21, "month": 4, "livingplace": "Montezillon"}}, "location": "Colombier NE"}, "BCN Tour #6 Neuch\u00e2tel": {"race": "BCN Tour #6 Neuch\u00e2tel", "longitude": 6.9292732, "latitude": 46.9899874, "date": {"mer. 29.05.2013": {"weekday": "wednesday", "year": 2013, "categories": {"HS2": {"pace": 333000000000, "rank": 211, "distance": 11, "time": 3670.2}}, "day": 29, "month": 5, "livingplace": "Montezillon"}}, "location": "Neuch\u00e2tel"}, "BCN Tour Les Ponts-de-Martel": {"race": "BCN Tour Les Ponts-de-Martel", "longitude": 6.733554799999999, "latitude": 46.999113, "date": {"mer. 09.05.2012": {"weekday": "wednesday", "year": 2012, "categories": {"HS2": {"pace": 321000000000, "rank": 187, "distance": 10, "time": 3311.5}}, "day": 9, "month": 5, "livingplace": "Montezillon"}}, "location": "Les Ponts-de-Martel"}, "Course p\u00e9destre Thyon-Dixence, Thyon": {"race": "Course p\u00e9destre Thyon-Dixence, Thyon", "date": {"dim. 05.08.2012": {"weekday": "sunday", "year": 2012, "categories": {"V\u00e9ter 1": {"pace": 497000000000, "rank": 59, "distance": 16, "time": 8130.5}}, "day": 5, "month": 8, "livingplace": "Montezillon"}, "dim. 03.08.2014": {"weekday": "sunday", "year": 2014, "categories": {"V\u00e9ter 1": {"pace": 486000000000, "rank": 62, "distance": 16, "time": 7952.7}}, "day": 3, "month": 8, "livingplace": "Chezard St Martin"}}, "location": "Thyon-Les Collons"}, "BCN Tour La Br\u00e9vine": {"race": "BCN Tour La Br\u00e9vine", "longitude": 6.733554799999999, "latitude": 46.999113, "date": {"mer. 04.05.2011": {"weekday": "wednesday", "year": 2011, "categories": {"HS1": {"pace": 305000000000, "rank": 130, "distance": 10, "time": 3056.4}}, "day": 4, "month": 5, "livingplace": "Montezillon"}}, "location": "Les Ponts-de-Martel"}, "Aletsch-Halbmarathon, Bettmeralp": {"race": "Aletsch-Halbmarathon, Bettmeralp", "date": {"dim. 29.06.2014": {"weekday": "sunday", "year": 2014, "categories": {"M40": {"pace": 410000000000, "rank": 147, "distance": 13, "time": 5461.7}}, "day": 29, "month": 6, "livingplace": "Chezard St Martin"}}, "location": "Bettmeralp"}, "BCN Tour La Chaux-de-fonds": {"race": "BCN Tour La Chaux-de-fonds", "longitude": 6.832783800000001, "latitude": 47.1034892, "date": {"mer. 12.05.2010": {"weekday": "wednesday", "year": 2010, "categories": {"HS1": {"pace": 375000000000, "rank": 135, "distance": 11, "time": 4019.5}}, "day": 12, "month": 5, "livingplace": "Montezillon"}}, "location": "La Chaux-de-Fonds"}}, "name": "Woehrl\u00e9 Christian", "birth": 1972}