{"sex": "F", "races": {"Corrida Bulloise, Bulle": {"race": "Corrida Bulloise, Bulle", "longitude": 7.057726799999999, "latitude": 46.6154512, "date": {"sam. 19.11.2011": {"weekday": "saturday", "year": 2011, "categories": {"F20": {"pace": 250000000000, "rank": 15, "distance": 6, "time": 1541.1}}, "day": 19, "month": 11, "livingplace": "Geneve"}}, "location": "Bulle"}, "Gurtenclassic, Wabern": {"race": "Gurtenclassic, Wabern", "longitude": 7.448973199999999, "latitude": 46.92901639999999, "date": {"dim. 04.11.2012": {"weekday": "sunday", "year": 2012, "categories": {"15-W40": {"pace": 289000000000, "rank": 1, "distance": 15, "time": 4343.0}}, "day": 4, "month": 11, "livingplace": "Biel/Bienne"}}, "location": "Wabern"}, "Glacier 3000 Run, Gstaad": {"race": "Glacier 3000 Run, Gstaad", "longitude": 7.2865728, "latitude": 46.4717588, "date": {"sam. 09.08.2014": {"weekday": "saturday", "year": 2014, "categories": {"F40": {"pace": 482000000000, "rank": 6, "distance": 26, "time": 12540.5}}, "day": 9, "month": 8, "livingplace": "Bern"}}, "location": "Gstaad"}, "Aletsch-Halbmarathon, Bettmeralp": {"race": "Aletsch-Halbmarathon, Bettmeralp", "date": {"dim. 24.06.2012": {"weekday": "sunday", "year": 2012, "categories": {"F40": {"pace": 410000000000, "rank": 9, "distance": 21, "time": 8691.5}}, "day": 24, "month": 6, "livingplace": "Servoz"}}, "location": "Bettmeralp"}, "Morat-Fribourg": {"race": "Morat-Fribourg", "longitude": 7.120184, "latitude": 46.92922110000001, "date": {"sam. 01.10.2011": {"weekday": "saturday", "year": 2011, "categories": {"17-W35": {"pace": 281000000000, "rank": 26, "distance": 17, "time": 4828.4}}, "day": 1, "month": 10, "livingplace": "Geneve"}}, "location": "Murten"}, "Montreux - Les Rochers de Naye": {"race": "Montreux - Les Rochers de Naye", "longitude": 6.9106799, "latitude": 46.4312213, "date": {"dim. 10.07.2011": {"weekday": "sunday", "year": 2011, "categories": {"M-EliteF": {"pace": 473000000000, "rank": 8, "distance": 19, "time": 8892.9}}, "day": 10, "month": 7, "livingplace": "Geneve"}}, "location": "Montreux"}, "20km de Lausanne": {"race": "20km de Lausanne", "longitude": 6.6322734, "latitude": 46.5196535, "date": {"sam. 26.04.2014": {"weekday": "saturday", "year": 2014, "categories": {"20-F40": {"pace": 260000000000, "rank": 6, "distance": 20, "time": 5214.8}}, "day": 26, "month": 4, "livingplace": "Bern"}}, "location": "Lausanne"}}, "name": "Wood Kate", "birth": 1972}