{"sex": "F", "races": {"Corrida Bulloise, Bulle": {"race": "Corrida Bulloise, Bulle", "longitude": 7.057726799999999, "latitude": 46.6154512, "date": {"sam. 21.11.2009": {"weekday": "saturday", "year": 2009, "categories": {"F40": {"pace": 282000000000, "rank": 29, "distance": 6, "time": 1735.2}}, "day": 21, "month": 11, "livingplace": "Cortaillod"}}, "location": "Bulle"}, "Int Greifenseelauf, Uster": {"race": "Int Greifenseelauf, Uster", "longitude": 8.717873899999999, "latitude": 47.3482747, "date": {"sam. 17.09.2005": {"weekday": "saturday", "year": 2005, "categories": {"H/W40": {"pace": 318000000000, "rank": 171, "distance": 21, "time": 6730.7}}, "day": 17, "month": 9, "livingplace": "Cortaillod"}}, "location": "Uster"}, "Schweizer Frauenlauf Bern": {"race": "Schweizer Frauenlauf Bern", "longitude": 7.4474468, "latitude": 46.9479739, "date": {"dim. 11.06.2006": {"weekday": "sunday", "year": 2006, "categories": {"5-W40": {"pace": 285000000000, "rank": 50, "distance": 5, "time": 1429.6}}, "day": 11, "month": 6, "livingplace": "Cortaillod"}}, "location": "Bern"}, "20km de Lausanne": {"race": "20km de Lausanne", "longitude": 6.6322734, "latitude": 46.5196535, "date": {"sam. 24.04.2010": {"weekday": "saturday", "year": 2010, "categories": {"10-F45": {"pace": 300000000000, "rank": 12, "distance": 10, "time": 3002.3}}, "day": 24, "month": 4, "livingplace": "Cortaillod"}, "sam. 25.04.2009": {"weekday": "saturday", "year": 2009, "categories": {"10-F45": {"pace": 307000000000, "rank": 18, "distance": 10, "time": 3077.4}}, "day": 25, "month": 4, "livingplace": "Cortaillod"}}, "location": "Lausanne"}, "Bieler Lauftage, Biel Bienne": {"race": "Bieler Lauftage, Biel Bienne", "longitude": 7.2467909, "latitude": 47.1367785, "date": {"ven. 12.06.2009": {"weekday": "friday", "year": 2009, "categories": {"100/W45": {"pace": 478000000000, "rank": 26, "distance": 100, "time": 47829.6}}, "day": 12, "month": 6, "livingplace": "Cortaillod"}}, "location": "Biel/Bienne"}, "Kerzerslauf": {"race": "Kerzerslauf", "longitude": 7.1954365, "latitude": 46.97488999999999, "date": {"sam. 20.03.2004": {"weekday": "saturday", "year": 2004, "categories": {"F40": {"pace": 334000000000, "rank": 110, "distance": 15, "time": 5015.6}}, "day": 20, "month": 3, "livingplace": "Cortaillod"}, "sam. 19.03.2011": {"weekday": "saturday", "year": 2011, "categories": {"15-F45": {"pace": 321000000000, "rank": 104, "distance": 15, "time": 4821.7}}, "day": 19, "month": 3, "livingplace": "Cortaillod"}}, "location": "Kerzers"}, "Morat-Fribourg": {"race": "Morat-Fribourg", "longitude": 7.120184, "latitude": 46.92922110000001, "date": {"sam. 06.10.2007": {"weekday": "saturday", "year": 2007, "categories": {"C/W45": {"pace": 321000000000, "rank": 50, "distance": 17, "time": 5522.2}}, "day": 6, "month": 10, "livingplace": "Cortaillod"}, "sam. 04.10.2008": {"weekday": "saturday", "year": 2008, "categories": {"C-W45": {"pace": 323000000000, "rank": 73, "distance": 17, "time": 5553.7}}, "day": 4, "month": 10, "livingplace": "Cortaillod"}}, "location": "Murten"}, "Aletsch-Halbmarathon, Bettmeralp": {"race": "Aletsch-Halbmarathon, Bettmeralp", "date": {"dim. 27.06.2010": {"weekday": "sunday", "year": 2010, "categories": {"F45": {"pace": 517000000000, "rank": 63, "distance": 21, "time": 10860.3}}, "day": 27, "month": 6, "livingplace": "Cortaillod"}}, "location": "Bettmeralp"}}, "name": "Wutschert Anne-Marie", "birth": 1962}