{"sex": "M", "races": {"Laufsporttag Winterthur": {"race": "Laufsporttag Winterthur", "longitude": -75.6037351, "latitude": 39.8088766, "date": {"sam. 01.03.2014": {"weekday": "saturday", "year": 2014, "categories": {"C": {"pace": 279000000000, "rank": 84, "distance": 11, "time": 3078.1}}, "day": 1, "month": 3, "livingplace": "Zurich"}}, "location": "Winterthur"}, "Aegeriseelauf, Ober\u00e4geri": {"race": "Aegeriseelauf, Ober\u00e4geri", "date": {"ven. 18.07.2014": {"weekday": "friday", "year": 2014, "categories": {"Sen3": {"pace": 315000000000, "rank": 174, "distance": 14, "time": 4462.1}}, "day": 18, "month": 7, "livingplace": "smrun"}}, "location": "Ober\u00e4geri"}, "GP der Stadt D\u00fcbendorf": {"race": "GP der Stadt D\u00fcbendorf", "longitude": 8.618012799999999, "latitude": 47.3971476, "date": {"sam. 12.04.2014": {"weekday": "saturday", "year": 2014, "categories": {"C": {"pace": 304000000000, "rank": 117, "distance": 10, "time": 3045.9}}, "day": 12, "month": 4, "livingplace": "Zurich"}}, "location": "D\u00fcbendorf"}, "Z\u00fcrich Marathon, Teamrun und Cityrun": {"race": "Z\u00fcrich Marathon, Teamrun und Cityrun", "longitude": 8.541694, "latitude": 47.3768866, "date": {"dim. 19.04.2015": {"weekday": "sunday", "year": 2015, "categories": {"10-M40": {"pace": 295000000000, "rank": 151, "distance": 10, "time": 2900.7}}, "day": 19, "month": 4, "livingplace": "Zurich"}}, "location": "Z\u00fcrich"}, "Flughafenlauf, Kloten": {"race": "Flughafenlauf, Kloten", "date": {"jeu. 29.05.2014": {"weekday": "thursday", "year": 2014, "categories": {"C": {"pace": 318000000000, "rank": 172, "distance": 17, "time": 5409.7}}, "day": 29, "month": 5, "livingplace": "Zurich"}}, "location": "Kloten"}, "Z\u00fcrcher Silvesterlauf, Z\u00fcrich": {"race": "Z\u00fcrcher Silvesterlauf, Z\u00fcrich", "longitude": 8.541694, "latitude": 47.3768866, "date": {"dim. 15.12.2013": {"weekday": "sunday", "year": 2013, "categories": {"10-M40": {"pace": 290000000000, "rank": 611, "distance": 10, "time": 2903.9}}, "day": 15, "month": 12, "livingplace": "Zurich"}}, "location": "Z\u00fcrich"}, "SwissCityMarathon - Lucerne, Luzern": {"race": "SwissCityMarathon - Lucerne, Luzern", "longitude": 8.3093072, "latitude": 47.05016819999999, "date": {"dim. 25.10.2015": {"weekday": "sunday", "year": 2015, "categories": {"H-M40": {"pace": 316000000000, "rank": 332, "distance": 21, "time": 6684.8}}, "day": 25, "month": 10, "livingplace": "Zurich"}}, "location": "Luzern"}, "Int Greifenseelauf, Uster": {"race": "Int Greifenseelauf, Uster", "longitude": 8.717873899999999, "latitude": 47.3482747, "date": {"sam. 18.09.2004": {"weekday": "saturday", "year": 2004, "categories": {"K/M30": {"pace": 304000000000, "rank": 49, "distance": 6, "time": 1885.2}}, "day": 18, "month": 9, "livingplace": "Schwerzenbach"}}, "location": "Uster"}}, "name": "Wyss Simon", "birth": 1971}