{"sex": "M", "races": {"Tour du Chablais #3 Bouveret": {"race": "Tour du Chablais #3 Bouveret", "longitude": 7.0223787, "latitude": 46.1782231, "date": {"mer. 17.04.2013": {"weekday": "wednesday", "year": 2013, "categories": {"M-Jun": {"pace": 252000000000, "rank": 4, "distance": 10, "time": 2527.1}}, "day": 17, "month": 4, "livingplace": "Chessel"}}, "location": "Evionnaz"}, "Tour du Chablais #2 Yvorne": {"race": "Tour du Chablais #2 Yvorne", "longitude": 6.854975199999999, "latitude": 46.3835529, "date": {"mer. 10.04.2013": {"weekday": "wednesday", "year": 2013, "categories": {"M-Jun": {"pace": 279000000000, "rank": 4, "distance": 8, "time": 2233.5}}, "day": 10, "month": 4, "livingplace": "Chessel"}}, "location": "Bouveret"}, "Tour du Chablais #6 Monthey": {"race": "Tour du Chablais #6 Monthey", "longitude": 6.970566, "latitude": 46.3190253, "date": {"mer. 08.05.2013": {"weekday": "wednesday", "year": 2013, "categories": {"M-Jun": {"pace": 241000000000, "rank": 6, "distance": 9, "time": 2254.6}}, "day": 8, "month": 5, "livingplace": "Chessel"}}, "location": "Aigle"}, "Tour du Chablais #5 Morgins": {"race": "Tour du Chablais #5 Morgins", "longitude": 6.931504599999999, "latitude": 46.3603257, "date": {"mer. 01.05.2013": {"weekday": "wednesday", "year": 2013, "categories": {"M-Jun": {"pace": 264000000000, "rank": 7, "distance": 8, "time": 2008.3}}, "day": 1, "month": 5, "livingplace": "Chessel"}}, "location": "Roche VD"}, "Tour du Chablais #1 Roche": {"race": "Tour du Chablais #1 Roche", "longitude": 6.9916269, "latitude": 46.2957462, "date": {"mer. 03.04.2013": {"weekday": "wednesday", "year": 2013, "categories": {"M-Jun": {"pace": 253000000000, "rank": 5, "distance": 9, "time": 2242.3}}, "day": 3, "month": 4, "livingplace": "Chessel"}}, "location": "Ollon VD"}, "Tour du Chablais #4 St  Maurice": {"race": "Tour du Chablais #4 St  Maurice", "date": {"mer. 24.04.2013": {"weekday": "wednesday", "year": 2013, "categories": {"M-Jun": {"pace": 259000000000, "rank": 8, "distance": 10, "time": 2590.2}}, "day": 24, "month": 4, "livingplace": "Chessel"}}, "location": "Les Mosses"}, "Kerzerslauf": {"race": "Kerzerslauf", "longitude": 7.1954365, "latitude": 46.97488999999999, "date": {"sam. 17.03.2007": {"weekday": "saturday", "year": 2007, "categories": {"MJKU": {"pace": 252000000000, "rank": 18, "distance": 5, "time": 1261.5}}, "day": 17, "month": 3, "livingplace": "Chessel"}}, "location": "Kerzers"}, "Les Traine-Savates, Cheseaux-sur-Lausanne": {"race": "Les Traine-Savates, Cheseaux-sur-Lausanne", "longitude": 6.6047712, "latitude": 46.585452, "date": {"sam. 12.04.2008": {"weekday": "saturday", "year": 2008, "categories": {"MCB": {"pace": 230000000000, "rank": 7, "distance": 3, "time": 783.0}}, "day": 12, "month": 4, "livingplace": "Chessel"}}, "location": "Cheseaux-sur-Lausanne"}, "20km de Lausanne": {"race": "20km de Lausanne", "longitude": 6.6322734, "latitude": 46.5196535, "date": {"sam. 22.04.2006": {"weekday": "saturday", "year": 2006, "categories": {"4/EcolB": {"pace": 241000000000, "rank": 9, "distance": 4, "time": 964.4}}, "day": 22, "month": 4, "livingplace": "Chessel"}}, "location": "Lausanne"}}, "name": "Yersin Gilles", "birth": 1994}