{"sex": "M", "races": {"Gempenlauf, Dornach": {"race": "Gempenlauf, Dornach", "longitude": 7.6170412, "latitude": 47.4790491, "date": {"mer. 06.06.2012": {"weekday": "wednesday", "year": 2012, "categories": {"M50": {"pace": 358000000000, "rank": 51, "distance": 8, "time": 2793.7}}, "day": 6, "month": 6, "livingplace": "Reinach"}}, "location": "Dornach"}, "Liestaler Stadtlauf": {"race": "Liestaler Stadtlauf", "longitude": 7.7334272, "latitude": 47.4866143, "date": {"mer. 31.08.2011": {"weekday": "wednesday", "year": 2011, "categories": {"M40": {"pace": 287000000000, "rank": 18, "distance": 12, "time": 3453.1}}, "day": 31, "month": 8, "livingplace": "Reinach"}}, "location": "Liestal"}, "Dreil\u00e4nder-Lauf, Basel": {"race": "Dreil\u00e4nder-Lauf, Basel", "longitude": 7.5885761, "latitude": 47.5595986, "date": {"dim. 22.05.2011": {"weekday": "sunday", "year": 2011, "categories": {"21M40": {"pace": 298000000000, "rank": 85, "distance": 21, "time": 6295.8}}, "day": 22, "month": 5, "livingplace": "Reinach"}, "dim. 16.05.2010": {"weekday": "sunday", "year": 2010, "categories": {"21M40": {"pace": 274000000000, "rank": 50, "distance": 21, "time": 5799.3}}, "day": 16, "month": 5, "livingplace": "Reinach"}, "dim. 20.05.2012": {"weekday": "sunday", "year": 2012, "categories": {"21M50": {"pace": 304000000000, "rank": 37, "distance": 21, "time": 6424.6}}, "day": 20, "month": 5, "livingplace": "Reinach"}}, "location": "Basel"}, "Basler Stadtlauf": {"race": "Basler Stadtlauf", "longitude": 7.5885761, "latitude": 47.5595986, "date": {"sam. 29.11.2014": {"weekday": "saturday", "year": 2014, "categories": {"M50": {"pace": 263000000000, "rank": 98, "distance": 6, "time": 1451.7}}, "day": 29, "month": 11, "livingplace": "Reinach"}}, "location": "Basel"}, "Birslauf (Herbst), Basel": {"race": "Birslauf (Herbst), Basel", "longitude": 7.5885761, "latitude": 47.5595986, "date": {"sam. 05.09.2009": {"weekday": "saturday", "year": 2009, "categories": {"M": {"pace": 265000000000, "rank": 124, "distance": 10, "time": 2650.8}}, "day": 5, "month": 9, "livingplace": "Reinach"}}, "location": "Basel"}, "Kerzerslauf": {"race": "Kerzerslauf", "longitude": 7.1954365, "latitude": 46.97488999999999, "date": {"sam. 19.03.2011": {"weekday": "saturday", "year": 2011, "categories": {"15-M45": {"pace": 276000000000, "rank": 212, "distance": 15, "time": 4140.9}}, "day": 19, "month": 3, "livingplace": "Reinach"}, "sam. 17.03.2012": {"weekday": "saturday", "year": 2012, "categories": {"15-M50": {"pace": 283000000000, "rank": 157, "distance": 15, "time": 4256.3}}, "day": 17, "month": 3, "livingplace": "Reinach"}}, "location": "Kerzers"}, "Lucerne Marathon, Luzern": {"race": "Lucerne Marathon, Luzern", "longitude": 8.3093072, "latitude": 47.05016819999999, "date": {"dim. 31.10.2010": {"weekday": "sunday", "year": 2010, "categories": {"H-M40": {"pace": 272000000000, "rank": 265, "distance": 21, "time": 5751.8}}, "day": 31, "month": 10, "livingplace": "Reinach"}, "dim. 30.10.2011": {"weekday": "sunday", "year": 2011, "categories": {"H-M40": {"pace": 290000000000, "rank": 499, "distance": 21, "time": 6131.6}}, "day": 30, "month": 10, "livingplace": "Reinach"}}, "location": "Luzern"}, "Morat-Fribourg": {"race": "Morat-Fribourg", "longitude": 7.120184, "latitude": 46.92922110000001, "date": {"sam. 01.10.2011": {"weekday": "saturday", "year": 2011, "categories": {"17-M45": {"pace": 304000000000, "rank": 305, "distance": 17, "time": 5233.5}}, "day": 1, "month": 10, "livingplace": "Reinach"}}, "location": "Murten"}, "SwissCityMarathon - Lucerne, Luzern": {"race": "SwissCityMarathon - Lucerne, Luzern", "longitude": 8.3093072, "latitude": 47.05016819999999, "date": {"dim. 26.10.2014": {"weekday": "sunday", "year": 2014, "categories": {"H-M50": {"pace": 308000000000, "rank": 304, "distance": 21, "time": 6505.6}}, "day": 26, "month": 10, "livingplace": "Reinach"}}, "location": "Luzern"}, "Augusta Raurica Lauf, Augst BL": {"race": "Augusta Raurica Lauf, Augst BL", "date": {"dim. 09.11.2014": {"weekday": "sunday", "year": 2014, "categories": {"12-M50": {"pace": 290000000000, "rank": 29, "distance": 12, "time": 3491.8}}, "day": 9, "month": 11, "livingplace": "Reinach"}}, "location": "Augst BL"}}, "name": "Zimmermann Daniel", "birth": 1962}